[
  {
    "place_name": "Ballana B.O",
    "district": "AMBALA",
    "state": "HARYANA",
    "pincode": "134008",
    "office_type": "BO",
    "delivery": true,
    "division": "Ambala Division",
    "region": "DivReportingCircle",
    "circle": "Haryana Circle",
    "latitude": 30.378185,
    "longitude": 76.77669
  },
  {
    "place_name": "Chaurmastpur B.O",
    "district": "AMBALA",
    "state": "HARYANA",
    "pincode": "134008",
    "office_type": "BO",
    "delivery": true,
    "division": "Ambala Division",
    "region": "DivReportingCircle",
    "circle": "Haryana Circle",
    "latitude": 30.37819,
    "longitude": 76.776685
  },
  {
    "place_name": "Dhankaur B.O",
    "district": "AMBALA",
    "state": "HARYANA",
    "pincode": "134007",
    "office_type": "BO",
    "delivery": true,
    "division": "Ambala Division",
    "region": "DivReportingCircle",
    "circle": "Haryana Circle",
    "latitude": 30.3682963,
    "longitude": 76.805097
  },
  {
    "place_name": "Jalbera B.O",
    "district": "AMBALA",
    "state": "HARYANA",
    "pincode": "134008",
    "office_type": "BO",
    "delivery": true,
    "division": "Ambala Division",
    "region": "DivReportingCircle",
    "circle": "Haryana Circle",
    "latitude": 30.335454,
    "longitude": 76.771211
  },
  {
    "place_name": "Kot B.O",
    "district": "PANCHKULA",
    "state": "HARYANA",
    "pincode": "134118",
    "office_type": "BO",
    "delivery": true,
    "division": "Ambala Division",
    "region": "DivReportingCircle",
    "circle": "Haryana Circle",
    "latitude": 31.31155,
    "longitude": 74.84805
  },
  {
    "place_name": "Raiwali B.O",
    "district": "AMBALA",
    "state": "HARYANA",
    "pincode": "134118",
    "office_type": "BO",
    "delivery": true,
    "division": "Ambala Division",
    "region": "DivReportingCircle",
    "circle": "Haryana Circle",
    "latitude": 29.36695,
    "longitude": 75.9458
  },
  {
    "place_name": "Rattewali B.O",
    "district": "PANCHKULA",
    "state": "HARYANA",
    "pincode": "134118",
    "office_type": "BO",
    "delivery": true,
    "division": "Ambala Division",
    "region": "DivReportingCircle",
    "circle": "Haryana Circle",
    "latitude": 29.36695,
    "longitude": 75.9458
  },
  {
    "place_name": "Patwi B.O",
    "district": "AMBALA",
    "state": "HARYANA",
    "pincode": "134201",
    "office_type": "BO",
    "delivery": true,
    "division": "Ambala Division",
    "region": "DivReportingCircle",
    "circle": "Haryana Circle",
    "latitude": 30.378183,
    "longitude": 76.776692
  },
  {
    "place_name": "Kharanwali B.O",
    "district": "PANCHKULA",
    "state": "HARYANA",
    "pincode": "133302",
    "office_type": "BO",
    "delivery": true,
    "division": "Ambala Division",
    "region": "DivReportingCircle",
    "circle": "Haryana Circle",
    "latitude": 30.378188,
    "longitude": 76.776687
  },
  {
    "place_name": "Ambli B.O",
    "district": "AMBALA",
    "state": "HARYANA",
    "pincode": "134203",
    "office_type": "BO",
    "delivery": true,
    "division": "Ambala Division",
    "region": "DivReportingCircle",
    "circle": "Haryana Circle",
    "latitude": 30.519862,
    "longitude": 76.809743
  },
  {
    "place_name": "Gadhauli B.O",
    "district": "AMBALA",
    "state": "HARYANA",
    "pincode": "134203",
    "office_type": "BO",
    "delivery": true,
    "division": "Ambala Division",
    "region": "DivReportingCircle",
    "circle": "Haryana Circle",
    "latitude": 30.45733,
    "longitude": 77.13466
  },
  {
    "place_name": "Lalpur B.O",
    "district": "AMBALA",
    "state": "HARYANA",
    "pincode": "134203",
    "office_type": "BO",
    "delivery": true,
    "division": "Ambala Division",
    "region": "DivReportingCircle",
    "circle": "Haryana Circle",
    "latitude": 30.45733,
    "longitude": 77.13466
  },
  {
    "place_name": "Panjlasa B.O",
    "district": "AMBALA",
    "state": "HARYANA",
    "pincode": "134203",
    "office_type": "BO",
    "delivery": true,
    "division": "Ambala Division",
    "region": "DivReportingCircle",
    "circle": "Haryana Circle",
    "latitude": 30.3824743,
    "longitude": 77.0617433
  },
  {
    "place_name": "Devi Nagar B.O",
    "district": "PANCHKULA",
    "state": "HARYANA",
    "pincode": "134109",
    "office_type": "BO",
    "delivery": true,
    "division": "Ambala Division",
    "region": "DivReportingCircle",
    "circle": "Haryana Circle",
    "latitude": 30.692,
    "longitude": 76.8696
  },
  {
    "place_name": "Damaloan B.O",
    "district": "PANCHKULA",
    "state": "HARYANA",
    "pincode": "134102",
    "office_type": "BO",
    "delivery": true,
    "division": "Ambala Division",
    "region": "DivReportingCircle",
    "circle": "Haryana Circle",
    "latitude": 30.81235,
    "longitude": 77.00608
  },
  {
    "place_name": "Baladwala BO",
    "district": "YAMUNANAGAR",
    "state": "HARYANA",
    "pincode": "134204",
    "office_type": "BO",
    "delivery": true,
    "division": "Ambala Division",
    "region": "DivReportingCircle",
    "circle": "Haryana Circle",
    "latitude": 30.596815,
    "longitude": 77.131475
  },
  {
    "place_name": "Korwakhurd B.O",
    "district": "AMBALA",
    "state": "HARYANA",
    "pincode": "134202",
    "office_type": "BO",
    "delivery": true,
    "division": "Ambala Division",
    "region": "DivReportingCircle",
    "circle": "Haryana Circle",
    "latitude": 30.4234973,
    "longitude": 76.9621951
  },
  {
    "place_name": "Kaserla Kalan B.O",
    "district": "AMBALA",
    "state": "HARYANA",
    "pincode": "133205",
    "office_type": "BO",
    "delivery": true,
    "division": "Ambala Division",
    "region": "DivReportingCircle",
    "circle": "Haryana Circle",
    "latitude": 30.3781848,
    "longitude": 76.7766914
  },
  {
    "place_name": "Kalarehri B.O",
    "district": "AMBALA",
    "state": "HARYANA",
    "pincode": "133010",
    "office_type": "BO",
    "delivery": true,
    "division": "Ambala Division",
    "region": "DivReportingCircle",
    "circle": "Haryana Circle",
    "latitude": 30.378184,
    "longitude": 76.776691
  },
  {
    "place_name": "Alipur Jahangir B.O",
    "district": "AMBALA",
    "state": "HARYANA",
    "pincode": "133202",
    "office_type": "BO",
    "delivery": true,
    "division": "Ambala Division",
    "region": "DivReportingCircle",
    "circle": "Haryana Circle",
    "latitude": 30.264186,
    "longitude": 77.126944
  },
  {
    "place_name": "Dukheri B.O",
    "district": "AMBALA",
    "state": "HARYANA",
    "pincode": "133004",
    "office_type": "BO",
    "delivery": true,
    "division": "Ambala Division",
    "region": "DivReportingCircle",
    "circle": "Haryana Circle",
    "latitude": 30.280537,
    "longitude": 76.880744
  },
  {
    "place_name": "Durana B.O",
    "district": "AMBALA",
    "state": "HARYANA",
    "pincode": "133008",
    "office_type": "BO",
    "delivery": true,
    "division": "Ambala Division",
    "region": "DivReportingCircle",
    "circle": "Haryana Circle",
    "latitude": 30.230788,
    "longitude": 76.795873
  },
  {
    "place_name": "Shah Pur B.O",
    "district": "AMBALA",
    "state": "HARYANA",
    "pincode": "133004",
    "office_type": "BO",
    "delivery": true,
    "division": "Ambala Division",
    "region": "DivReportingCircle",
    "circle": "Haryana Circle",
    "latitude": 30.355654,
    "longitude": 76.774473
  },
  {
    "place_name": "Sohana B.O",
    "district": "AMBALA",
    "state": "HARYANA",
    "pincode": "133203",
    "office_type": "BO",
    "delivery": true,
    "division": "Ambala Division",
    "region": "DivReportingCircle",
    "circle": "Haryana Circle",
    "latitude": 30.378184,
    "longitude": 76.7766914
  },
  {
    "place_name": "Mehmoodpur B.O",
    "district": "AMBALA",
    "state": "HARYANA",
    "pincode": "133104",
    "office_type": "BO",
    "delivery": true,
    "division": "Ambala Division",
    "region": "DivReportingCircle",
    "circle": "Haryana Circle",
    "latitude": 30.30052,
    "longitude": 76.96861
  },
  {
    "place_name": "Kalesar B.O",
    "district": "YAMUNANAGAR",
    "state": "HARYANA",
    "pincode": "135106",
    "office_type": "BO",
    "delivery": true,
    "division": "Ambala Division",
    "region": "DivReportingCircle",
    "circle": "Haryana Circle",
    "latitude": 30.4473315,
    "longitude": 77.4472425
  },
  {
    "place_name": "Pipli Majra B.O",
    "district": "YAMUNANAGAR",
    "state": "HARYANA",
    "pincode": "135106",
    "office_type": "BO",
    "delivery": true,
    "division": "Ambala Division",
    "region": "DivReportingCircle",
    "circle": "Haryana Circle",
    "latitude": 30.2413796,
    "longitude": 77.4873959
  },
  {
    "place_name": "Basatianwala B.O",
    "district": "YAMUNANAGAR",
    "state": "HARYANA",
    "pincode": "135102",
    "office_type": "BO",
    "delivery": true,
    "division": "Ambala Division",
    "region": "DivReportingCircle",
    "circle": "Haryana Circle",
    "latitude": 30.378,
    "longitude": 76.776
  },
  {
    "place_name": "Kopal Mochan B.O",
    "district": "YAMUNANAGAR",
    "state": "HARYANA",
    "pincode": "135102",
    "office_type": "BO",
    "delivery": true,
    "division": "Ambala Division",
    "region": "DivReportingCircle",
    "circle": "Haryana Circle",
    "latitude": 30.378,
    "longitude": 76.776
  },
  {
    "place_name": "Machrauli B.O",
    "district": "YAMUNANAGAR",
    "state": "HARYANA",
    "pincode": "135102",
    "office_type": "BO",
    "delivery": true,
    "division": "Ambala Division",
    "region": "DivReportingCircle",
    "circle": "Haryana Circle",
    "latitude": 30.378,
    "longitude": 76.776
  },
  {
    "place_name": "Fatehpur B.O",
    "district": "YAMUNANAGAR",
    "state": "HARYANA",
    "pincode": "135101",
    "office_type": "BO",
    "delivery": true,
    "division": "Ambala Division",
    "region": "DivReportingCircle",
    "circle": "Haryana Circle",
    "latitude": 30.208768,
    "longitude": 77.131752
  },
  {
    "place_name": "Kot Kalsia B.O",
    "district": "YAMUNANAGAR",
    "state": "HARYANA",
    "pincode": "135103",
    "office_type": "BO",
    "delivery": true,
    "division": "Ambala Division",
    "region": "DivReportingCircle",
    "circle": "Haryana Circle",
    "latitude": 30.323284,
    "longitude": 77.417841
  },
  {
    "place_name": "Lalheri Kalan B.O",
    "district": "YAMUNANAGAR",
    "state": "HARYANA",
    "pincode": "135103",
    "office_type": "BO",
    "delivery": true,
    "division": "Ambala Division",
    "region": "DivReportingCircle",
    "circle": "Haryana Circle",
    "latitude": 30.325679,
    "longitude": 77.376944
  },
  {
    "place_name": "Ledi B.O",
    "district": "YAMUNANAGAR",
    "state": "HARYANA",
    "pincode": "135103",
    "office_type": "BO",
    "delivery": true,
    "division": "Ambala Division",
    "region": "DivReportingCircle",
    "circle": "Haryana Circle",
    "latitude": 30.3009,
    "longitude": 77.392
  },
  {
    "place_name": "Bherthal B.O",
    "district": "YAMUNANAGAR",
    "state": "HARYANA",
    "pincode": "135003",
    "office_type": "BO",
    "delivery": true,
    "division": "Ambala Division",
    "region": "DivReportingCircle",
    "circle": "Haryana Circle",
    "latitude": 30.238759,
    "longitude": 77.292951
  },
  {
    "place_name": "Damla B.O",
    "district": "YAMUNANAGAR",
    "state": "HARYANA",
    "pincode": "135002",
    "office_type": "BO",
    "delivery": true,
    "division": "Ambala Division",
    "region": "DivReportingCircle",
    "circle": "Haryana Circle",
    "latitude": 30.3781838,
    "longitude": 76.7766924
  },
  {
    "place_name": "Harnaul B.O",
    "district": "YAMUNANAGAR",
    "state": "HARYANA",
    "pincode": "135002",
    "office_type": "BO",
    "delivery": true,
    "division": "Ambala Division",
    "region": "DivReportingCircle",
    "circle": "Haryana Circle",
    "latitude": 27.703,
    "longitude": 77.7497
  },
  {
    "place_name": "Jagdholi B.O",
    "district": "YAMUNANAGAR",
    "state": "HARYANA",
    "pincode": "133103",
    "office_type": "BO",
    "delivery": true,
    "division": "Ambala Division",
    "region": "DivReportingCircle",
    "circle": "Haryana Circle",
    "latitude": 30.293627,
    "longitude": 77.184278
  },
  {
    "place_name": "Kandhari Kalan B.O",
    "district": "YAMUNANAGAR",
    "state": "HARYANA",
    "pincode": "133103",
    "office_type": "BO",
    "delivery": true,
    "division": "Ambala Division",
    "region": "DivReportingCircle",
    "circle": "Haryana Circle",
    "latitude": 30.199406,
    "longitude": 77.14564
  },
  {
    "place_name": "Talakaur B.O",
    "district": "YAMUNANAGAR",
    "state": "HARYANA",
    "pincode": "133103",
    "office_type": "BO",
    "delivery": true,
    "division": "Ambala Division",
    "region": "DivReportingCircle",
    "circle": "Haryana Circle",
    "latitude": 30.24498,
    "longitude": 77.200747
  },
  {
    "place_name": "Uncha Chandna B.O",
    "district": "YAMUNANAGAR",
    "state": "HARYANA",
    "pincode": "133103",
    "office_type": "BO",
    "delivery": true,
    "division": "Ambala Division",
    "region": "DivReportingCircle",
    "circle": "Haryana Circle",
    "latitude": 30.199406,
    "longitude": 77.14564
  },
  {
    "place_name": "Mehmoodpur B.O",
    "district": "YAMUNANAGAR",
    "state": "HARYANA",
    "pincode": "133204",
    "office_type": "BO",
    "delivery": true,
    "division": "Ambala Division",
    "region": "DivReportingCircle",
    "circle": "Haryana Circle",
    "latitude": 30.378,
    "longitude": 76.776
  },
  {
    "place_name": "Noshera B.O",
    "district": "YAMUNANAGAR",
    "state": "HARYANA",
    "pincode": "133204",
    "office_type": "BO",
    "delivery": true,
    "division": "Ambala Division",
    "region": "DivReportingCircle",
    "circle": "Haryana Circle",
    "latitude": 30.378,
    "longitude": 76.776
  },
  {
    "place_name": "Sadiqpur B.O",
    "district": "YAMUNANAGAR",
    "state": "HARYANA",
    "pincode": "133204",
    "office_type": "BO",
    "delivery": true,
    "division": "Ambala Division",
    "region": "DivReportingCircle",
    "circle": "Haryana Circle",
    "latitude": 30.378,
    "longitude": 76.776
  },
  {
    "place_name": "Sardaheri B.O",
    "district": "AMBALA",
    "state": "HARYANA",
    "pincode": "133206",
    "office_type": "BO",
    "delivery": true,
    "division": "Ambala Division",
    "region": "DivReportingCircle",
    "circle": "Haryana Circle",
    "latitude": 30.316,
    "longitude": 77.235
  },
  {
    "place_name": "Sherpur Sulkhani B.O",
    "district": "AMBALA",
    "state": "HARYANA",
    "pincode": "133206",
    "office_type": "BO",
    "delivery": true,
    "division": "Ambala Division",
    "region": "DivReportingCircle",
    "circle": "Haryana Circle",
    "latitude": 30.316,
    "longitude": 77.235
  },
  {
    "place_name": "Bigowa BO",
    "district": "CHARKI DADRI",
    "state": "HARYANA",
    "pincode": "127307",
    "office_type": "BO",
    "delivery": true,
    "division": "Bhiwani Division",
    "region": "DivReportingCircle",
    "circle": "Haryana Circle",
    "latitude": 28.6745,
    "longitude": 76.3707
  },
  {
    "place_name": "Jhijhar BO",
    "district": "CHARKI DADRI",
    "state": "HARYANA",
    "pincode": "127307",
    "office_type": "BO",
    "delivery": true,
    "division": "Bhiwani Division",
    "region": "DivReportingCircle",
    "circle": "Haryana Circle",
    "latitude": 28.6745,
    "longitude": 76.3707
  },
  {
    "place_name": "Arya Nagar BO",
    "district": "CHARKI DADRI",
    "state": "HARYANA",
    "pincode": "127308",
    "office_type": "BO",
    "delivery": true,
    "division": "Bhiwani Division",
    "region": "DivReportingCircle",
    "circle": "Haryana Circle",
    "latitude": 28.5094,
    "longitude": 75.9376
  },
  {
    "place_name": "Badrai BO",
    "district": "CHARKI DADRI",
    "state": "HARYANA",
    "pincode": "127312",
    "office_type": "BO",
    "delivery": true,
    "division": "Bhiwani Division",
    "region": "DivReportingCircle",
    "circle": "Haryana Circle",
    "latitude": 28.5074,
    "longitude": 76.0695
  },
  {
    "place_name": "Chandwas BO",
    "district": "CHARKI DADRI",
    "state": "HARYANA",
    "pincode": "127308",
    "office_type": "BO",
    "delivery": true,
    "division": "Bhiwani Division",
    "region": "DivReportingCircle",
    "circle": "Haryana Circle",
    "latitude": 28.5074,
    "longitude": 76.0695
  },
  {
    "place_name": "Jewali BO",
    "district": "CHARKI DADRI",
    "state": "HARYANA",
    "pincode": "127308",
    "office_type": "BO",
    "delivery": true,
    "division": "Bhiwani Division",
    "region": "DivReportingCircle",
    "circle": "Haryana Circle",
    "latitude": 28.5074,
    "longitude": 76.0695
  },
  {
    "place_name": "Lad BO",
    "district": "CHARKI DADRI",
    "state": "HARYANA",
    "pincode": "127308",
    "office_type": "BO",
    "delivery": true,
    "division": "Bhiwani Division",
    "region": "DivReportingCircle",
    "circle": "Haryana Circle",
    "latitude": 28.5094,
    "longitude": 75.9376
  },
  {
    "place_name": "Biran BO",
    "district": "BHIWANI",
    "state": "HARYANA",
    "pincode": "127111",
    "office_type": "BO",
    "delivery": true,
    "division": "Bhiwani Division",
    "region": "DivReportingCircle",
    "circle": "Haryana Circle",
    "latitude": 28.8199,
    "longitude": 76.0653
  },
  {
    "place_name": "Dhirana BO",
    "district": "BHIWANI",
    "state": "HARYANA",
    "pincode": "127311",
    "office_type": "BO",
    "delivery": true,
    "division": "Bhiwani Division",
    "region": "DivReportingCircle",
    "circle": "Haryana Circle",
    "latitude": 28.7158,
    "longitude": 76.1414
  },
  {
    "place_name": "Haluwas BO",
    "district": "BHIWANI",
    "state": "HARYANA",
    "pincode": "127311",
    "office_type": "BO",
    "delivery": true,
    "division": "Bhiwani Division",
    "region": "DivReportingCircle",
    "circle": "Haryana Circle",
    "latitude": 28.7158,
    "longitude": 76.1414
  },
  {
    "place_name": "Baliali BO",
    "district": "BHIWANI",
    "state": "HARYANA",
    "pincode": "127032",
    "office_type": "BO",
    "delivery": true,
    "division": "Bhiwani Division",
    "region": "DivReportingCircle",
    "circle": "Haryana Circle",
    "latitude": 28.9449,
    "longitude": 76.0334
  },
  {
    "place_name": "Matani BO",
    "district": "BHIWANI",
    "state": "HARYANA",
    "pincode": "127028",
    "office_type": "BO",
    "delivery": true,
    "division": "Bhiwani Division",
    "region": "DivReportingCircle",
    "circle": "Haryana Circle",
    "latitude": 28.6296,
    "longitude": 75.6179
  },
  {
    "place_name": "Morka BO",
    "district": "BHIWANI",
    "state": "HARYANA",
    "pincode": "127028",
    "office_type": "BO",
    "delivery": true,
    "division": "Bhiwani Division",
    "region": "DivReportingCircle",
    "circle": "Haryana Circle",
    "latitude": 28.6296,
    "longitude": 75.6179
  },
  {
    "place_name": "Noonsar BO",
    "district": "BHIWANI",
    "state": "HARYANA",
    "pincode": "127028",
    "office_type": "BO",
    "delivery": true,
    "division": "Bhiwani Division",
    "region": "DivReportingCircle",
    "circle": "Haryana Circle",
    "latitude": 28.6296,
    "longitude": 75.6179
  },
  {
    "place_name": "Tiwala BO",
    "district": "CHARKI DADRI",
    "state": "HARYANA",
    "pincode": "127026",
    "office_type": "BO",
    "delivery": true,
    "division": "Bhiwani Division",
    "region": "DivReportingCircle",
    "circle": "Haryana Circle",
    "latitude": 28.5997,
    "longitude": 76.1517
  },
  {
    "place_name": "Imlota BO",
    "district": "CHARKI DADRI",
    "state": "HARYANA",
    "pincode": "127306",
    "office_type": "BO",
    "delivery": true,
    "division": "Bhiwani Division",
    "region": "DivReportingCircle",
    "circle": "Haryana Circle",
    "latitude": 28.5921,
    "longitude": 76.2653
  },
  {
    "place_name": "Mankawas BO",
    "district": "CHARKI DADRI",
    "state": "HARYANA",
    "pincode": "127306",
    "office_type": "BO",
    "delivery": true,
    "division": "Bhiwani Division",
    "region": "DivReportingCircle",
    "circle": "Haryana Circle",
    "latitude": 28.5921,
    "longitude": 76.2653
  },
  {
    "place_name": "Paitawas Kalan BO",
    "district": "CHARKI DADRI",
    "state": "HARYANA",
    "pincode": "127306",
    "office_type": "BO",
    "delivery": true,
    "division": "Bhiwani Division",
    "region": "DivReportingCircle",
    "circle": "Haryana Circle",
    "latitude": 28.5921,
    "longitude": 76.2653
  },
  {
    "place_name": "Pichopa Kalan BO",
    "district": "CHARKI DADRI",
    "state": "HARYANA",
    "pincode": "127310",
    "office_type": "BO",
    "delivery": true,
    "division": "Bhiwani Division",
    "region": "DivReportingCircle",
    "circle": "Haryana Circle",
    "latitude": 28.5216,
    "longitude": 76.1508
  },
  {
    "place_name": "Dhabdhani BO",
    "district": "BHIWANI",
    "state": "HARYANA",
    "pincode": "127030",
    "office_type": "BO",
    "delivery": true,
    "division": "Bhiwani Division",
    "region": "DivReportingCircle",
    "circle": "Haryana Circle",
    "latitude": 28.6358,
    "longitude": 75.9434
  },
  {
    "place_name": "Golpura BO",
    "district": "BHIWANI",
    "state": "HARYANA",
    "pincode": "127030",
    "office_type": "BO",
    "delivery": true,
    "division": "Bhiwani Division",
    "region": "DivReportingCircle",
    "circle": "Haryana Circle",
    "latitude": 28.6358,
    "longitude": 75.9434
  },
  {
    "place_name": "Barwas BO",
    "district": "BHIWANI",
    "state": "HARYANA",
    "pincode": "127201",
    "office_type": "BO",
    "delivery": true,
    "division": "Bhiwani Division",
    "region": "DivReportingCircle",
    "circle": "Haryana Circle",
    "latitude": 28.4267,
    "longitude": 75.804
  },
  {
    "place_name": "Nakipur BO",
    "district": "BHIWANI",
    "state": "HARYANA",
    "pincode": "127201",
    "office_type": "BO",
    "delivery": true,
    "division": "Bhiwani Division",
    "region": "DivReportingCircle",
    "circle": "Haryana Circle",
    "latitude": 28.4267,
    "longitude": 75.804
  },
  {
    "place_name": "Singhani BO",
    "district": "BHIWANI",
    "state": "HARYANA",
    "pincode": "127201",
    "office_type": "BO",
    "delivery": true,
    "division": "Bhiwani Division",
    "region": "DivReportingCircle",
    "circle": "Haryana Circle",
    "latitude": 28.4267,
    "longitude": 75.804
  },
  {
    "place_name": "Sohansara BO",
    "district": "BHIWANI",
    "state": "HARYANA",
    "pincode": "127201",
    "office_type": "BO",
    "delivery": true,
    "division": "Bhiwani Division",
    "region": "DivReportingCircle",
    "circle": "Haryana Circle",
    "latitude": 28.4267,
    "longitude": 75.804
  },
  {
    "place_name": "Siwana BO",
    "district": "BHIWANI",
    "state": "HARYANA",
    "pincode": "127041",
    "office_type": "BO",
    "delivery": true,
    "division": "Bhiwani Division",
    "region": "DivReportingCircle",
    "circle": "Haryana Circle",
    "latitude": 28.9734,
    "longitude": 76.1958
  },
  {
    "place_name": "Jhully BO",
    "district": "BHIWANI",
    "state": "HARYANA",
    "pincode": "127043",
    "office_type": "BO",
    "delivery": true,
    "division": "Bhiwani Division",
    "region": "DivReportingCircle",
    "circle": "Haryana Circle",
    "latitude": 28.7218,
    "longitude": 75.7664
  },
  {
    "place_name": "Mandhan BO",
    "district": "BHIWANI",
    "state": "HARYANA",
    "pincode": "127043",
    "office_type": "BO",
    "delivery": true,
    "division": "Bhiwani Division",
    "region": "DivReportingCircle",
    "circle": "Haryana Circle",
    "latitude": 28.7218,
    "longitude": 75.7664
  },
  {
    "place_name": "Gurera BO",
    "district": "BHIWANI",
    "state": "HARYANA",
    "pincode": "127046",
    "office_type": "BO",
    "delivery": true,
    "division": "Bhiwani Division",
    "region": "DivReportingCircle",
    "circle": "Haryana Circle",
    "latitude": 28.9084,
    "longitude": 75.6121
  },
  {
    "place_name": "Kalod BO",
    "district": "BHIWANI",
    "state": "HARYANA",
    "pincode": "127046",
    "office_type": "BO",
    "delivery": true,
    "division": "Bhiwani Division",
    "region": "DivReportingCircle",
    "circle": "Haryana Circle",
    "latitude": 28.9084,
    "longitude": 75.6121
  },
  {
    "place_name": "DHULKOT",
    "district": "BHIWANI",
    "state": "HARYANA",
    "pincode": "127046",
    "office_type": "BO",
    "delivery": true,
    "division": "Bhiwani Division",
    "region": "DivReportingCircle",
    "circle": "Haryana Circle",
    "latitude": 28.919221,
    "longitude": 75.664839
  },
  {
    "place_name": "Dadam BO",
    "district": "BHIWANI",
    "state": "HARYANA",
    "pincode": "127040",
    "office_type": "BO",
    "delivery": true,
    "division": "Bhiwani Division",
    "region": "DivReportingCircle",
    "circle": "Haryana Circle",
    "latitude": 28.8725,
    "longitude": 75.9144
  },
  {
    "place_name": "Kharkhari Sohan BO",
    "district": "BHIWANI",
    "state": "HARYANA",
    "pincode": "127040",
    "office_type": "BO",
    "delivery": true,
    "division": "Bhiwani Division",
    "region": "DivReportingCircle",
    "circle": "Haryana Circle",
    "latitude": 28.8725,
    "longitude": 75.9144
  },
  {
    "place_name": "Riwasa BO",
    "district": "BHIWANI",
    "state": "HARYANA",
    "pincode": "127040",
    "office_type": "BO",
    "delivery": true,
    "division": "Bhiwani Division",
    "region": "DivReportingCircle",
    "circle": "Haryana Circle",
    "latitude": 28.8725,
    "longitude": 75.9144
  },
  {
    "place_name": "Sagban BO",
    "district": "BHIWANI",
    "state": "HARYANA",
    "pincode": "127040",
    "office_type": "BO",
    "delivery": true,
    "division": "Bhiwani Division",
    "region": "DivReportingCircle",
    "circle": "Haryana Circle",
    "latitude": 28.8725,
    "longitude": 75.9144
  },
  {
    "place_name": "Tilpat BO",
    "district": "FARIDABAD",
    "state": "HARYANA",
    "pincode": "121003",
    "office_type": "BO",
    "delivery": true,
    "division": "Faridabad Division",
    "region": "DivReportingCircle",
    "circle": "Haryana Circle",
    "latitude": 28.463698,
    "longitude": 77.333878
  },
  {
    "place_name": "Dighot BO",
    "district": "PALWAL",
    "state": "HARYANA",
    "pincode": "121105",
    "office_type": "BO",
    "delivery": true,
    "division": "Faridabad Division",
    "region": "DivReportingCircle",
    "circle": "Haryana Circle",
    "latitude": 28.03681,
    "longitude": 77.375197
  },
  {
    "place_name": "Pingore BO",
    "district": "PALWAL",
    "state": "HARYANA",
    "pincode": "121105",
    "office_type": "BO",
    "delivery": true,
    "division": "Faridabad Division",
    "region": "DivReportingCircle",
    "circle": "Haryana Circle",
    "latitude": 28.035948,
    "longitude": 77.3465
  },
  {
    "place_name": "Baroli BO",
    "district": "FARIDABAD",
    "state": "HARYANA",
    "pincode": "121004",
    "office_type": "BO",
    "delivery": true,
    "division": "Faridabad Division",
    "region": "DivReportingCircle",
    "circle": "Haryana Circle",
    "latitude": 24.95972,
    "longitude": 75.593164
  },
  {
    "place_name": "Dayalpur BO",
    "district": "FARIDABAD",
    "state": "HARYANA",
    "pincode": "121004",
    "office_type": "BO",
    "delivery": true,
    "division": "Faridabad Division",
    "region": "DivReportingCircle",
    "circle": "Haryana Circle",
    "latitude": 31.057677,
    "longitude": 75.906401
  },
  {
    "place_name": "Banchari BO",
    "district": "PALWAL",
    "state": "HARYANA",
    "pincode": "121106",
    "office_type": "BO",
    "delivery": true,
    "division": "Faridabad Division",
    "region": "DivReportingCircle",
    "circle": "Haryana Circle",
    "latitude": 27.933371,
    "longitude": 77.351106
  },
  {
    "place_name": "Aharwan BO",
    "district": "PALWAL",
    "state": "HARYANA",
    "pincode": "121102",
    "office_type": "BO",
    "delivery": true,
    "division": "Faridabad Division",
    "region": "DivReportingCircle",
    "circle": "Haryana Circle",
    "latitude": 28.1087,
    "longitude": 77.256172
  },
  {
    "place_name": "Asaota BO",
    "district": "PALWAL",
    "state": "HARYANA",
    "pincode": "121102",
    "office_type": "BO",
    "delivery": true,
    "division": "Faridabad Division",
    "region": "DivReportingCircle",
    "circle": "Haryana Circle",
    "latitude": 23.800309,
    "longitude": 75.358705
  },
  {
    "place_name": "Chant BO",
    "district": "PALWAL",
    "state": "HARYANA",
    "pincode": "121102",
    "office_type": "BO",
    "delivery": true,
    "division": "Faridabad Division",
    "region": "DivReportingCircle",
    "circle": "Haryana Circle",
    "latitude": 41.799451,
    "longitude": 87.588696
  },
  {
    "place_name": "Jaindapur BO",
    "district": "PALWAL",
    "state": "HARYANA",
    "pincode": "121102",
    "office_type": "BO",
    "delivery": true,
    "division": "Faridabad Division",
    "region": "DivReportingCircle",
    "circle": "Haryana Circle",
    "latitude": 28.204192,
    "longitude": 77.20585
  },
  {
    "place_name": "Sihol BO",
    "district": "PALWAL",
    "state": "HARYANA",
    "pincode": "121102",
    "office_type": "BO",
    "delivery": true,
    "division": "Faridabad Division",
    "region": "DivReportingCircle",
    "circle": "Haryana Circle",
    "latitude": 22.503803,
    "longitude": 72.86041
  },
  {
    "place_name": "Bhainsrawali BO",
    "district": "FARIDABAD",
    "state": "HARYANA",
    "pincode": "121101",
    "office_type": "BO",
    "delivery": true,
    "division": "Faridabad Division",
    "region": "DivReportingCircle",
    "circle": "Haryana Circle",
    "latitude": 28.379904,
    "longitude": 77.435774
  },
  {
    "place_name": "Kadarpur BO",
    "district": "GURUGRAM",
    "state": "HARYANA",
    "pincode": "122101",
    "office_type": "BO",
    "delivery": true,
    "division": "Gurgaon Division",
    "region": "DivReportingCircle",
    "circle": "Haryana Circle",
    "latitude": 28.3913822,
    "longitude": 77.0511932
  },
  {
    "place_name": "Raisina BO",
    "district": "GURUGRAM",
    "state": "HARYANA",
    "pincode": "122102",
    "office_type": "BO",
    "delivery": true,
    "division": "Gurgaon Division",
    "region": "DivReportingCircle",
    "circle": "Haryana Circle",
    "latitude": 28.352169,
    "longitude": 77.06471
  },
  {
    "place_name": "Moklawas BO",
    "district": "GURUGRAM",
    "state": "HARYANA",
    "pincode": "122413",
    "office_type": "BO",
    "delivery": true,
    "division": "Gurgaon Division",
    "region": "DivReportingCircle",
    "circle": "Haryana Circle",
    "latitude": 29.387631,
    "longitude": 77.446429
  },
  {
    "place_name": "Sultanpur BO",
    "district": "GURUGRAM",
    "state": "HARYANA",
    "pincode": "122506",
    "office_type": "BO",
    "delivery": true,
    "division": "Gurgaon Division",
    "region": "DivReportingCircle",
    "circle": "Haryana Circle",
    "latitude": 28.446796,
    "longitude": 76.825692
  },
  {
    "place_name": "TAJ NAGAR BO",
    "district": "GURUGRAM",
    "state": "HARYANA",
    "pincode": "122506",
    "office_type": "BO",
    "delivery": true,
    "division": "Gurgaon Division",
    "region": "DivReportingCircle",
    "circle": "Haryana Circle",
    "latitude": 0,
    "longitude": 0
  },
  {
    "place_name": "Agon BO",
    "district": "NUH",
    "state": "HARYANA",
    "pincode": "122104",
    "office_type": "BO",
    "delivery": true,
    "division": "Faridabad Division",
    "region": "DivReportingCircle",
    "circle": "Haryana Circle",
    "latitude": 0,
    "longitude": 0
  },
  {
    "place_name": "Hirwari BO",
    "district": "NUH",
    "state": "HARYANA",
    "pincode": "122104",
    "office_type": "BO",
    "delivery": true,
    "division": "Faridabad Division",
    "region": "DivReportingCircle",
    "circle": "Haryana Circle",
    "latitude": 0,
    "longitude": 0
  },
  {
    "place_name": "Rawli BO",
    "district": "NUH",
    "state": "HARYANA",
    "pincode": "122104",
    "office_type": "BO",
    "delivery": true,
    "division": "Faridabad Division",
    "region": "DivReportingCircle",
    "circle": "Haryana Circle",
    "latitude": 0,
    "longitude": 0
  },
  {
    "place_name": "Noorgarh BO",
    "district": "GURUGRAM",
    "state": "HARYANA",
    "pincode": "122504",
    "office_type": "BO",
    "delivery": true,
    "division": "Gurgaon Division",
    "region": "DivReportingCircle",
    "circle": "Haryana Circle",
    "latitude": 28.467015,
    "longitude": 77.081198
  },
  {
    "place_name": "Jasat BO",
    "district": "GURUGRAM",
    "state": "HARYANA",
    "pincode": "122502",
    "office_type": "BO",
    "delivery": true,
    "division": "Gurgaon Division",
    "region": "DivReportingCircle",
    "circle": "Haryana Circle",
    "latitude": 28.292981,
    "longitude": 76.697254
  },
  {
    "place_name": "Kakoria BO",
    "district": "REWARI",
    "state": "HARYANA",
    "pincode": "122502",
    "office_type": "BO",
    "delivery": true,
    "division": "Gurgaon Division",
    "region": "DivReportingCircle",
    "circle": "Haryana Circle",
    "latitude": 28.292981,
    "longitude": 76.697254
  },
  {
    "place_name": "Inchhapuri BO",
    "district": "GURUGRAM",
    "state": "HARYANA",
    "pincode": "122414",
    "office_type": "BO",
    "delivery": true,
    "division": "Gurgaon Division",
    "region": "DivReportingCircle",
    "circle": "Haryana Circle",
    "latitude": 28.271733,
    "longitude": 76.740867
  },
  {
    "place_name": "Khor BO",
    "district": "GURUGRAM",
    "state": "HARYANA",
    "pincode": "122414",
    "office_type": "BO",
    "delivery": true,
    "division": "Gurgaon Division",
    "region": "DivReportingCircle",
    "circle": "Haryana Circle",
    "latitude": 28.271733,
    "longitude": 76.740867
  },
  {
    "place_name": "Lokra BO",
    "district": "GURUGRAM",
    "state": "HARYANA",
    "pincode": "122414",
    "office_type": "BO",
    "delivery": true,
    "division": "Gurgaon Division",
    "region": "DivReportingCircle",
    "circle": "Haryana Circle",
    "latitude": 28.271733,
    "longitude": 76.740867
  },
  {
    "place_name": "Sikohpur BO",
    "district": "GURUGRAM",
    "state": "HARYANA",
    "pincode": "122004",
    "office_type": "BO",
    "delivery": true,
    "division": "Gurgaon Division",
    "region": "DivReportingCircle",
    "circle": "Haryana Circle",
    "latitude": 28.413887,
    "longitude": 76.9931945
  },
  {
    "place_name": "Ferozepur Namak BO",
    "district": "NUH",
    "state": "HARYANA",
    "pincode": "122107",
    "office_type": "BO",
    "delivery": true,
    "division": "Faridabad Division",
    "region": "DivReportingCircle",
    "circle": "Haryana Circle",
    "latitude": 0,
    "longitude": 0
  },
  {
    "place_name": "Kurthala BO",
    "district": "NUH",
    "state": "HARYANA",
    "pincode": "122107",
    "office_type": "BO",
    "delivery": true,
    "division": "Faridabad Division",
    "region": "DivReportingCircle",
    "circle": "Haryana Circle",
    "latitude": 0,
    "longitude": 0
  },
  {
    "place_name": "Tain BO",
    "district": "NUH",
    "state": "HARYANA",
    "pincode": "122107",
    "office_type": "BO",
    "delivery": true,
    "division": "Faridabad Division",
    "region": "DivReportingCircle",
    "circle": "Haryana Circle",
    "latitude": 0,
    "longitude": 0
  },
  {
    "place_name": "Ujina BO",
    "district": "NUH",
    "state": "HARYANA",
    "pincode": "122107",
    "office_type": "BO",
    "delivery": true,
    "division": "Faridabad Division",
    "region": "DivReportingCircle",
    "circle": "Haryana Circle",
    "latitude": 0,
    "longitude": 0
  },
  {
    "place_name": "Jamalpur BO",
    "district": "GURUGRAM",
    "state": "HARYANA",
    "pincode": "122503",
    "office_type": "BO",
    "delivery": true,
    "division": "Gurgaon Division",
    "region": "DivReportingCircle",
    "circle": "Haryana Circle",
    "latitude": 28.325728,
    "longitude": 76.777811
  },
  {
    "place_name": "Pingwan BO",
    "district": "NUH",
    "state": "HARYANA",
    "pincode": "122508",
    "office_type": "BO",
    "delivery": true,
    "division": "Faridabad Division",
    "region": "DivReportingCircle",
    "circle": "Haryana Circle",
    "latitude": 0,
    "longitude": 0
  },
  {
    "place_name": "Gurgaon Village BO",
    "district": "GURUGRAM",
    "state": "HARYANA",
    "pincode": "122006",
    "office_type": "BO",
    "delivery": true,
    "division": "Gurgaon Division",
    "region": "DivReportingCircle",
    "circle": "Haryana Circle",
    "latitude": 28.4855613,
    "longitude": 77.009056
  },
  {
    "place_name": "Chapera BO",
    "district": "NUH",
    "state": "HARYANA",
    "pincode": "122103",
    "office_type": "BO",
    "delivery": true,
    "division": "Gurgaon Division",
    "region": "DivReportingCircle",
    "circle": "Haryana Circle",
    "latitude": 28.248459,
    "longitude": 77.065802
  },
  {
    "place_name": "Ghungola BO",
    "district": "GURUGRAM",
    "state": "HARYANA",
    "pincode": "122103",
    "office_type": "BO",
    "delivery": true,
    "division": "Gurgaon Division",
    "region": "DivReportingCircle",
    "circle": "Haryana Circle",
    "latitude": 28.248459,
    "longitude": 77.065802
  },
  {
    "place_name": "KherliLala BO",
    "district": "GURUGRAM",
    "state": "HARYANA",
    "pincode": "122103",
    "office_type": "BO",
    "delivery": true,
    "division": "Gurgaon Division",
    "region": "DivReportingCircle",
    "circle": "Haryana Circle",
    "latitude": 28.248459,
    "longitude": 77.065802
  },
  {
    "place_name": "Koriawas BO",
    "district": "MAHENDRAGARH",
    "state": "HARYANA",
    "pincode": "123001",
    "office_type": "BO",
    "delivery": true,
    "division": "Bhiwani Division",
    "region": "DivReportingCircle",
    "circle": "Haryana Circle",
    "latitude": 28.044064,
    "longitude": 76.118082
  },
  {
    "place_name": "Krishan Nagar BO",
    "district": "MAHENDRAGARH",
    "state": "HARYANA",
    "pincode": "123001",
    "office_type": "BO",
    "delivery": true,
    "division": "Bhiwani Division",
    "region": "DivReportingCircle",
    "circle": "Haryana Circle",
    "latitude": 28.044064,
    "longitude": 76.118082
  },
  {
    "place_name": "Dublana BO",
    "district": "MAHENDRAGARH",
    "state": "HARYANA",
    "pincode": "123001",
    "office_type": "BO",
    "delivery": true,
    "division": "Bhiwani Division",
    "region": "DivReportingCircle",
    "circle": "Haryana Circle",
    "latitude": 28.044064,
    "longitude": 76.118082
  },
  {
    "place_name": "Kamania BO",
    "district": "MAHENDRAGARH",
    "state": "HARYANA",
    "pincode": "123001",
    "office_type": "BO",
    "delivery": true,
    "division": "Bhiwani Division",
    "region": "DivReportingCircle",
    "circle": "Haryana Circle",
    "latitude": 28.044064,
    "longitude": 76.118082
  },
  {
    "place_name": "Bashirpur BO",
    "district": "MAHENDRAGARH",
    "state": "HARYANA",
    "pincode": "123001",
    "office_type": "BO",
    "delivery": true,
    "division": "Bhiwani Division",
    "region": "DivReportingCircle",
    "circle": "Haryana Circle",
    "latitude": 28.044064,
    "longitude": 76.118082
  },
  {
    "place_name": "Kanwi BO",
    "district": "MAHENDRAGARH",
    "state": "HARYANA",
    "pincode": "123001",
    "office_type": "BO",
    "delivery": true,
    "division": "Bhiwani Division",
    "region": "DivReportingCircle",
    "circle": "Haryana Circle",
    "latitude": 28.044064,
    "longitude": 76.118082
  },
  {
    "place_name": "Dhor Kalan BO",
    "district": "MAHENDRAGARH",
    "state": "HARYANA",
    "pincode": "123001",
    "office_type": "BO",
    "delivery": true,
    "division": "Bhiwani Division",
    "region": "DivReportingCircle",
    "circle": "Haryana Circle",
    "latitude": 28.044064,
    "longitude": 76.118082
  },
  {
    "place_name": "Madhana Kalan BO",
    "district": "MAHENDRAGARH",
    "state": "HARYANA",
    "pincode": "123001",
    "office_type": "BO",
    "delivery": true,
    "division": "Bhiwani Division",
    "region": "DivReportingCircle",
    "circle": "Haryana Circle",
    "latitude": 28.044064,
    "longitude": 76.118082
  },
  {
    "place_name": "Baghthala BO",
    "district": "REWARI",
    "state": "HARYANA",
    "pincode": "123501",
    "office_type": "BO",
    "delivery": true,
    "division": "Gurgaon Division",
    "region": "DivReportingCircle",
    "circle": "Haryana Circle",
    "latitude": 0,
    "longitude": 0
  },
  {
    "place_name": "Jhagroli BO",
    "district": "MAHENDRAGARH",
    "state": "HARYANA",
    "pincode": "123034",
    "office_type": "BO",
    "delivery": true,
    "division": "Bhiwani Division",
    "region": "DivReportingCircle",
    "circle": "Haryana Circle",
    "latitude": 28.258604,
    "longitude": 76.227683
  },
  {
    "place_name": "Pathera BO",
    "district": "MAHENDRAGARH",
    "state": "HARYANA",
    "pincode": "123034",
    "office_type": "BO",
    "delivery": true,
    "division": "Bhiwani Division",
    "region": "DivReportingCircle",
    "circle": "Haryana Circle",
    "latitude": 28.258604,
    "longitude": 76.227683
  },
  {
    "place_name": "Baldhan Kalan BO",
    "district": "REWARI",
    "state": "HARYANA",
    "pincode": "123411",
    "office_type": "BO",
    "delivery": true,
    "division": "Gurgaon Division",
    "region": "DivReportingCircle",
    "circle": "Haryana Circle",
    "latitude": 0,
    "longitude": 0
  },
  {
    "place_name": "Lisan BO",
    "district": "REWARI",
    "state": "HARYANA",
    "pincode": "123411",
    "office_type": "BO",
    "delivery": true,
    "division": "Gurgaon Division",
    "region": "DivReportingCircle",
    "circle": "Haryana Circle",
    "latitude": 0,
    "longitude": 0
  },
  {
    "place_name": "Mundi BO",
    "district": "REWARI",
    "state": "HARYANA",
    "pincode": "123411",
    "office_type": "BO",
    "delivery": true,
    "division": "Gurgaon Division",
    "region": "DivReportingCircle",
    "circle": "Haryana Circle",
    "latitude": 0,
    "longitude": 0
  },
  {
    "place_name": "Kharkhara BO",
    "district": "REWARI",
    "state": "HARYANA",
    "pincode": "123106",
    "office_type": "BO",
    "delivery": false,
    "division": "Gurgaon Division",
    "region": "DivReportingCircle",
    "circle": "Haryana Circle",
    "latitude": 0,
    "longitude": 0
  },
  {
    "place_name": "Maheshwari BO",
    "district": "REWARI",
    "state": "HARYANA",
    "pincode": "123106",
    "office_type": "BO",
    "delivery": true,
    "division": "Gurgaon Division",
    "region": "DivReportingCircle",
    "circle": "Haryana Circle",
    "latitude": 0,
    "longitude": 0
  },
  {
    "place_name": "Nautana BO",
    "district": "MAHENDRAGARH",
    "state": "HARYANA",
    "pincode": "123027",
    "office_type": "BO",
    "delivery": false,
    "division": "Bhiwani Division",
    "region": "DivReportingCircle",
    "circle": "Haryana Circle",
    "latitude": 28.336368,
    "longitude": 76.306545
  },
  {
    "place_name": "Rambas BO",
    "district": "MAHENDRAGARH",
    "state": "HARYANA",
    "pincode": "123027",
    "office_type": "BO",
    "delivery": true,
    "division": "Bhiwani Division",
    "region": "DivReportingCircle",
    "circle": "Haryana Circle",
    "latitude": 28.336368,
    "longitude": 76.306545
  },
  {
    "place_name": "Sehlang BO",
    "district": "MAHENDRAGARH",
    "state": "HARYANA",
    "pincode": "123027",
    "office_type": "BO",
    "delivery": false,
    "division": "Bhiwani Division",
    "region": "DivReportingCircle",
    "circle": "Haryana Circle",
    "latitude": 28.336368,
    "longitude": 76.306545
  },
  {
    "place_name": "Dhawana BO",
    "district": "REWARI",
    "state": "HARYANA",
    "pincode": "123103",
    "office_type": "BO",
    "delivery": false,
    "division": "Gurgaon Division",
    "region": "DivReportingCircle",
    "circle": "Haryana Circle",
    "latitude": 0,
    "longitude": 0
  },
  {
    "place_name": "Basbatori BO",
    "district": "REWARI",
    "state": "HARYANA",
    "pincode": "123101",
    "office_type": "BO",
    "delivery": true,
    "division": "Gurgaon Division",
    "region": "DivReportingCircle",
    "circle": "Haryana Circle",
    "latitude": 0,
    "longitude": 0
  },
  {
    "place_name": "Bhotwas Ahir BO",
    "district": "REWARI",
    "state": "HARYANA",
    "pincode": "123101",
    "office_type": "BO",
    "delivery": true,
    "division": "Gurgaon Division",
    "region": "DivReportingCircle",
    "circle": "Haryana Circle",
    "latitude": 0,
    "longitude": 0
  },
  {
    "place_name": "Bhakli BO",
    "district": "REWARI",
    "state": "HARYANA",
    "pincode": "123302",
    "office_type": "BO",
    "delivery": true,
    "division": "Gurgaon Division",
    "region": "DivReportingCircle",
    "circle": "Haryana Circle",
    "latitude": 0,
    "longitude": 0
  },
  {
    "place_name": "Kosli R S BO",
    "district": "REWARI",
    "state": "HARYANA",
    "pincode": "123302",
    "office_type": "BO",
    "delivery": false,
    "division": "Gurgaon Division",
    "region": "DivReportingCircle",
    "circle": "Haryana Circle",
    "latitude": 0,
    "longitude": 0
  },
  {
    "place_name": "Gothra BO",
    "district": "REWARI",
    "state": "HARYANA",
    "pincode": "123102",
    "office_type": "BO",
    "delivery": false,
    "division": "Gurgaon Division",
    "region": "DivReportingCircle",
    "circle": "Haryana Circle",
    "latitude": 0,
    "longitude": 0
  },
  {
    "place_name": "Bhocharia BO",
    "district": "MAHENDRAGARH",
    "state": "HARYANA",
    "pincode": "123021",
    "office_type": "BO",
    "delivery": true,
    "division": "Bhiwani Division",
    "region": "DivReportingCircle",
    "circle": "Haryana Circle",
    "latitude": 28.100932,
    "longitude": 76.253154
  },
  {
    "place_name": "Dulat Jat BO",
    "district": "MAHENDRAGARH",
    "state": "HARYANA",
    "pincode": "123021",
    "office_type": "BO",
    "delivery": true,
    "division": "Bhiwani Division",
    "region": "DivReportingCircle",
    "circle": "Haryana Circle",
    "latitude": 28.100932,
    "longitude": 76.253154
  },
  {
    "place_name": "Kanti BO",
    "district": "MAHENDRAGARH",
    "state": "HARYANA",
    "pincode": "123021",
    "office_type": "BO",
    "delivery": true,
    "division": "Bhiwani Division",
    "region": "DivReportingCircle",
    "circle": "Haryana Circle",
    "latitude": 28.100932,
    "longitude": 76.253154
  },
  {
    "place_name": "Sarai Bahadur BO",
    "district": "MAHENDRAGARH",
    "state": "HARYANA",
    "pincode": "123021",
    "office_type": "BO",
    "delivery": true,
    "division": "Bhiwani Division",
    "region": "DivReportingCircle",
    "circle": "Haryana Circle",
    "latitude": 28.100932,
    "longitude": 76.253154
  },
  {
    "place_name": "Khatod BO",
    "district": "MAHENDRAGARH",
    "state": "HARYANA",
    "pincode": "123029",
    "office_type": "BO",
    "delivery": true,
    "division": "Bhiwani Division",
    "region": "DivReportingCircle",
    "circle": "Haryana Circle",
    "latitude": 28.2653333,
    "longitude": 76.1439444
  },
  {
    "place_name": "Lilodh BO",
    "district": "REWARI",
    "state": "HARYANA",
    "pincode": "123303",
    "office_type": "BO",
    "delivery": true,
    "division": "Gurgaon Division",
    "region": "DivReportingCircle",
    "circle": "Haryana Circle",
    "latitude": 0,
    "longitude": 0
  },
  {
    "place_name": "Lookhi BO",
    "district": "REWARI",
    "state": "HARYANA",
    "pincode": "123304",
    "office_type": "BO",
    "delivery": true,
    "division": "Gurgaon Division",
    "region": "DivReportingCircle",
    "circle": "Haryana Circle",
    "latitude": 28.409434,
    "longitude": 76.397007
  },
  {
    "place_name": "Nayagaon BO",
    "district": "REWARI",
    "state": "HARYANA",
    "pincode": "123303",
    "office_type": "BO",
    "delivery": true,
    "division": "Gurgaon Division",
    "region": "DivReportingCircle",
    "circle": "Haryana Circle",
    "latitude": 0,
    "longitude": 0
  },
  {
    "place_name": "Nangal Dargu BO",
    "district": "MAHENDRAGARH",
    "state": "HARYANA",
    "pincode": "123023",
    "office_type": "BO",
    "delivery": true,
    "division": "Bhiwani Division",
    "region": "DivReportingCircle",
    "circle": "Haryana Circle",
    "latitude": 27.892541,
    "longitude": 76.110493
  },
  {
    "place_name": "Guraora BO",
    "district": "REWARI",
    "state": "HARYANA",
    "pincode": "123035",
    "office_type": "BO",
    "delivery": true,
    "division": "Gurgaon Division",
    "region": "DivReportingCircle",
    "circle": "Haryana Circle",
    "latitude": 0,
    "longitude": 0
  },
  {
    "place_name": "Barda BO",
    "district": "MAHENDRAGARH",
    "state": "HARYANA",
    "pincode": "123024",
    "office_type": "BO",
    "delivery": false,
    "division": "Bhiwani Division",
    "region": "DivReportingCircle",
    "circle": "Haryana Circle",
    "latitude": 28.378752,
    "longitude": 75.96466
  },
  {
    "place_name": "Nangalmala BO",
    "district": "MAHENDRAGARH",
    "state": "HARYANA",
    "pincode": "123024",
    "office_type": "BO",
    "delivery": false,
    "division": "Bhiwani Division",
    "region": "DivReportingCircle",
    "circle": "Haryana Circle",
    "latitude": 28.378752,
    "longitude": 75.96466
  },
  {
    "place_name": "Boria Kamalpur BO",
    "district": "REWARI",
    "state": "HARYANA",
    "pincode": "123401",
    "office_type": "BO",
    "delivery": true,
    "division": "Gurgaon Division",
    "region": "DivReportingCircle",
    "circle": "Haryana Circle",
    "latitude": 0,
    "longitude": 0
  },
  {
    "place_name": "Mastapur BO",
    "district": "REWARI",
    "state": "HARYANA",
    "pincode": "123401",
    "office_type": "BO",
    "delivery": true,
    "division": "Gurgaon Division",
    "region": "DivReportingCircle",
    "circle": "Haryana Circle",
    "latitude": 0,
    "longitude": 0
  },
  {
    "place_name": "Budhpur BO",
    "district": "REWARI",
    "state": "HARYANA",
    "pincode": "123401",
    "office_type": "BO",
    "delivery": true,
    "division": "Gurgaon Division",
    "region": "DivReportingCircle",
    "circle": "Haryana Circle",
    "latitude": 0,
    "longitude": 0
  },
  {
    "place_name": "Garhi Bolni BO",
    "district": "REWARI",
    "state": "HARYANA",
    "pincode": "123401",
    "office_type": "BO",
    "delivery": true,
    "division": "Gurgaon Division",
    "region": "DivReportingCircle",
    "circle": "Haryana Circle",
    "latitude": 0,
    "longitude": 0
  },
  {
    "place_name": "Gokalgarh BO",
    "district": "REWARI",
    "state": "HARYANA",
    "pincode": "123401",
    "office_type": "BO",
    "delivery": true,
    "division": "Gurgaon Division",
    "region": "DivReportingCircle",
    "circle": "Haryana Circle",
    "latitude": 0,
    "longitude": 0
  },
  {
    "place_name": "Karnawas BO",
    "district": "REWARI",
    "state": "HARYANA",
    "pincode": "123401",
    "office_type": "BO",
    "delivery": true,
    "division": "Gurgaon Division",
    "region": "DivReportingCircle",
    "circle": "Haryana Circle",
    "latitude": 0,
    "longitude": 0
  },
  {
    "place_name": "Mohdinpur BO",
    "district": "REWARI",
    "state": "HARYANA",
    "pincode": "123401",
    "office_type": "BO",
    "delivery": true,
    "division": "Gurgaon Division",
    "region": "DivReportingCircle",
    "circle": "Haryana Circle",
    "latitude": 28.202722,
    "longitude": 76.616953
  },
  {
    "place_name": "Gorakhpur BO",
    "district": "FATEHABAD",
    "state": "HARYANA",
    "pincode": "125047",
    "office_type": "BO",
    "delivery": true,
    "division": "Hissar Division",
    "region": "DivReportingCircle",
    "circle": "Haryana Circle",
    "latitude": 0,
    "longitude": 0
  },
  {
    "place_name": "Nangthala BO",
    "district": "HISAR",
    "state": "HARYANA",
    "pincode": "125047",
    "office_type": "BO",
    "delivery": true,
    "division": "Hissar Division",
    "region": "DivReportingCircle",
    "circle": "Haryana Circle",
    "latitude": 0,
    "longitude": 0
  },
  {
    "place_name": "Gawar BO",
    "district": "HISAR",
    "state": "HARYANA",
    "pincode": "125007",
    "office_type": "BO",
    "delivery": true,
    "division": "Hissar Division",
    "region": "DivReportingCircle",
    "circle": "Haryana Circle",
    "latitude": 29.1324512,
    "longitude": 75.5500702
  },
  {
    "place_name": "CSF Hisar BO",
    "district": "HISAR",
    "state": "HARYANA",
    "pincode": "125011",
    "office_type": "BO",
    "delivery": true,
    "division": "Hissar Division",
    "region": "DivReportingCircle",
    "circle": "Haryana Circle",
    "latitude": 29.191513,
    "longitude": 75.695714
  },
  {
    "place_name": "Khara Kheri BO",
    "district": "FATEHABAD",
    "state": "HARYANA",
    "pincode": "125048",
    "office_type": "BO",
    "delivery": true,
    "division": "Hissar Division",
    "region": "DivReportingCircle",
    "circle": "Haryana Circle",
    "latitude": 0,
    "longitude": 0
  },
  {
    "place_name": "Mahmadpur Rohi BO",
    "district": "FATEHABAD",
    "state": "HARYANA",
    "pincode": "125048",
    "office_type": "BO",
    "delivery": true,
    "division": "Hissar Division",
    "region": "DivReportingCircle",
    "circle": "Haryana Circle",
    "latitude": 0,
    "longitude": 0
  },
  {
    "place_name": "Biana Khera BO",
    "district": "HISAR",
    "state": "HARYANA",
    "pincode": "125121",
    "office_type": "BO",
    "delivery": true,
    "division": "Hissar Division",
    "region": "DivReportingCircle",
    "circle": "Haryana Circle",
    "latitude": 29.356295,
    "longitude": 74.079947
  },
  {
    "place_name": "Jeora BO",
    "district": "HISAR",
    "state": "HARYANA",
    "pincode": "125121",
    "office_type": "BO",
    "delivery": true,
    "division": "Hissar Division",
    "region": "DivReportingCircle",
    "circle": "Haryana Circle",
    "latitude": 29.356295,
    "longitude": 74.079947
  },
  {
    "place_name": "Khedar BO",
    "district": "HISAR",
    "state": "HARYANA",
    "pincode": "125121",
    "office_type": "BO",
    "delivery": true,
    "division": "Hissar Division",
    "region": "DivReportingCircle",
    "circle": "Haryana Circle",
    "latitude": 29.356295,
    "longitude": 74.079947
  },
  {
    "place_name": "Rajli BO",
    "district": "HISAR",
    "state": "HARYANA",
    "pincode": "125121",
    "office_type": "BO",
    "delivery": true,
    "division": "Hissar Division",
    "region": "DivReportingCircle",
    "circle": "Haryana Circle",
    "latitude": 29.356295,
    "longitude": 74.079947
  },
  {
    "place_name": "Sarsod BO",
    "district": "HISAR",
    "state": "HARYANA",
    "pincode": "125121",
    "office_type": "BO",
    "delivery": true,
    "division": "Hissar Division",
    "region": "DivReportingCircle",
    "circle": "Haryana Circle",
    "latitude": 29.356295,
    "longitude": 74.079947
  },
  {
    "place_name": "Kharbala BO",
    "district": "HISAR",
    "state": "HARYANA",
    "pincode": "125042",
    "office_type": "BO",
    "delivery": true,
    "division": "Hissar Division",
    "region": "DivReportingCircle",
    "circle": "Haryana Circle",
    "latitude": 29.1086944,
    "longitude": 75.5512778
  },
  {
    "place_name": "Kirdhan BO",
    "district": "FATEHABAD",
    "state": "HARYANA",
    "pincode": "125053",
    "office_type": "BO",
    "delivery": true,
    "division": "Hissar Division",
    "region": "DivReportingCircle",
    "circle": "Haryana Circle",
    "latitude": 29.378824,
    "longitude": 75.031852
  },
  {
    "place_name": "Mehuwala BO",
    "district": "FATEHABAD",
    "state": "HARYANA",
    "pincode": "125053",
    "office_type": "BO",
    "delivery": true,
    "division": "Hissar Division",
    "region": "DivReportingCircle",
    "circle": "Haryana Circle",
    "latitude": 29.378824,
    "longitude": 75.031852
  },
  {
    "place_name": "Pili Mandori BO",
    "district": "FATEHABAD",
    "state": "HARYANA",
    "pincode": "125053",
    "office_type": "BO",
    "delivery": true,
    "division": "Hissar Division",
    "region": "DivReportingCircle",
    "circle": "Haryana Circle",
    "latitude": 29.378824,
    "longitude": 75.031852
  },
  {
    "place_name": "Suli Khera BO",
    "district": "FATEHABAD",
    "state": "HARYANA",
    "pincode": "125053",
    "office_type": "BO",
    "delivery": true,
    "division": "Hissar Division",
    "region": "DivReportingCircle",
    "circle": "Haryana Circle",
    "latitude": 29.378824,
    "longitude": 75.031852
  },
  {
    "place_name": "Chandrawal BO",
    "district": "FATEHABAD",
    "state": "HARYANA",
    "pincode": "125111",
    "office_type": "BO",
    "delivery": true,
    "division": "Hissar Division",
    "region": "DivReportingCircle",
    "circle": "Haryana Circle",
    "latitude": 0,
    "longitude": 0
  },
  {
    "place_name": "Chaubara BO",
    "district": "FATEHABAD",
    "state": "HARYANA",
    "pincode": "125111",
    "office_type": "BO",
    "delivery": true,
    "division": "Hissar Division",
    "region": "DivReportingCircle",
    "circle": "Haryana Circle",
    "latitude": 0,
    "longitude": 0
  },
  {
    "place_name": "Dhani Gopal BO",
    "district": "FATEHABAD",
    "state": "HARYANA",
    "pincode": "125111",
    "office_type": "BO",
    "delivery": true,
    "division": "Hissar Division",
    "region": "DivReportingCircle",
    "circle": "Haryana Circle",
    "latitude": 0,
    "longitude": 0
  },
  {
    "place_name": "Dullat BO",
    "district": "FATEHABAD",
    "state": "HARYANA",
    "pincode": "125111",
    "office_type": "BO",
    "delivery": true,
    "division": "Hissar Division",
    "region": "DivReportingCircle",
    "circle": "Haryana Circle",
    "latitude": 0,
    "longitude": 0
  },
  {
    "place_name": "Khajuri Jatti BO",
    "district": "FATEHABAD",
    "state": "HARYANA",
    "pincode": "125111",
    "office_type": "BO",
    "delivery": true,
    "division": "Hissar Division",
    "region": "DivReportingCircle",
    "circle": "Haryana Circle",
    "latitude": 0,
    "longitude": 0
  },
  {
    "place_name": "Sanchla BO",
    "district": "FATEHABAD",
    "state": "HARYANA",
    "pincode": "125111",
    "office_type": "BO",
    "delivery": true,
    "division": "Hissar Division",
    "region": "DivReportingCircle",
    "circle": "Haryana Circle",
    "latitude": 0,
    "longitude": 0
  },
  {
    "place_name": "Akanwali BO",
    "district": "FATEHABAD",
    "state": "HARYANA",
    "pincode": "125106",
    "office_type": "BO",
    "delivery": true,
    "division": "Hissar Division",
    "region": "DivReportingCircle",
    "circle": "Haryana Circle",
    "latitude": 29.6745555,
    "longitude": 75.7301111
  },
  {
    "place_name": "Manghera BO",
    "district": "FATEHABAD",
    "state": "HARYANA",
    "pincode": "125106",
    "office_type": "BO",
    "delivery": true,
    "division": "Hissar Division",
    "region": "DivReportingCircle",
    "circle": "Haryana Circle",
    "latitude": 29.6745555,
    "longitude": 75.7301111
  },
  {
    "place_name": "Dhani Majra BO",
    "district": "FATEHABAD",
    "state": "HARYANA",
    "pincode": "125050",
    "office_type": "BO",
    "delivery": true,
    "division": "Hissar Division",
    "region": "DivReportingCircle",
    "circle": "Haryana Circle",
    "latitude": 29.508192,
    "longitude": 75.4535162
  },
  {
    "place_name": "Hajrawan Khurd BO",
    "district": "FATEHABAD",
    "state": "HARYANA",
    "pincode": "125050",
    "office_type": "BO",
    "delivery": true,
    "division": "Hissar Division",
    "region": "DivReportingCircle",
    "circle": "Haryana Circle",
    "latitude": 29.508192,
    "longitude": 75.4535162
  },
  {
    "place_name": "Nakhatia BO",
    "district": "FATEHABAD",
    "state": "HARYANA",
    "pincode": "125050",
    "office_type": "BO",
    "delivery": true,
    "division": "Hissar Division",
    "region": "DivReportingCircle",
    "circle": "Haryana Circle",
    "latitude": 29.508192,
    "longitude": 75.4535162
  },
  {
    "place_name": "Theri BO",
    "district": "FATEHABAD",
    "state": "HARYANA",
    "pincode": "125050",
    "office_type": "BO",
    "delivery": true,
    "division": "Hissar Division",
    "region": "DivReportingCircle",
    "circle": "Haryana Circle",
    "latitude": 29.508192,
    "longitude": 75.4535162
  },
  {
    "place_name": "Neoli Kalan BO",
    "district": "HISAR",
    "state": "HARYANA",
    "pincode": "125004",
    "office_type": "BO",
    "delivery": true,
    "division": "Hissar Division",
    "region": "DivReportingCircle",
    "circle": "Haryana Circle",
    "latitude": 29.1497222,
    "longitude": 75.70825
  },
  {
    "place_name": "Sarsana BO",
    "district": "HISAR",
    "state": "HARYANA",
    "pincode": "125004",
    "office_type": "BO",
    "delivery": true,
    "division": "Hissar Division",
    "region": "DivReportingCircle",
    "circle": "Haryana Circle",
    "latitude": 29.1497222,
    "longitude": 75.70825
  },
  {
    "place_name": "Kharia BO",
    "district": "HISAR",
    "state": "HARYANA",
    "pincode": "125004",
    "office_type": "BO",
    "delivery": true,
    "division": "Hissar Division",
    "region": "DivReportingCircle",
    "circle": "Haryana Circle",
    "latitude": 29.508192,
    "longitude": 75.4535162
  },
  {
    "place_name": "Burak BO",
    "district": "HISAR",
    "state": "HARYANA",
    "pincode": "125004",
    "office_type": "BO",
    "delivery": true,
    "division": "Hissar Division",
    "region": "DivReportingCircle",
    "circle": "Haryana Circle",
    "latitude": 29.508192,
    "longitude": 75.4535162
  },
  {
    "place_name": "Sundawas BO",
    "district": "HISAR",
    "state": "HARYANA",
    "pincode": "125004",
    "office_type": "BO",
    "delivery": true,
    "division": "Hissar Division",
    "region": "DivReportingCircle",
    "circle": "Haryana Circle",
    "latitude": 29.508192,
    "longitude": 75.4535162
  },
  {
    "place_name": "Arya Nagar BO",
    "district": "HISAR",
    "state": "HARYANA",
    "pincode": "125004",
    "office_type": "BO",
    "delivery": true,
    "division": "Hissar Division",
    "region": "DivReportingCircle",
    "circle": "Haryana Circle",
    "latitude": 29.1212383,
    "longitude": 75.725635
  },
  {
    "place_name": "Dhanderi BO",
    "district": "HISAR",
    "state": "HARYANA",
    "pincode": "125033",
    "office_type": "BO",
    "delivery": true,
    "division": "Hissar Division",
    "region": "DivReportingCircle",
    "circle": "Haryana Circle",
    "latitude": 29.0977222,
    "longitude": 75.9688055
  },
  {
    "place_name": "Ghirai BO",
    "district": "HISAR",
    "state": "HARYANA",
    "pincode": "125033",
    "office_type": "BO",
    "delivery": true,
    "division": "Hissar Division",
    "region": "DivReportingCircle",
    "circle": "Haryana Circle",
    "latitude": 29.0977222,
    "longitude": 75.9688055
  },
  {
    "place_name": "Kharkhara BO",
    "district": "HISAR",
    "state": "HARYANA",
    "pincode": "125042",
    "office_type": "BO",
    "delivery": true,
    "division": "Hissar Division",
    "region": "DivReportingCircle",
    "circle": "Haryana Circle",
    "latitude": 29.1086944,
    "longitude": 75.1999722
  },
  {
    "place_name": "Khokha BO",
    "district": "HISAR",
    "state": "HARYANA",
    "pincode": "125033",
    "office_type": "BO",
    "delivery": true,
    "division": "Hissar Division",
    "region": "DivReportingCircle",
    "circle": "Haryana Circle",
    "latitude": 29.0977222,
    "longitude": 75.9688055
  },
  {
    "place_name": "Sindher BO",
    "district": "HISAR",
    "state": "HARYANA",
    "pincode": "125033",
    "office_type": "BO",
    "delivery": true,
    "division": "Hissar Division",
    "region": "DivReportingCircle",
    "circle": "Haryana Circle",
    "latitude": 28.6822222,
    "longitude": 76.9312
  },
  {
    "place_name": "Thurana BO",
    "district": "HISAR",
    "state": "HARYANA",
    "pincode": "125033",
    "office_type": "BO",
    "delivery": true,
    "division": "Hissar Division",
    "region": "DivReportingCircle",
    "circle": "Haryana Circle",
    "latitude": 28.6822222,
    "longitude": 76.9312
  },
  {
    "place_name": "Sidhani BO",
    "district": "FATEHABAD",
    "state": "HARYANA",
    "pincode": "125133",
    "office_type": "BO",
    "delivery": true,
    "division": "Hissar Division",
    "region": "DivReportingCircle",
    "circle": "Haryana Circle",
    "latitude": 29.8089722,
    "longitude": 75.82325
  },
  {
    "place_name": "Sulchani BO",
    "district": "HISAR",
    "state": "HARYANA",
    "pincode": "125038",
    "office_type": "BO",
    "delivery": true,
    "division": "Hissar Division",
    "region": "DivReportingCircle",
    "circle": "Haryana Circle",
    "latitude": 29.1898901,
    "longitude": 76.2245833
  },
  {
    "place_name": "Ugalan BO",
    "district": "HISAR",
    "state": "HARYANA",
    "pincode": "125038",
    "office_type": "BO",
    "delivery": true,
    "division": "Hissar Division",
    "region": "DivReportingCircle",
    "circle": "Haryana Circle",
    "latitude": 29.1898901,
    "longitude": 76.2245833
  },
  {
    "place_name": "Kohli BO",
    "district": "HISAR",
    "state": "HARYANA",
    "pincode": "125052",
    "office_type": "BO",
    "delivery": true,
    "division": "Hissar Division",
    "region": "DivReportingCircle",
    "circle": "Haryana Circle",
    "latitude": 0,
    "longitude": 0
  },
  {
    "place_name": "Mohabatpur BO",
    "district": "HISAR",
    "state": "HARYANA",
    "pincode": "125052",
    "office_type": "BO",
    "delivery": true,
    "division": "Hissar Division",
    "region": "DivReportingCircle",
    "circle": "Haryana Circle",
    "latitude": 0,
    "longitude": 0
  },
  {
    "place_name": "Mirzapur BO",
    "district": "HISAR",
    "state": "HARYANA",
    "pincode": "125005",
    "office_type": "BO",
    "delivery": true,
    "division": "Hissar Division",
    "region": "DivReportingCircle",
    "circle": "Haryana Circle",
    "latitude": 0,
    "longitude": 0
  },
  {
    "place_name": "Niyana BO",
    "district": "HISAR",
    "state": "HARYANA",
    "pincode": "125005",
    "office_type": "BO",
    "delivery": true,
    "division": "Hissar Division",
    "region": "DivReportingCircle",
    "circle": "Haryana Circle",
    "latitude": 0,
    "longitude": 0
  },
  {
    "place_name": "Behbalpur BO",
    "district": "HISAR",
    "state": "HARYANA",
    "pincode": "125005",
    "office_type": "BO",
    "delivery": true,
    "division": "Hissar Division",
    "region": "DivReportingCircle",
    "circle": "Haryana Circle",
    "latitude": 0,
    "longitude": 0
  },
  {
    "place_name": "Muzadpur BO",
    "district": "HISAR",
    "state": "HARYANA",
    "pincode": "125037",
    "office_type": "BO",
    "delivery": true,
    "division": "Hissar Division",
    "region": "DivReportingCircle",
    "circle": "Haryana Circle",
    "latitude": 28.9448611,
    "longitude": 75.8261241
  },
  {
    "place_name": "Haibatpur BO",
    "district": "HISAR",
    "state": "HARYANA",
    "pincode": "125039",
    "office_type": "BO",
    "delivery": true,
    "division": "Hissar Division",
    "region": "DivReportingCircle",
    "circle": "Haryana Circle",
    "latitude": 29.2246111,
    "longitude": 76.1387501
  },
  {
    "place_name": "Madha BO",
    "district": "HISAR",
    "state": "HARYANA",
    "pincode": "125039",
    "office_type": "BO",
    "delivery": true,
    "division": "Hissar Division",
    "region": "DivReportingCircle",
    "circle": "Haryana Circle",
    "latitude": 29.2246111,
    "longitude": 76.1387501
  },
  {
    "place_name": "Nara BO",
    "district": "HISAR",
    "state": "HARYANA",
    "pincode": "125039",
    "office_type": "BO",
    "delivery": true,
    "division": "Hissar Division",
    "region": "DivReportingCircle",
    "circle": "Haryana Circle",
    "latitude": 29.2246111,
    "longitude": 76.1387501
  },
  {
    "place_name": "Sotha BO",
    "district": "HISAR",
    "state": "HARYANA",
    "pincode": "125039",
    "office_type": "BO",
    "delivery": true,
    "division": "Hissar Division",
    "region": "DivReportingCircle",
    "circle": "Haryana Circle",
    "latitude": 29.2246111,
    "longitude": 73.1387501
  },
  {
    "place_name": "Badalgarh BO",
    "district": "FATEHABAD",
    "state": "HARYANA",
    "pincode": "125051",
    "office_type": "BO",
    "delivery": true,
    "division": "Hissar Division",
    "region": "DivReportingCircle",
    "circle": "Haryana Circle",
    "latitude": 29.6853055,
    "longitude": 75.5762777
  },
  {
    "place_name": "Chimmon BO",
    "district": "FATEHABAD",
    "state": "HARYANA",
    "pincode": "125051",
    "office_type": "BO",
    "delivery": true,
    "division": "Hissar Division",
    "region": "DivReportingCircle",
    "circle": "Haryana Circle",
    "latitude": 29.6853055,
    "longitude": 75.5762777
  },
  {
    "place_name": "Hanspur BO",
    "district": "FATEHABAD",
    "state": "HARYANA",
    "pincode": "125051",
    "office_type": "BO",
    "delivery": true,
    "division": "Hissar Division",
    "region": "DivReportingCircle",
    "circle": "Haryana Circle",
    "latitude": 29.6853055,
    "longitude": 75.5762777
  },
  {
    "place_name": "Kamana BO",
    "district": "FATEHABAD",
    "state": "HARYANA",
    "pincode": "125051",
    "office_type": "BO",
    "delivery": true,
    "division": "Hissar Division",
    "region": "DivReportingCircle",
    "circle": "Haryana Circle",
    "latitude": 29.6853055,
    "longitude": 75.5762777
  },
  {
    "place_name": "Mohmadpur Sotter BO",
    "district": "FATEHABAD",
    "state": "HARYANA",
    "pincode": "125051",
    "office_type": "BO",
    "delivery": true,
    "division": "Hissar Division",
    "region": "DivReportingCircle",
    "circle": "Haryana Circle",
    "latitude": 29.6853055,
    "longitude": 75.5762777
  },
  {
    "place_name": "Nangal BO",
    "district": "FATEHABAD",
    "state": "HARYANA",
    "pincode": "125051",
    "office_type": "BO",
    "delivery": true,
    "division": "Hissar Division",
    "region": "DivReportingCircle",
    "circle": "Haryana Circle",
    "latitude": 29.6853055,
    "longitude": 75.5762777
  },
  {
    "place_name": "Ratta Khera BO",
    "district": "FATEHABAD",
    "state": "HARYANA",
    "pincode": "125051",
    "office_type": "BO",
    "delivery": true,
    "division": "Hissar Division",
    "region": "DivReportingCircle",
    "circle": "Haryana Circle",
    "latitude": 29.6853055,
    "longitude": 75.5762777
  },
  {
    "place_name": "Sheikhpur Sotter BO",
    "district": "FATEHABAD",
    "state": "HARYANA",
    "pincode": "125051",
    "office_type": "BO",
    "delivery": true,
    "division": "Hissar Division",
    "region": "DivReportingCircle",
    "circle": "Haryana Circle",
    "latitude": 29.6853055,
    "longitude": 75.5762777
  },
  {
    "place_name": "Bhagana BO",
    "district": "HISAR",
    "state": "HARYANA",
    "pincode": "125044",
    "office_type": "BO",
    "delivery": true,
    "division": "Hissar Division",
    "region": "DivReportingCircle",
    "circle": "Haryana Circle",
    "latitude": 29.1288333,
    "longitude": 75.7844722
  },
  {
    "place_name": "Nangla BO",
    "district": "FATEHABAD",
    "state": "HARYANA",
    "pincode": "125120",
    "office_type": "BO",
    "delivery": true,
    "division": "Hissar Division",
    "region": "DivReportingCircle",
    "circle": "Haryana Circle",
    "latitude": 29.7208611,
    "longitude": 75.9025277
  },
  {
    "place_name": "Pirthala BO",
    "district": "FATEHABAD",
    "state": "HARYANA",
    "pincode": "125120",
    "office_type": "BO",
    "delivery": true,
    "division": "Hissar Division",
    "region": "DivReportingCircle",
    "circle": "Haryana Circle",
    "latitude": 29.7208611,
    "longitude": 75.9025277
  },
  {
    "place_name": "Rainwali BO",
    "district": "FATEHABAD",
    "state": "HARYANA",
    "pincode": "125120",
    "office_type": "BO",
    "delivery": true,
    "division": "Hissar Division",
    "region": "DivReportingCircle",
    "circle": "Haryana Circle",
    "latitude": 29.7208611,
    "longitude": 75.9025277
  },
  {
    "place_name": "Hassangarh BO",
    "district": "HISAR",
    "state": "HARYANA",
    "pincode": "125113",
    "office_type": "BO",
    "delivery": true,
    "division": "Hissar Division",
    "region": "DivReportingCircle",
    "circle": "Haryana Circle",
    "latitude": 29.5065833,
    "longitude": 76.3382222
  },
  {
    "place_name": "Kallar Bhaini BO",
    "district": "HISAR",
    "state": "HARYANA",
    "pincode": "125113",
    "office_type": "BO",
    "delivery": true,
    "division": "Hissar Division",
    "region": "DivReportingCircle",
    "circle": "Haryana Circle",
    "latitude": 29.5065833,
    "longitude": 76.3382222
  },
  {
    "place_name": "Saniana BO",
    "district": "FATEHABAD",
    "state": "HARYANA",
    "pincode": "125113",
    "office_type": "BO",
    "delivery": true,
    "division": "Hissar Division",
    "region": "DivReportingCircle",
    "circle": "Haryana Circle",
    "latitude": 29.5065833,
    "longitude": 76.3382222
  },
  {
    "place_name": "Surewala BO",
    "district": "HISAR",
    "state": "HARYANA",
    "pincode": "125113",
    "office_type": "BO",
    "delivery": true,
    "division": "Hissar Division",
    "region": "DivReportingCircle",
    "circle": "Haryana Circle",
    "latitude": 29.5065833,
    "longitude": 76.3382222
  },
  {
    "place_name": "Kusumbhi BO",
    "district": "SIRSA",
    "state": "HARYANA",
    "pincode": "125055",
    "office_type": "BO",
    "delivery": true,
    "division": "Hissar Division",
    "region": "DivReportingCircle",
    "circle": "Haryana Circle",
    "latitude": 0,
    "longitude": 0
  },
  {
    "place_name": "Mangala BO",
    "district": "SIRSA",
    "state": "HARYANA",
    "pincode": "125055",
    "office_type": "BO",
    "delivery": true,
    "division": "Hissar Division",
    "region": "DivReportingCircle",
    "circle": "Haryana Circle",
    "latitude": 0,
    "longitude": 0
  },
  {
    "place_name": "Nagoki BO",
    "district": "SIRSA",
    "state": "HARYANA",
    "pincode": "125078",
    "office_type": "BO",
    "delivery": true,
    "division": "Hissar Division",
    "region": "DivReportingCircle",
    "circle": "Haryana Circle",
    "latitude": 0,
    "longitude": 0
  },
  {
    "place_name": "Thiraj BO",
    "district": "SIRSA",
    "state": "HARYANA",
    "pincode": "125078",
    "office_type": "BO",
    "delivery": true,
    "division": "Hissar Division",
    "region": "DivReportingCircle",
    "circle": "Haryana Circle",
    "latitude": 0,
    "longitude": 0
  },
  {
    "place_name": "Asa Khera BO",
    "district": "SIRSA",
    "state": "HARYANA",
    "pincode": "125101",
    "office_type": "BO",
    "delivery": true,
    "division": "Hissar Division",
    "region": "DivReportingCircle",
    "circle": "Haryana Circle",
    "latitude": 0,
    "longitude": 0
  },
  {
    "place_name": "Ludesar BO",
    "district": "SIRSA",
    "state": "HARYANA",
    "pincode": "125110",
    "office_type": "BO",
    "delivery": true,
    "division": "Hissar Division",
    "region": "DivReportingCircle",
    "circle": "Haryana Circle",
    "latitude": 0,
    "longitude": 0
  },
  {
    "place_name": "Sahuwala ii BO",
    "district": "SIRSA",
    "state": "HARYANA",
    "pincode": "125110",
    "office_type": "BO",
    "delivery": true,
    "division": "Hissar Division",
    "region": "DivReportingCircle",
    "circle": "Haryana Circle",
    "latitude": 0,
    "longitude": 0
  },
  {
    "place_name": "Sherpura BO",
    "district": "SIRSA",
    "state": "HARYANA",
    "pincode": "125110",
    "office_type": "BO",
    "delivery": true,
    "division": "Hissar Division",
    "region": "DivReportingCircle",
    "circle": "Haryana Circle",
    "latitude": 0,
    "longitude": 0
  },
  {
    "place_name": "Mamera Kalan BO",
    "district": "SIRSA",
    "state": "HARYANA",
    "pincode": "125102",
    "office_type": "BO",
    "delivery": true,
    "division": "Hissar Division",
    "region": "DivReportingCircle",
    "circle": "Haryana Circle",
    "latitude": 0,
    "longitude": 0
  },
  {
    "place_name": "Mauju Khera BO",
    "district": "SIRSA",
    "state": "HARYANA",
    "pincode": "125102",
    "office_type": "BO",
    "delivery": true,
    "division": "Hissar Division",
    "region": "DivReportingCircle",
    "circle": "Haryana Circle",
    "latitude": 0,
    "longitude": 0
  },
  {
    "place_name": "Poharkan BO",
    "district": "SIRSA",
    "state": "HARYANA",
    "pincode": "125102",
    "office_type": "BO",
    "delivery": true,
    "division": "Hissar Division",
    "region": "DivReportingCircle",
    "circle": "Haryana Circle",
    "latitude": 0,
    "longitude": 0
  },
  {
    "place_name": "Karamsana B.O.",
    "district": "SIRSA",
    "state": "HARYANA",
    "pincode": "125102",
    "office_type": "BO",
    "delivery": true,
    "division": "Hissar Division",
    "region": "DivReportingCircle",
    "circle": "Haryana Circle",
    "latitude": 0,
    "longitude": 0
  },
  {
    "place_name": "Banwala BO",
    "district": "SIRSA",
    "state": "HARYANA",
    "pincode": "125103",
    "office_type": "BO",
    "delivery": true,
    "division": "Hissar Division",
    "region": "DivReportingCircle",
    "circle": "Haryana Circle",
    "latitude": 0,
    "longitude": 0
  },
  {
    "place_name": "Bijuwali BO",
    "district": "SIRSA",
    "state": "HARYANA",
    "pincode": "125103",
    "office_type": "BO",
    "delivery": true,
    "division": "Hissar Division",
    "region": "DivReportingCircle",
    "circle": "Haryana Circle",
    "latitude": 0,
    "longitude": 0
  },
  {
    "place_name": "Ghoranwali BO",
    "district": "SIRSA",
    "state": "HARYANA",
    "pincode": "125103",
    "office_type": "BO",
    "delivery": true,
    "division": "Hissar Division",
    "region": "DivReportingCircle",
    "circle": "Haryana Circle",
    "latitude": 0,
    "longitude": 0
  },
  {
    "place_name": "Keharwala BO",
    "district": "SIRSA",
    "state": "HARYANA",
    "pincode": "125103",
    "office_type": "BO",
    "delivery": true,
    "division": "Hissar Division",
    "region": "DivReportingCircle",
    "circle": "Haryana Circle",
    "latitude": 0,
    "longitude": 0
  },
  {
    "place_name": "Rampur Bishnoian BO",
    "district": "SIRSA",
    "state": "HARYANA",
    "pincode": "125103",
    "office_type": "BO",
    "delivery": true,
    "division": "Hissar Division",
    "region": "DivReportingCircle",
    "circle": "Haryana Circle",
    "latitude": 0,
    "longitude": 0
  },
  {
    "place_name": "Gadrana BO",
    "district": "SIRSA",
    "state": "HARYANA",
    "pincode": "125201",
    "office_type": "BO",
    "delivery": true,
    "division": "Hissar Division",
    "region": "DivReportingCircle",
    "circle": "Haryana Circle",
    "latitude": 0,
    "longitude": 0
  },
  {
    "place_name": "Rori BO",
    "district": "SIRSA",
    "state": "HARYANA",
    "pincode": "125201",
    "office_type": "BO",
    "delivery": true,
    "division": "Hissar Division",
    "region": "DivReportingCircle",
    "circle": "Haryana Circle",
    "latitude": 0,
    "longitude": 0
  },
  {
    "place_name": "Takhatmal BO",
    "district": "SIRSA",
    "state": "HARYANA",
    "pincode": "125201",
    "office_type": "BO",
    "delivery": true,
    "division": "Hissar Division",
    "region": "DivReportingCircle",
    "circle": "Haryana Circle",
    "latitude": 0,
    "longitude": 0
  },
  {
    "place_name": "Chatha BO",
    "district": "SIRSA",
    "state": "HARYANA",
    "pincode": "125104",
    "office_type": "BO",
    "delivery": true,
    "division": "Hissar Division",
    "region": "DivReportingCircle",
    "circle": "Haryana Circle",
    "latitude": 0,
    "longitude": 0
  },
  {
    "place_name": "Desu Jodha BO",
    "district": "SIRSA",
    "state": "HARYANA",
    "pincode": "125104",
    "office_type": "BO",
    "delivery": true,
    "division": "Hissar Division",
    "region": "DivReportingCircle",
    "circle": "Haryana Circle",
    "latitude": 0,
    "longitude": 0
  },
  {
    "place_name": "Habuana BO",
    "district": "SIRSA",
    "state": "HARYANA",
    "pincode": "125104",
    "office_type": "BO",
    "delivery": true,
    "division": "Hissar Division",
    "region": "DivReportingCircle",
    "circle": "Haryana Circle",
    "latitude": 0,
    "longitude": 0
  },
  {
    "place_name": "Khuiyana Malkana BO",
    "district": "SIRSA",
    "state": "HARYANA",
    "pincode": "125104",
    "office_type": "BO",
    "delivery": true,
    "division": "Hissar Division",
    "region": "DivReportingCircle",
    "circle": "Haryana Circle",
    "latitude": 0,
    "longitude": 0
  },
  {
    "place_name": "Paniwala Mota BO",
    "district": "SIRSA",
    "state": "HARYANA",
    "pincode": "125077",
    "office_type": "BO",
    "delivery": true,
    "division": "Hissar Division",
    "region": "DivReportingCircle",
    "circle": "Haryana Circle",
    "latitude": 0,
    "longitude": 0
  },
  {
    "place_name": "PANIHARI BO",
    "district": "SIRSA",
    "state": "HARYANA",
    "pincode": "125060",
    "office_type": "BO",
    "delivery": true,
    "division": "Hissar Division",
    "region": "DivReportingCircle",
    "circle": "Haryana Circle",
    "latitude": 0,
    "longitude": 0
  },
  {
    "place_name": "Dudianwali BO",
    "district": "SIRSA",
    "state": "HARYANA",
    "pincode": "125075",
    "office_type": "BO",
    "delivery": true,
    "division": "Hissar Division",
    "region": "DivReportingCircle",
    "circle": "Haryana Circle",
    "latitude": 0,
    "longitude": 0
  },
  {
    "place_name": "Nakora BO",
    "district": "SIRSA",
    "state": "HARYANA",
    "pincode": "125075",
    "office_type": "BO",
    "delivery": true,
    "division": "Hissar Division",
    "region": "DivReportingCircle",
    "circle": "Haryana Circle",
    "latitude": 0,
    "longitude": 0
  },
  {
    "place_name": "Nathore BO",
    "district": "SIRSA",
    "state": "HARYANA",
    "pincode": "125075",
    "office_type": "BO",
    "delivery": true,
    "division": "Hissar Division",
    "region": "DivReportingCircle",
    "circle": "Haryana Circle",
    "latitude": 0,
    "longitude": 0
  },
  {
    "place_name": "Igrah B.O",
    "district": "JIND",
    "state": "HARYANA",
    "pincode": "126102",
    "office_type": "BO",
    "delivery": true,
    "division": "Karnal Division",
    "region": "DivReportingCircle",
    "circle": "Haryana Circle",
    "latitude": 29.3,
    "longitude": 29.2
  },
  {
    "place_name": "Pegan B.O",
    "district": "JIND",
    "state": "HARYANA",
    "pincode": "126111",
    "office_type": "BO",
    "delivery": true,
    "division": "Karnal Division",
    "region": "DivReportingCircle",
    "circle": "Haryana Circle",
    "latitude": 23.36,
    "longitude": 36.32
  },
  {
    "place_name": "Hathwala B.O",
    "district": "JIND",
    "state": "HARYANA",
    "pincode": "126101",
    "office_type": "BO",
    "delivery": true,
    "division": "Karnal Division",
    "region": "DivReportingCircle",
    "circle": "Haryana Circle",
    "latitude": 33.3,
    "longitude": 25.3
  },
  {
    "place_name": "Lajwan Kalan B.O",
    "district": "JIND",
    "state": "HARYANA",
    "pincode": "126101",
    "office_type": "BO",
    "delivery": true,
    "division": "Karnal Division",
    "region": "DivReportingCircle",
    "circle": "Haryana Circle",
    "latitude": 29.3,
    "longitude": 25.3
  },
  {
    "place_name": "Thua B.O",
    "district": "JIND",
    "state": "HARYANA",
    "pincode": "126125",
    "office_type": "BO",
    "delivery": true,
    "division": "Karnal Division",
    "region": "DivReportingCircle",
    "circle": "Haryana Circle",
    "latitude": 33.3,
    "longitude": 25.3
  },
  {
    "place_name": "Dhakal B.O",
    "district": "JIND",
    "state": "HARYANA",
    "pincode": "126116",
    "office_type": "BO",
    "delivery": true,
    "division": "Karnal Division",
    "region": "DivReportingCircle",
    "circle": "Haryana Circle",
    "latitude": 25.3,
    "longitude": 25.3
  },
  {
    "place_name": "Dhanori B.O",
    "district": "JIND",
    "state": "HARYANA",
    "pincode": "126116",
    "office_type": "BO",
    "delivery": true,
    "division": "Karnal Division",
    "region": "DivReportingCircle",
    "circle": "Haryana Circle",
    "latitude": 25.3,
    "longitude": 25.3
  },
  {
    "place_name": "Ghason Kalan B.O",
    "district": "JIND",
    "state": "HARYANA",
    "pincode": "126116",
    "office_type": "BO",
    "delivery": true,
    "division": "Karnal Division",
    "region": "DivReportingCircle",
    "circle": "Haryana Circle",
    "latitude": 25.3,
    "longitude": 25.3
  },
  {
    "place_name": "Karamgarh B.O",
    "district": "JIND",
    "state": "HARYANA",
    "pincode": "126116",
    "office_type": "BO",
    "delivery": true,
    "division": "Karnal Division",
    "region": "DivReportingCircle",
    "circle": "Haryana Circle",
    "latitude": 25.3,
    "longitude": 25.3
  },
  {
    "place_name": "Kharal B.O",
    "district": "JIND",
    "state": "HARYANA",
    "pincode": "126116",
    "office_type": "BO",
    "delivery": true,
    "division": "Karnal Division",
    "region": "DivReportingCircle",
    "circle": "Haryana Circle",
    "latitude": 25.3,
    "longitude": 25.3
  },
  {
    "place_name": "Rajgarh Gurthali B.O",
    "district": "JIND",
    "state": "HARYANA",
    "pincode": "126116",
    "office_type": "BO",
    "delivery": true,
    "division": "Karnal Division",
    "region": "DivReportingCircle",
    "circle": "Haryana Circle",
    "latitude": 23.5,
    "longitude": 23.5
  },
  {
    "place_name": "Sinsar B.O",
    "district": "JIND",
    "state": "HARYANA",
    "pincode": "126116",
    "office_type": "BO",
    "delivery": true,
    "division": "Karnal Division",
    "region": "DivReportingCircle",
    "circle": "Haryana Circle",
    "latitude": 0,
    "longitude": 0
  },
  {
    "place_name": "Dharamgarh B.O",
    "district": "JIND",
    "state": "HARYANA",
    "pincode": "126112",
    "office_type": "BO",
    "delivery": true,
    "division": "Karnal Division",
    "region": "DivReportingCircle",
    "circle": "Haryana Circle",
    "latitude": 37.73,
    "longitude": 33.36
  },
  {
    "place_name": "Didwara B.O",
    "district": "JIND",
    "state": "HARYANA",
    "pincode": "126112",
    "office_type": "BO",
    "delivery": true,
    "division": "Karnal Division",
    "region": "DivReportingCircle",
    "circle": "Haryana Circle",
    "latitude": 32.36,
    "longitude": 24.79
  },
  {
    "place_name": "Kheri Khermawati B.O",
    "district": "JIND",
    "state": "HARYANA",
    "pincode": "126112",
    "office_type": "BO",
    "delivery": true,
    "division": "Karnal Division",
    "region": "DivReportingCircle",
    "circle": "Haryana Circle",
    "latitude": 32.32,
    "longitude": 22.32
  },
  {
    "place_name": "Nimnabad B.O",
    "district": "JIND",
    "state": "HARYANA",
    "pincode": "126112",
    "office_type": "BO",
    "delivery": true,
    "division": "Karnal Division",
    "region": "DivReportingCircle",
    "circle": "Haryana Circle",
    "latitude": 30.12,
    "longitude": 30.12
  },
  {
    "place_name": "Butani B.O",
    "district": "JIND",
    "state": "HARYANA",
    "pincode": "126112",
    "office_type": "BO",
    "delivery": true,
    "division": "Karnal Division",
    "region": "DivReportingCircle",
    "circle": "Haryana Circle",
    "latitude": 32.2,
    "longitude": 32.2
  },
  {
    "place_name": "Malar B.O",
    "district": "JIND",
    "state": "HARYANA",
    "pincode": "126112",
    "office_type": "BO",
    "delivery": true,
    "division": "Karnal Division",
    "region": "DivReportingCircle",
    "circle": "Haryana Circle",
    "latitude": 38.36,
    "longitude": 32.39
  },
  {
    "place_name": "Buana B.O",
    "district": "JIND",
    "state": "HARYANA",
    "pincode": "126114",
    "office_type": "BO",
    "delivery": true,
    "division": "Karnal Division",
    "region": "DivReportingCircle",
    "circle": "Haryana Circle",
    "latitude": 29.5902777,
    "longitude": 76.1099166
  },
  {
    "place_name": "Gatauli B.O",
    "district": "JIND",
    "state": "HARYANA",
    "pincode": "126114",
    "office_type": "BO",
    "delivery": true,
    "division": "Karnal Division",
    "region": "DivReportingCircle",
    "circle": "Haryana Circle",
    "latitude": 29.5902777,
    "longitude": 76.1099166
  },
  {
    "place_name": "Kinana B.O",
    "district": "JIND",
    "state": "HARYANA",
    "pincode": "126114",
    "office_type": "BO",
    "delivery": true,
    "division": "Karnal Division",
    "region": "DivReportingCircle",
    "circle": "Haryana Circle",
    "latitude": 29.5902777,
    "longitude": 76.1099166
  },
  {
    "place_name": "Barsola B.O",
    "district": "JIND",
    "state": "HARYANA",
    "pincode": "126115",
    "office_type": "BO",
    "delivery": true,
    "division": "Karnal Division",
    "region": "DivReportingCircle",
    "circle": "Haryana Circle",
    "latitude": 26.02,
    "longitude": 26.02
  },
  {
    "place_name": "Karsindhu B.O",
    "district": "JIND",
    "state": "HARYANA",
    "pincode": "126115",
    "office_type": "BO",
    "delivery": true,
    "division": "Karnal Division",
    "region": "DivReportingCircle",
    "circle": "Haryana Circle",
    "latitude": 28.3,
    "longitude": 32.5
  },
  {
    "place_name": "Kharakbhura B.O",
    "district": "JIND",
    "state": "HARYANA",
    "pincode": "126115",
    "office_type": "BO",
    "delivery": true,
    "division": "Karnal Division",
    "region": "DivReportingCircle",
    "circle": "Haryana Circle",
    "latitude": 28.3,
    "longitude": 32.5
  },
  {
    "place_name": "Mohangarh B.O",
    "district": "JIND",
    "state": "HARYANA",
    "pincode": "126115",
    "office_type": "BO",
    "delivery": true,
    "division": "Karnal Division",
    "region": "DivReportingCircle",
    "circle": "Haryana Circle",
    "latitude": 28.3,
    "longitude": 32.5
  },
  {
    "place_name": "Sainthali B.O",
    "district": "JIND",
    "state": "HARYANA",
    "pincode": "126152",
    "office_type": "BO",
    "delivery": true,
    "division": "Karnal Division",
    "region": "DivReportingCircle",
    "circle": "Haryana Circle",
    "latitude": 29.5902777,
    "longitude": 76.1099166
  },
  {
    "place_name": "Bandarala B.O",
    "district": "KARNAL",
    "state": "HARYANA",
    "pincode": "132039",
    "office_type": "BO",
    "delivery": true,
    "division": "Karnal Division",
    "region": "DivReportingCircle",
    "circle": "Haryana Circle",
    "latitude": 100,
    "longitude": 100
  },
  {
    "place_name": "Jalmana B.O",
    "district": "KARNAL",
    "state": "HARYANA",
    "pincode": "132039",
    "office_type": "BO",
    "delivery": true,
    "division": "Karnal Division",
    "region": "DivReportingCircle",
    "circle": "Haryana Circle",
    "latitude": 100,
    "longitude": 100
  },
  {
    "place_name": "Karsa Chor B.O",
    "district": "KARNAL",
    "state": "HARYANA",
    "pincode": "132039",
    "office_type": "BO",
    "delivery": true,
    "division": "Karnal Division",
    "region": "DivReportingCircle",
    "circle": "Haryana Circle",
    "latitude": 100,
    "longitude": 100
  },
  {
    "place_name": "Rahra B.O",
    "district": "KARNAL",
    "state": "HARYANA",
    "pincode": "132039",
    "office_type": "BO",
    "delivery": true,
    "division": "Karnal Division",
    "region": "DivReportingCircle",
    "circle": "Haryana Circle",
    "latitude": 100,
    "longitude": 100
  },
  {
    "place_name": "Munak B.O",
    "district": "KARNAL",
    "state": "HARYANA",
    "pincode": "132040",
    "office_type": "BO",
    "delivery": true,
    "division": "Karnal Division",
    "region": "DivReportingCircle",
    "circle": "Haryana Circle",
    "latitude": 100,
    "longitude": 100
  },
  {
    "place_name": "Kalri Jagir B.O",
    "district": "KARNAL",
    "state": "HARYANA",
    "pincode": "132054",
    "office_type": "BO",
    "delivery": true,
    "division": "Karnal Division",
    "region": "DivReportingCircle",
    "circle": "Haryana Circle",
    "latitude": 100,
    "longitude": 100
  },
  {
    "place_name": "Bastara B.O",
    "district": "KARNAL",
    "state": "HARYANA",
    "pincode": "132114",
    "office_type": "BO",
    "delivery": true,
    "division": "Karnal Division",
    "region": "DivReportingCircle",
    "circle": "Haryana Circle",
    "latitude": 26.32,
    "longitude": 26.32
  },
  {
    "place_name": "Staundi B.O",
    "district": "KARNAL",
    "state": "HARYANA",
    "pincode": "132114",
    "office_type": "BO",
    "delivery": true,
    "division": "Karnal Division",
    "region": "DivReportingCircle",
    "circle": "Haryana Circle",
    "latitude": 26.32,
    "longitude": 26.32
  },
  {
    "place_name": "Arainpura B.O",
    "district": "KARNAL",
    "state": "HARYANA",
    "pincode": "132114",
    "office_type": "BO",
    "delivery": true,
    "division": "Karnal Division",
    "region": "DivReportingCircle",
    "circle": "Haryana Circle",
    "latitude": 25.12,
    "longitude": 25.12
  },
  {
    "place_name": "Hanori B.O",
    "district": "KARNAL",
    "state": "HARYANA",
    "pincode": "132041",
    "office_type": "BO",
    "delivery": true,
    "division": "Karnal Division",
    "region": "DivReportingCircle",
    "circle": "Haryana Circle",
    "latitude": 29.5902777,
    "longitude": 76.1099166
  },
  {
    "place_name": "Sanghowa B.O",
    "district": "KARNAL",
    "state": "HARYANA",
    "pincode": "132041",
    "office_type": "BO",
    "delivery": true,
    "division": "Karnal Division",
    "region": "DivReportingCircle",
    "circle": "Haryana Circle",
    "latitude": 29.5902777,
    "longitude": 76.1099166
  },
  {
    "place_name": "Chirao B.O",
    "district": "KARNAL",
    "state": "HARYANA",
    "pincode": "132036",
    "office_type": "BO",
    "delivery": true,
    "division": "Karnal Division",
    "region": "DivReportingCircle",
    "circle": "Haryana Circle",
    "latitude": 32.5,
    "longitude": 35.2
  },
  {
    "place_name": "Canal Colony B.O",
    "district": "KARNAL",
    "state": "HARYANA",
    "pincode": "132001",
    "office_type": "BO",
    "delivery": true,
    "division": "Karnal Division",
    "region": "DivReportingCircle",
    "circle": "Haryana Circle",
    "latitude": 29.32,
    "longitude": 29.32
  },
  {
    "place_name": "Barauta B.O",
    "district": "KARNAL",
    "state": "HARYANA",
    "pincode": "132037",
    "office_type": "BO",
    "delivery": true,
    "division": "Karnal Division",
    "region": "DivReportingCircle",
    "circle": "Haryana Circle",
    "latitude": 29.6874444,
    "longitude": 76.9906666
  },
  {
    "place_name": "Karsa Dod B.O",
    "district": "KARNAL",
    "state": "HARYANA",
    "pincode": "132157",
    "office_type": "BO",
    "delivery": true,
    "division": "Karnal Division",
    "region": "DivReportingCircle",
    "circle": "Haryana Circle",
    "latitude": 29.3959722,
    "longitude": 76.9606388
  },
  {
    "place_name": "Majra Rodan B.O",
    "district": "KARNAL",
    "state": "HARYANA",
    "pincode": "132157",
    "office_type": "BO",
    "delivery": true,
    "division": "Karnal Division",
    "region": "DivReportingCircle",
    "circle": "Haryana Circle",
    "latitude": 29.3959722,
    "longitude": 76.9606388
  },
  {
    "place_name": "Raison B.O",
    "district": "KARNAL",
    "state": "HARYANA",
    "pincode": "132157",
    "office_type": "BO",
    "delivery": true,
    "division": "Karnal Division",
    "region": "DivReportingCircle",
    "circle": "Haryana Circle",
    "latitude": 29.3959722,
    "longitude": 76.9606388
  },
  {
    "place_name": "Sanwat B.O",
    "district": "KARNAL",
    "state": "HARYANA",
    "pincode": "132157",
    "office_type": "BO",
    "delivery": true,
    "division": "Karnal Division",
    "region": "DivReportingCircle",
    "circle": "Haryana Circle",
    "latitude": 29.3959722,
    "longitude": 76.9606388
  },
  {
    "place_name": "Sitamai B.O",
    "district": "KARNAL",
    "state": "HARYANA",
    "pincode": "132157",
    "office_type": "BO",
    "delivery": true,
    "division": "Karnal Division",
    "region": "DivReportingCircle",
    "circle": "Haryana Circle",
    "latitude": 29.3959722,
    "longitude": 76.9606388
  },
  {
    "place_name": "Amupur B.O",
    "district": "KARNAL",
    "state": "HARYANA",
    "pincode": "132024",
    "office_type": "BO",
    "delivery": true,
    "division": "Karnal Division",
    "region": "DivReportingCircle",
    "circle": "Haryana Circle",
    "latitude": 29.3959722,
    "longitude": 76.9606388
  },
  {
    "place_name": "Brass B.O",
    "district": "KARNAL",
    "state": "HARYANA",
    "pincode": "132024",
    "office_type": "BO",
    "delivery": true,
    "division": "Karnal Division",
    "region": "DivReportingCircle",
    "circle": "Haryana Circle",
    "latitude": 29.3959722,
    "longitude": 76.9606388
  },
  {
    "place_name": "Sirsi B.O",
    "district": "KARNAL",
    "state": "HARYANA",
    "pincode": "132024",
    "office_type": "BO",
    "delivery": true,
    "division": "Karnal Division",
    "region": "DivReportingCircle",
    "circle": "Haryana Circle",
    "latitude": 37,
    "longitude": 37
  },
  {
    "place_name": "Thari B.O",
    "district": "KARNAL",
    "state": "HARYANA",
    "pincode": "132046",
    "office_type": "BO",
    "delivery": true,
    "division": "Karnal Division",
    "region": "DivReportingCircle",
    "circle": "Haryana Circle",
    "latitude": 29.5286111,
    "longitude": 75.9966111
  },
  {
    "place_name": "A.K.G.V.Mormajra B.O",
    "district": "KARNAL",
    "state": "HARYANA",
    "pincode": "132046",
    "office_type": "BO",
    "delivery": true,
    "division": "Karnal Division",
    "region": "DivReportingCircle",
    "circle": "Haryana Circle",
    "latitude": 29.5286111,
    "longitude": 75.9966111
  },
  {
    "place_name": "Ramana Ramani B.O",
    "district": "KARNAL",
    "state": "HARYANA",
    "pincode": "132116",
    "office_type": "BO",
    "delivery": true,
    "division": "Karnal Division",
    "region": "DivReportingCircle",
    "circle": "Haryana Circle",
    "latitude": 29.5286111,
    "longitude": 75.9966111
  },
  {
    "place_name": "Saunkra B.O",
    "district": "KARNAL",
    "state": "HARYANA",
    "pincode": "132116",
    "office_type": "BO",
    "delivery": true,
    "division": "Karnal Division",
    "region": "DivReportingCircle",
    "circle": "Haryana Circle",
    "latitude": 29.5286111,
    "longitude": 75.9966111
  },
  {
    "place_name": "Sagga B.O",
    "district": "KARNAL",
    "state": "HARYANA",
    "pincode": "132116",
    "office_type": "BO",
    "delivery": true,
    "division": "Karnal Division",
    "region": "DivReportingCircle",
    "circle": "Haryana Circle",
    "latitude": 29.5286111,
    "longitude": 75.9966111
  },
  {
    "place_name": "Uchana B.O",
    "district": "KARNAL",
    "state": "HARYANA",
    "pincode": "132116",
    "office_type": "BO",
    "delivery": true,
    "division": "Karnal Division",
    "region": "DivReportingCircle",
    "circle": "Haryana Circle",
    "latitude": 29.5286111,
    "longitude": 75.9966111
  },