[
  {
    "place_name": "Banjipali B.O",
    "district": "BALANGIR",
    "state": "ODISHA",
    "pincode": "767067",
    "office_type": "BO",
    "delivery": true,
    "division": "Balangir Division",
    "region": "Sambalpur Region",
    "circle": "Odisha Circle",
    "latitude": 20.807417,
    "longitude": 82.941896
  },
  {
    "place_name": "Barbahal B.O",
    "district": "BALANGIR",
    "state": "ODISHA",
    "pincode": "767027",
    "office_type": "BO",
    "delivery": true,
    "division": "Balangir Division",
    "region": "Sambalpur Region",
    "circle": "Odisha Circle",
    "latitude": 20.7025983,
    "longitude": 82.9642783
  },
  {
    "place_name": "Dedarha B.O",
    "district": "BALANGIR",
    "state": "ODISHA",
    "pincode": "767027",
    "office_type": "BO",
    "delivery": true,
    "division": "Balangir Division",
    "region": "Sambalpur Region",
    "circle": "Odisha Circle",
    "latitude": 20.7605433,
    "longitude": 82.9719133
  },
  {
    "place_name": "Chatuanka B.O",
    "district": "BALANGIR",
    "state": "ODISHA",
    "pincode": "767039",
    "office_type": "BO",
    "delivery": true,
    "division": "Balangir Division",
    "region": "Sambalpur Region",
    "circle": "Odisha Circle",
    "latitude": 20.4808996,
    "longitude": 82.9252281
  },
  {
    "place_name": "Chaulsukha B.O",
    "district": "BALANGIR",
    "state": "ODISHA",
    "pincode": "767039",
    "office_type": "BO",
    "delivery": true,
    "division": "Balangir Division",
    "region": "Sambalpur Region",
    "circle": "Odisha Circle",
    "latitude": 20.4359065,
    "longitude": 82.9854
  },
  {
    "place_name": "Khagsa B.O",
    "district": "BALANGIR",
    "state": "ODISHA",
    "pincode": "767039",
    "office_type": "BO",
    "delivery": true,
    "division": "Balangir Division",
    "region": "Sambalpur Region",
    "circle": "Odisha Circle",
    "latitude": 20.45465,
    "longitude": 82.93955
  },
  {
    "place_name": "Maharapadar B.O",
    "district": "BALANGIR",
    "state": "ODISHA",
    "pincode": "767028",
    "office_type": "BO",
    "delivery": true,
    "division": "Balangir Division",
    "region": "Sambalpur Region",
    "circle": "Odisha Circle",
    "latitude": 20.706876,
    "longitude": 83.1408809
  },
  {
    "place_name": "Rengali B.O",
    "district": "BALANGIR",
    "state": "ODISHA",
    "pincode": "767028",
    "office_type": "BO",
    "delivery": true,
    "division": "Balangir Division",
    "region": "Sambalpur Region",
    "circle": "Odisha Circle",
    "latitude": 20.7715016,
    "longitude": 82.7914472
  },
  {
    "place_name": "Chahatakhol B.O",
    "district": "SONEPUR",
    "state": "ODISHA",
    "pincode": "767068",
    "office_type": "BO",
    "delivery": true,
    "division": "Balangir Division",
    "region": "Sambalpur Region",
    "circle": "Odisha Circle",
    "latitude": 20.908777,
    "longitude": 83.646865
  },
  {
    "place_name": "Badibahal B.O",
    "district": "BALANGIR",
    "state": "ODISHA",
    "pincode": "767020",
    "office_type": "BO",
    "delivery": true,
    "division": "Balangir Division",
    "region": "Sambalpur Region",
    "circle": "Odisha Circle",
    "latitude": 20.8945933,
    "longitude": 83.567135
  },
  {
    "place_name": "Burda B.O",
    "district": "BALANGIR",
    "state": "ODISHA",
    "pincode": "767020",
    "office_type": "BO",
    "delivery": true,
    "division": "Balangir Division",
    "region": "Sambalpur Region",
    "circle": "Odisha Circle",
    "latitude": 20.87672,
    "longitude": 83.5158233
  },
  {
    "place_name": "Chalki B.O",
    "district": "BALANGIR",
    "state": "ODISHA",
    "pincode": "767037",
    "office_type": "BO",
    "delivery": true,
    "division": "Balangir Division",
    "region": "Sambalpur Region",
    "circle": "Odisha Circle",
    "latitude": 20.4759516,
    "longitude": 83.1247366
  },
  {
    "place_name": "Tentulikhunti B.O",
    "district": "BALANGIR",
    "state": "ODISHA",
    "pincode": "767037",
    "office_type": "BO",
    "delivery": true,
    "division": "Balangir Division",
    "region": "Sambalpur Region",
    "circle": "Odisha Circle",
    "latitude": 20.2909396,
    "longitude": 83.157243
  },
  {
    "place_name": "Ulba B.O",
    "district": "BALANGIR",
    "state": "ODISHA",
    "pincode": "767041",
    "office_type": "BO",
    "delivery": true,
    "division": "Balangir Division",
    "region": "Sambalpur Region",
    "circle": "Odisha Circle",
    "latitude": 20.716285,
    "longitude": 83.1768833
  },
  {
    "place_name": "Tamia B.O",
    "district": "BALANGIR",
    "state": "ODISHA",
    "pincode": "767025",
    "office_type": "BO",
    "delivery": true,
    "division": "Balangir Division",
    "region": "Sambalpur Region",
    "circle": "Odisha Circle",
    "latitude": 20.7848119,
    "longitude": 83.2322938
  },
  {
    "place_name": "Ghuchepali B.O",
    "district": "BALANGIR",
    "state": "ODISHA",
    "pincode": "767025",
    "office_type": "BO",
    "delivery": true,
    "division": "Balangir Division",
    "region": "Sambalpur Region",
    "circle": "Odisha Circle",
    "latitude": 20.670009,
    "longitude": 83.147904
  },
  {
    "place_name": "Daspur B.O",
    "district": "BALANGIR",
    "state": "ODISHA",
    "pincode": "767002",
    "office_type": "BO",
    "delivery": true,
    "division": "Balangir Division",
    "region": "Sambalpur Region",
    "circle": "Odisha Circle",
    "latitude": 20.6536095,
    "longitude": 83.5859359
  },
  {
    "place_name": "Mahimunda B.O",
    "district": "BALANGIR",
    "state": "ODISHA",
    "pincode": "767002",
    "office_type": "BO",
    "delivery": true,
    "division": "Balangir Division",
    "region": "Sambalpur Region",
    "circle": "Odisha Circle",
    "latitude": 20.6215887,
    "longitude": 83.556742
  },
  {
    "place_name": "Manoharpur B.O",
    "district": "BALANGIR",
    "state": "ODISHA",
    "pincode": "767002",
    "office_type": "BO",
    "delivery": false,
    "division": "Balangir Division",
    "region": "Sambalpur Region",
    "circle": "Odisha Circle",
    "latitude": 20.6880812,
    "longitude": 83.4814335
  },
  {
    "place_name": "Kharlikani B.O",
    "district": "BALANGIR",
    "state": "ODISHA",
    "pincode": "767002",
    "office_type": "BO",
    "delivery": true,
    "division": "Balangir Division",
    "region": "Sambalpur Region",
    "circle": "Odisha Circle",
    "latitude": 20.674356,
    "longitude": 83.445797
  },
  {
    "place_name": "Belgaon B.O",
    "district": "BALANGIR",
    "state": "ODISHA",
    "pincode": "767032",
    "office_type": "BO",
    "delivery": true,
    "division": "Balangir Division",
    "region": "Sambalpur Region",
    "circle": "Odisha Circle",
    "latitude": 20.3185033,
    "longitude": 83.3160766
  },
  {
    "place_name": "Deng B.O",
    "district": "BALANGIR",
    "state": "ODISHA",
    "pincode": "767032",
    "office_type": "BO",
    "delivery": true,
    "division": "Balangir Division",
    "region": "Sambalpur Region",
    "circle": "Odisha Circle",
    "latitude": 20.4389566,
    "longitude": 83.3266883
  },
  {
    "place_name": "Gandpatrapali B.O",
    "district": "BALANGIR",
    "state": "ODISHA",
    "pincode": "767032",
    "office_type": "BO",
    "delivery": true,
    "division": "Balangir Division",
    "region": "Sambalpur Region",
    "circle": "Odisha Circle",
    "latitude": 20.4160699,
    "longitude": 83.27527
  },
  {
    "place_name": "Karamtala B.O",
    "district": "BALANGIR",
    "state": "ODISHA",
    "pincode": "767032",
    "office_type": "BO",
    "delivery": true,
    "division": "Balangir Division",
    "region": "Sambalpur Region",
    "circle": "Odisha Circle",
    "latitude": 20.4437266,
    "longitude": 83.2513966
  },
  {
    "place_name": "Dabjor B.O",
    "district": "BALANGIR",
    "state": "ODISHA",
    "pincode": "767032",
    "office_type": "BO",
    "delivery": true,
    "division": "Balangir Division",
    "region": "Sambalpur Region",
    "circle": "Odisha Circle",
    "latitude": 20.521102,
    "longitude": 83.239951
  },
  {
    "place_name": "Bendra B.O",
    "district": "BALANGIR",
    "state": "ODISHA",
    "pincode": "767021",
    "office_type": "BO",
    "delivery": true,
    "division": "Balangir Division",
    "region": "Sambalpur Region",
    "circle": "Odisha Circle",
    "latitude": 20.917625,
    "longitude": 83.5417433
  },
  {
    "place_name": "Rampur B.O",
    "district": "BALANGIR",
    "state": "ODISHA",
    "pincode": "767021",
    "office_type": "BO",
    "delivery": true,
    "division": "Balangir Division",
    "region": "Sambalpur Region",
    "circle": "Odisha Circle",
    "latitude": 20.9298116,
    "longitude": 83.5106783
  },
  {
    "place_name": "Budhipadar B.O",
    "district": "BALANGIR",
    "state": "ODISHA",
    "pincode": "767021",
    "office_type": "BO",
    "delivery": true,
    "division": "Balangir Division",
    "region": "Sambalpur Region",
    "circle": "Odisha Circle",
    "latitude": 20.89951,
    "longitude": 83.5208116
  },
  {
    "place_name": "Dedgaon B.O",
    "district": "BALANGIR",
    "state": "ODISHA",
    "pincode": "767035",
    "office_type": "BO",
    "delivery": true,
    "division": "Balangir Division",
    "region": "Sambalpur Region",
    "circle": "Odisha Circle",
    "latitude": 20.2484033,
    "longitude": 82.90299
  },
  {
    "place_name": "Mayurudan B.O",
    "district": "SONEPUR",
    "state": "ODISHA",
    "pincode": "767017",
    "office_type": "BO",
    "delivery": true,
    "division": "Balangir Division",
    "region": "Sambalpur Region",
    "circle": "Odisha Circle",
    "latitude": 20.87273,
    "longitude": 83.7698288
  },
  {
    "place_name": "Arjunda B.O",
    "district": "SONEPUR",
    "state": "ODISHA",
    "pincode": "767016",
    "office_type": "BO",
    "delivery": true,
    "division": "Balangir Division",
    "region": "Sambalpur Region",
    "circle": "Odisha Circle",
    "latitude": 20.7306922,
    "longitude": 83.6520336
  },
  {
    "place_name": "Badbhainro B.O",
    "district": "SONEPUR",
    "state": "ODISHA",
    "pincode": "767016",
    "office_type": "BO",
    "delivery": true,
    "division": "Balangir Division",
    "region": "Sambalpur Region",
    "circle": "Odisha Circle",
    "latitude": 20.72075,
    "longitude": 83.7172533
  },
  {
    "place_name": "Dubula B.O",
    "district": "SONEPUR",
    "state": "ODISHA",
    "pincode": "767016",
    "office_type": "BO",
    "delivery": true,
    "division": "Balangir Division",
    "region": "Sambalpur Region",
    "circle": "Odisha Circle",
    "latitude": 20.6463638,
    "longitude": 83.6703057
  },
  {
    "place_name": "Narayanpur B.O",
    "district": "SONEPUR",
    "state": "ODISHA",
    "pincode": "767016",
    "office_type": "BO",
    "delivery": true,
    "division": "Balangir Division",
    "region": "Sambalpur Region",
    "circle": "Odisha Circle",
    "latitude": 20.66706,
    "longitude": 83.68235
  },
  {
    "place_name": "Binekela B.O",
    "district": "BALANGIR",
    "state": "ODISHA",
    "pincode": "767033",
    "office_type": "BO",
    "delivery": true,
    "division": "Balangir Division",
    "region": "Sambalpur Region",
    "circle": "Odisha Circle",
    "latitude": 20.2018,
    "longitude": 83.15474
  },
  {
    "place_name": "Desil B.O",
    "district": "BALANGIR",
    "state": "ODISHA",
    "pincode": "767033",
    "office_type": "BO",
    "delivery": true,
    "division": "Balangir Division",
    "region": "Sambalpur Region",
    "circle": "Odisha Circle",
    "latitude": 20.2810516,
    "longitude": 83.17414
  },
  {
    "place_name": "Katarkela B.O",
    "district": "BALANGIR",
    "state": "ODISHA",
    "pincode": "767033",
    "office_type": "BO",
    "delivery": true,
    "division": "Balangir Division",
    "region": "Sambalpur Region",
    "circle": "Odisha Circle",
    "latitude": 20.1882963,
    "longitude": 83.2196445
  },
  {
    "place_name": "Lebda B.O",
    "district": "BALANGIR",
    "state": "ODISHA",
    "pincode": "767033",
    "office_type": "BO",
    "delivery": true,
    "division": "Balangir Division",
    "region": "Sambalpur Region",
    "circle": "Odisha Circle",
    "latitude": 20.2635816,
    "longitude": 83.019435
  },
  {
    "place_name": "Totopara B.O",
    "district": "BALANGIR",
    "state": "ODISHA",
    "pincode": "767033",
    "office_type": "BO",
    "delivery": true,
    "division": "Balangir Division",
    "region": "Sambalpur Region",
    "circle": "Odisha Circle",
    "latitude": 20.2899499,
    "longitude": 83.0180366
  },
  {
    "place_name": "Banjipadar BO",
    "district": "BALANGIR",
    "state": "ODISHA",
    "pincode": "767033",
    "office_type": "BO",
    "delivery": true,
    "division": "Balangir Division",
    "region": "Sambalpur Region",
    "circle": "Odisha Circle",
    "latitude": 20.3637,
    "longitude": 83.485
  },
  {
    "place_name": "Mahulbahali B.O",
    "district": "BALANGIR",
    "state": "ODISHA",
    "pincode": "767060",
    "office_type": "BO",
    "delivery": true,
    "division": "Balangir Division",
    "region": "Sambalpur Region",
    "circle": "Odisha Circle",
    "latitude": 20.5171194,
    "longitude": 82.8380992
  },
  {
    "place_name": "Salemudga B.O",
    "district": "BALANGIR",
    "state": "ODISHA",
    "pincode": "767060",
    "office_type": "BO",
    "delivery": true,
    "division": "Balangir Division",
    "region": "Sambalpur Region",
    "circle": "Odisha Circle",
    "latitude": 20.4165506,
    "longitude": 82.7435975
  },
  {
    "place_name": "Badangomunda B.O",
    "district": "BALANGIR",
    "state": "ODISHA",
    "pincode": "767030",
    "office_type": "BO",
    "delivery": true,
    "division": "Balangir Division",
    "region": "Sambalpur Region",
    "circle": "Odisha Circle",
    "latitude": 20.5033466,
    "longitude": 83.4496383
  },
  {
    "place_name": "Dahimal B.O",
    "district": "BALANGIR",
    "state": "ODISHA",
    "pincode": "767030",
    "office_type": "BO",
    "delivery": true,
    "division": "Balangir Division",
    "region": "Sambalpur Region",
    "circle": "Odisha Circle",
    "latitude": 20.451975,
    "longitude": 83.5154216
  },
  {
    "place_name": "Deulgudi B.O",
    "district": "BALANGIR",
    "state": "ODISHA",
    "pincode": "767030",
    "office_type": "BO",
    "delivery": true,
    "division": "Balangir Division",
    "region": "Sambalpur Region",
    "circle": "Odisha Circle",
    "latitude": 20.4084333,
    "longitude": 83.5246666
  },
  {
    "place_name": "Tandigaon B.O",
    "district": "BALANGIR",
    "state": "ODISHA",
    "pincode": "767030",
    "office_type": "BO",
    "delivery": true,
    "division": "Balangir Division",
    "region": "Sambalpur Region",
    "circle": "Odisha Circle",
    "latitude": 20.4433866,
    "longitude": 83.4583883
  },
  {
    "place_name": "Harinapali B.O",
    "district": "SONEPUR",
    "state": "ODISHA",
    "pincode": "767062",
    "office_type": "BO",
    "delivery": true,
    "division": "Balangir Division",
    "region": "Sambalpur Region",
    "circle": "Odisha Circle",
    "latitude": 20.9615698,
    "longitude": 83.9371559
  },
  {
    "place_name": "Raksa B.O",
    "district": "SONEPUR",
    "state": "ODISHA",
    "pincode": "767062",
    "office_type": "BO",
    "delivery": true,
    "division": "Balangir Division",
    "region": "Sambalpur Region",
    "circle": "Odisha Circle",
    "latitude": 20.8949209,
    "longitude": 83.9351341
  },
  {
    "place_name": "Sauntpur B.O",
    "district": "BALANGIR",
    "state": "ODISHA",
    "pincode": "767071",
    "office_type": "BO",
    "delivery": true,
    "division": "Balangir Division",
    "region": "Sambalpur Region",
    "circle": "Odisha Circle",
    "latitude": 20.781128,
    "longitude": 83.5233199
  },
  {
    "place_name": "Kandhapada B.O",
    "district": "ANUGUL",
    "state": "ODISHA",
    "pincode": "759125",
    "office_type": "BO",
    "delivery": true,
    "division": "Dhenkanal Division",
    "region": "Sambalpur Region",
    "circle": "Odisha Circle",
    "latitude": 20.8065966,
    "longitude": 84.3972916
  },
  {
    "place_name": "Krutibaspur B.O",
    "district": "ANUGUL",
    "state": "ODISHA",
    "pincode": "759125",
    "office_type": "BO",
    "delivery": true,
    "division": "Dhenkanal Division",
    "region": "Sambalpur Region",
    "circle": "Odisha Circle",
    "latitude": 20.8537366,
    "longitude": 84.6367616
  },
  {
    "place_name": "Puruna Manitiri B.O",
    "district": "ANUGUL",
    "state": "ODISHA",
    "pincode": "759125",
    "office_type": "BO",
    "delivery": true,
    "division": "Dhenkanal Division",
    "region": "Sambalpur Region",
    "circle": "Odisha Circle",
    "latitude": 20.75436,
    "longitude": 84.480575
  },
  {
    "place_name": "Sanahulla B.O",
    "district": "ANUGUL",
    "state": "ODISHA",
    "pincode": "759125",
    "office_type": "BO",
    "delivery": true,
    "division": "Dhenkanal Division",
    "region": "Sambalpur Region",
    "circle": "Odisha Circle",
    "latitude": 20.8620166,
    "longitude": 84.6847333
  },
  {
    "place_name": "Kanaloi B.O",
    "district": "ANUGUL",
    "state": "ODISHA",
    "pincode": "759141",
    "office_type": "BO",
    "delivery": true,
    "division": "Dhenkanal Division",
    "region": "Sambalpur Region",
    "circle": "Odisha Circle",
    "latitude": 21.100955,
    "longitude": 84.69762
  },
  {
    "place_name": "Nuagaon B.O",
    "district": "ANUGUL",
    "state": "ODISHA",
    "pincode": "759141",
    "office_type": "BO",
    "delivery": true,
    "division": "Dhenkanal Division",
    "region": "Sambalpur Region",
    "circle": "Odisha Circle",
    "latitude": 21.1115366,
    "longitude": 84.723545
  },
  {
    "place_name": "Patakumunda B.O",
    "district": "ANUGUL",
    "state": "ODISHA",
    "pincode": "759141",
    "office_type": "BO",
    "delivery": true,
    "division": "Dhenkanal Division",
    "region": "Sambalpur Region",
    "circle": "Odisha Circle",
    "latitude": 21.1491316,
    "longitude": 84.8210083
  },
  {
    "place_name": "Sapoinali B.O",
    "district": "ANUGUL",
    "state": "ODISHA",
    "pincode": "759141",
    "office_type": "BO",
    "delivery": true,
    "division": "Dhenkanal Division",
    "region": "Sambalpur Region",
    "circle": "Odisha Circle",
    "latitude": 21.08361,
    "longitude": 84.8107533
  },
  {
    "place_name": "Tangiri B.O",
    "district": "ANUGUL",
    "state": "ODISHA",
    "pincode": "759141",
    "office_type": "BO",
    "delivery": true,
    "division": "Dhenkanal Division",
    "region": "Sambalpur Region",
    "circle": "Odisha Circle",
    "latitude": 21.119095,
    "longitude": 84.82948
  },
  {
    "place_name": "Arahat B.O",
    "district": "ANUGUL",
    "state": "ODISHA",
    "pincode": "759128",
    "office_type": "BO",
    "delivery": true,
    "division": "Dhenkanal Division",
    "region": "Sambalpur Region",
    "circle": "Odisha Circle",
    "latitude": 20.7827516,
    "longitude": 85.1869566
  },
  {
    "place_name": "Badakantakul B.O",
    "district": "ANUGUL",
    "state": "ODISHA",
    "pincode": "759129",
    "office_type": "BO",
    "delivery": true,
    "division": "Dhenkanal Division",
    "region": "Sambalpur Region",
    "circle": "Odisha Circle",
    "latitude": 20.6652266,
    "longitude": 85.0855383
  },
  {
    "place_name": "Baluakata B.O",
    "district": "ANUGUL",
    "state": "ODISHA",
    "pincode": "759129",
    "office_type": "BO",
    "delivery": true,
    "division": "Dhenkanal Division",
    "region": "Sambalpur Region",
    "circle": "Odisha Circle",
    "latitude": 20.7753683,
    "longitude": 85.0890916
  },
  {
    "place_name": "Garh Taras B.O",
    "district": "ANUGUL",
    "state": "ODISHA",
    "pincode": "759129",
    "office_type": "BO",
    "delivery": true,
    "division": "Dhenkanal Division",
    "region": "Sambalpur Region",
    "circle": "Odisha Circle",
    "latitude": 20.688535,
    "longitude": 85.0780099
  },
  {
    "place_name": "Inkarabandha B.O",
    "district": "ANUGUL",
    "state": "ODISHA",
    "pincode": "759129",
    "office_type": "BO",
    "delivery": true,
    "division": "Dhenkanal Division",
    "region": "Sambalpur Region",
    "circle": "Odisha Circle",
    "latitude": 20.7441733,
    "longitude": 85.1153883
  },
  {
    "place_name": "Manapur B.O",
    "district": "ANUGUL",
    "state": "ODISHA",
    "pincode": "759129",
    "office_type": "BO",
    "delivery": true,
    "division": "Dhenkanal Division",
    "region": "Sambalpur Region",
    "circle": "Odisha Circle",
    "latitude": 20.7412949,
    "longitude": 85.0426866
  },
  {
    "place_name": "Pokatunga B.O",
    "district": "ANUGUL",
    "state": "ODISHA",
    "pincode": "759129",
    "office_type": "BO",
    "delivery": true,
    "division": "Dhenkanal Division",
    "region": "Sambalpur Region",
    "circle": "Odisha Circle",
    "latitude": 20.7390566,
    "longitude": 85.0306083
  },
  {
    "place_name": "Sankapur B.O",
    "district": "ANUGUL",
    "state": "ODISHA",
    "pincode": "759129",
    "office_type": "BO",
    "delivery": true,
    "division": "Dhenkanal Division",
    "region": "Sambalpur Region",
    "circle": "Odisha Circle",
    "latitude": 20.7374483,
    "longitude": 85.0528616
  },
  {
    "place_name": "Ballahar Chhak B.O",
    "district": "ANUGUL",
    "state": "ODISHA",
    "pincode": "759101",
    "office_type": "BO",
    "delivery": true,
    "division": "Dhenkanal Division",
    "region": "Sambalpur Region",
    "circle": "Odisha Circle",
    "latitude": 0,
    "longitude": 0
  },
  {
    "place_name": "Balipatta B.O",
    "district": "ANUGUL",
    "state": "ODISHA",
    "pincode": "759124",
    "office_type": "BO",
    "delivery": true,
    "division": "Dhenkanal Division",
    "region": "Sambalpur Region",
    "circle": "Odisha Circle",
    "latitude": 20.98498,
    "longitude": 84.8536416
  },
  {
    "place_name": "Nuapada B.O",
    "district": "ANUGUL",
    "state": "ODISHA",
    "pincode": "759124",
    "office_type": "BO",
    "delivery": true,
    "division": "Dhenkanal Division",
    "region": "Sambalpur Region",
    "circle": "Odisha Circle",
    "latitude": 21.1473649,
    "longitude": 84.8777633
  },
  {
    "place_name": "Badajarada B.O",
    "district": "ANUGUL",
    "state": "ODISHA",
    "pincode": "759103",
    "office_type": "BO",
    "delivery": true,
    "division": "Dhenkanal Division",
    "region": "Sambalpur Region",
    "circle": "Odisha Circle",
    "latitude": 20.9140129,
    "longitude": 85.1223004
  },
  {
    "place_name": "Badkerjang B.O",
    "district": "ANUGUL",
    "state": "ODISHA",
    "pincode": "759143",
    "office_type": "BO",
    "delivery": true,
    "division": "Dhenkanal Division",
    "region": "Sambalpur Region",
    "circle": "Odisha Circle",
    "latitude": 20.8614183,
    "longitude": 84.9699733
  },
  {
    "place_name": "Golabandha B.O",
    "district": "ANUGUL",
    "state": "ODISHA",
    "pincode": "759143",
    "office_type": "BO",
    "delivery": true,
    "division": "Dhenkanal Division",
    "region": "Sambalpur Region",
    "circle": "Odisha Circle",
    "latitude": 20.85336,
    "longitude": 84.995075
  },
  {
    "place_name": "Ankula B.O",
    "district": "ANUGUL",
    "state": "ODISHA",
    "pincode": "759132",
    "office_type": "BO",
    "delivery": true,
    "division": "Dhenkanal Division",
    "region": "Sambalpur Region",
    "circle": "Odisha Circle",
    "latitude": 20.822685,
    "longitude": 85.12419
  },
  {
    "place_name": "Khandahatta B.O",
    "district": "ANUGUL",
    "state": "ODISHA",
    "pincode": "759132",
    "office_type": "BO",
    "delivery": true,
    "division": "Dhenkanal Division",
    "region": "Sambalpur Region",
    "circle": "Odisha Circle",
    "latitude": 20.7690116,
    "longitude": 85.1344633
  },
  {
    "place_name": "Nandapur B.O",
    "district": "ANUGUL",
    "state": "ODISHA",
    "pincode": "759132",
    "office_type": "BO",
    "delivery": true,
    "division": "Dhenkanal Division",
    "region": "Sambalpur Region",
    "circle": "Odisha Circle",
    "latitude": 20.7318983,
    "longitude": 85.003545
  },
  {
    "place_name": "Tikarapada B.O",
    "district": "ANUGUL",
    "state": "ODISHA",
    "pincode": "759132",
    "office_type": "BO",
    "delivery": true,
    "division": "Dhenkanal Division",
    "region": "Sambalpur Region",
    "circle": "Odisha Circle",
    "latitude": 20.600175,
    "longitude": 84.7877266
  },
  {
    "place_name": "Gengutia B.O",
    "district": "DHENKANAL",
    "state": "ODISHA",
    "pincode": "759146",
    "office_type": "BO",
    "delivery": true,
    "division": "Dhenkanal Division",
    "region": "Sambalpur Region",
    "circle": "Odisha Circle",
    "latitude": 21.0079766,
    "longitude": 85.2618533
  },
  {
    "place_name": "Badagundari B.O",
    "district": "ANUGUL",
    "state": "ODISHA",
    "pincode": "759117",
    "office_type": "BO",
    "delivery": true,
    "division": "Dhenkanal Division",
    "region": "Sambalpur Region",
    "circle": "Odisha Circle",
    "latitude": 21.0817866,
    "longitude": 85.00299
  },
  {
    "place_name": "Bijigol B.O",
    "district": "ANUGUL",
    "state": "ODISHA",
    "pincode": "759117",
    "office_type": "BO",
    "delivery": true,
    "division": "Dhenkanal Division",
    "region": "Sambalpur Region",
    "circle": "Odisha Circle",
    "latitude": 21.0769866,
    "longitude": 85.0891733
  },
  {
    "place_name": "Jarada B.O",
    "district": "ANUGUL",
    "state": "ODISHA",
    "pincode": "759117",
    "office_type": "BO",
    "delivery": true,
    "division": "Dhenkanal Division",
    "region": "Sambalpur Region",
    "circle": "Odisha Circle",
    "latitude": 21.0684683,
    "longitude": 85.042065
  },
  {
    "place_name": "Kakudia B.O",
    "district": "ANUGUL",
    "state": "ODISHA",
    "pincode": "759117",
    "office_type": "BO",
    "delivery": true,
    "division": "Dhenkanal Division",
    "region": "Sambalpur Region",
    "circle": "Odisha Circle",
    "latitude": 21.105669,
    "longitude": 84.9751977
  },
  {
    "place_name": "Poipal B.O",
    "district": "ANUGUL",
    "state": "ODISHA",
    "pincode": "759117",
    "office_type": "BO",
    "delivery": true,
    "division": "Dhenkanal Division",
    "region": "Sambalpur Region",
    "circle": "Odisha Circle",
    "latitude": 21.1609766,
    "longitude": 85.134245
  },
  {
    "place_name": "Badasada B.O",
    "district": "ANUGUL",
    "state": "ODISHA",
    "pincode": "759118",
    "office_type": "BO",
    "delivery": true,
    "division": "Dhenkanal Division",
    "region": "Sambalpur Region",
    "circle": "Odisha Circle",
    "latitude": 21.29443,
    "longitude": 85.2054983
  },
  {
    "place_name": "Barkotia B.O",
    "district": "ANUGUL",
    "state": "ODISHA",
    "pincode": "759118",
    "office_type": "BO",
    "delivery": true,
    "division": "Dhenkanal Division",
    "region": "Sambalpur Region",
    "circle": "Odisha Circle",
    "latitude": 21.3057949,
    "longitude": 85.176495
  },
  {
    "place_name": "Kunjam B.O",
    "district": "ANUGUL",
    "state": "ODISHA",
    "pincode": "759118",
    "office_type": "BO",
    "delivery": true,
    "division": "Dhenkanal Division",
    "region": "Sambalpur Region",
    "circle": "Odisha Circle",
    "latitude": 21.2090016,
    "longitude": 85.2422966
  },
  {
    "place_name": "Munduribeda B.O",
    "district": "ANUGUL",
    "state": "ODISHA",
    "pincode": "759118",
    "office_type": "BO",
    "delivery": true,
    "division": "Dhenkanal Division",
    "region": "Sambalpur Region",
    "circle": "Odisha Circle",
    "latitude": 21.24677,
    "longitude": 85.2468083
  },
  {
    "place_name": "Odasha B.O",
    "district": "ANUGUL",
    "state": "ODISHA",
    "pincode": "759118",
    "office_type": "BO",
    "delivery": true,
    "division": "Dhenkanal Division",
    "region": "Sambalpur Region",
    "circle": "Odisha Circle",
    "latitude": 21.2663433,
    "longitude": 85.2089599
  },
  {
    "place_name": "Bimalabeda B.O",
    "district": "ANUGUL",
    "state": "ODISHA",
    "pincode": "759127",
    "office_type": "BO",
    "delivery": true,
    "division": "Dhenkanal Division",
    "region": "Sambalpur Region",
    "circle": "Odisha Circle",
    "latitude": 20.84456,
    "longitude": 84.93518
  },
  {
    "place_name": "Jarada B.O",
    "district": "ANUGUL",
    "state": "ODISHA",
    "pincode": "759127",
    "office_type": "BO",
    "delivery": true,
    "division": "Dhenkanal Division",
    "region": "Sambalpur Region",
    "circle": "Odisha Circle",
    "latitude": 21.0684983,
    "longitude": 85.0420633
  },
  {
    "place_name": "Katada B.O",
    "district": "ANUGUL",
    "state": "ODISHA",
    "pincode": "759127",
    "office_type": "BO",
    "delivery": true,
    "division": "Dhenkanal Division",
    "region": "Sambalpur Region",
    "circle": "Odisha Circle",
    "latitude": 20.9040083,
    "longitude": 84.8287699
  },
  {
    "place_name": "Para B.O",
    "district": "ANUGUL",
    "state": "ODISHA",
    "pincode": "759127",
    "office_type": "BO",
    "delivery": true,
    "division": "Dhenkanal Division",
    "region": "Sambalpur Region",
    "circle": "Odisha Circle",
    "latitude": 20.8589816,
    "longitude": 84.878345
  },
  {
    "place_name": "Ugi B.O",
    "district": "ANUGUL",
    "state": "ODISHA",
    "pincode": "759127",
    "office_type": "BO",
    "delivery": true,
    "division": "Dhenkanal Division",
    "region": "Sambalpur Region",
    "circle": "Odisha Circle",
    "latitude": 20.8460866,
    "longitude": 84.8774033
  },
  {
    "place_name": "Brahmanbil B.O",
    "district": "ANUGUL",
    "state": "ODISHA",
    "pincode": "759130",
    "office_type": "BO",
    "delivery": true,
    "division": "Dhenkanal Division",
    "region": "Sambalpur Region",
    "circle": "Odisha Circle",
    "latitude": 21.050535,
    "longitude": 84.9338
  },
  {
    "place_name": "Natada B.O",
    "district": "ANUGUL",
    "state": "ODISHA",
    "pincode": "759123",
    "office_type": "BO",
    "delivery": true,
    "division": "Dhenkanal Division",
    "region": "Sambalpur Region",
    "circle": "Odisha Circle",
    "latitude": 20.8938883,
    "longitude": 85.145395
  },
  {
    "place_name": "Turang B.O",
    "district": "ANUGUL",
    "state": "ODISHA",
    "pincode": "759123",
    "office_type": "BO",
    "delivery": true,
    "division": "Dhenkanal Division",
    "region": "Sambalpur Region",
    "circle": "Odisha Circle",
    "latitude": 20.8473516,
    "longitude": 85.12154
  },
  {
    "place_name": "Jamardihi B.O",
    "district": "ANUGUL",
    "state": "ODISHA",
    "pincode": "759119",
    "office_type": "BO",
    "delivery": true,
    "division": "Dhenkanal Division",
    "region": "Sambalpur Region",
    "circle": "Odisha Circle",
    "latitude": 21.5003836,
    "longitude": 85.2532991
  },
  {
    "place_name": "Karadapal B.O",
    "district": "ANUGUL",
    "state": "ODISHA",
    "pincode": "759119",
    "office_type": "BO",
    "delivery": true,
    "division": "Dhenkanal Division",
    "region": "Sambalpur Region",
    "circle": "Odisha Circle",
    "latitude": 21.3491849,
    "longitude": 85.1452625
  },
  {
    "place_name": "Khemla B.O",
    "district": "ANUGUL",
    "state": "ODISHA",
    "pincode": "759119",
    "office_type": "BO",
    "delivery": true,
    "division": "Dhenkanal Division",
    "region": "Sambalpur Region",
    "circle": "Odisha Circle",
    "latitude": 21.3368252,
    "longitude": 85.1783195
  },
  {
    "place_name": "Pabitrapur B.O",
    "district": "ANUGUL",
    "state": "ODISHA",
    "pincode": "759119",
    "office_type": "BO",
    "delivery": true,
    "division": "Dhenkanal Division",
    "region": "Sambalpur Region",
    "circle": "Odisha Circle",
    "latitude": 21.434117,
    "longitude": 85.04933
  },
  {
    "place_name": "Tanugola B.O",
    "district": "ANUGUL",
    "state": "ODISHA",
    "pincode": "759119",
    "office_type": "BO",
    "delivery": true,
    "division": "Dhenkanal Division",
    "region": "Sambalpur Region",
    "circle": "Odisha Circle",
    "latitude": 21.599764,
    "longitude": 85.186857
  },
  {
    "place_name": "Nandijhari B.O",
    "district": "ANUGUL",
    "state": "ODISHA",
    "pincode": "759119",
    "office_type": "BO",
    "delivery": true,
    "division": "Dhenkanal Division",
    "region": "Sambalpur Region",
    "circle": "Odisha Circle",
    "latitude": 21.303226,
    "longitude": 85.111651
  },
  {
    "place_name": "Kalyanpur B.O",
    "district": "ANUGUL",
    "state": "ODISHA",
    "pincode": "759126",
    "office_type": "BO",
    "delivery": true,
    "division": "Dhenkanal Division",
    "region": "Sambalpur Region",
    "circle": "Odisha Circle",
    "latitude": 20.9881666,
    "longitude": 84.5680666
  },
  {
    "place_name": "Jairat B.O",
    "district": "ANUGUL",
    "state": "ODISHA",
    "pincode": "759126",
    "office_type": "BO",
    "delivery": true,
    "division": "Dhenkanal Division",
    "region": "Sambalpur Region",
    "circle": "Odisha Circle",
    "latitude": 20.958842,
    "longitude": 84.434832
  },
  {
    "place_name": "Pathargarh B.O",
    "district": "ANUGUL",
    "state": "ODISHA",
    "pincode": "759126",
    "office_type": "BO",
    "delivery": true,
    "division": "Dhenkanal Division",
    "region": "Sambalpur Region",
    "circle": "Odisha Circle",
    "latitude": 21.051402,
    "longitude": 84.507799
  },
  {
    "place_name": "Balipasi B.O",
    "district": "ANUGUL",
    "state": "ODISHA",
    "pincode": "759105",
    "office_type": "BO",
    "delivery": true,
    "division": "Dhenkanal Division",
    "region": "Sambalpur Region",
    "circle": "Odisha Circle",
    "latitude": 21.236445,
    "longitude": 84.9849266
  },
  {
    "place_name": "Susuba B.O",
    "district": "ANUGUL",
    "state": "ODISHA",
    "pincode": "759105",
    "office_type": "BO",
    "delivery": true,
    "division": "Dhenkanal Division",
    "region": "Sambalpur Region",
    "circle": "Odisha Circle",
    "latitude": 21.239078,
    "longitude": 85.050332
  },
  {
    "place_name": "Gaham B.O",
    "district": "ANUGUL",
    "state": "ODISHA",
    "pincode": "759100",
    "office_type": "BO",
    "delivery": true,
    "division": "Dhenkanal Division",
    "region": "Sambalpur Region",
    "circle": "Odisha Circle",
    "latitude": 21.120275,
    "longitude": 85.14614
  },
  {
    "place_name": "Radharamanpur B.O",
    "district": "ANUGUL",
    "state": "ODISHA",
    "pincode": "759100",
    "office_type": "BO",
    "delivery": true,
    "division": "Dhenkanal Division",
    "region": "Sambalpur Region",
    "circle": "Odisha Circle",
    "latitude": 21.0101683,
    "longitude": 85.17596
  },
  {
    "place_name": "Seepur B.O",
    "district": "ANUGUL",
    "state": "ODISHA",
    "pincode": "759100",
    "office_type": "BO",
    "delivery": true,
    "division": "Dhenkanal Division",
    "region": "Sambalpur Region",
    "circle": "Odisha Circle",
    "latitude": 21.1611483,
    "longitude": 85.1552112
  },
  {
    "place_name": "Tumusinga B.O",
    "district": "DHENKANAL",
    "state": "ODISHA",
    "pincode": "759026",
    "office_type": "BO",
    "delivery": true,
    "division": "Dhenkanal Division",
    "region": "Sambalpur Region",
    "circle": "Odisha Circle",
    "latitude": 20.7931633,
    "longitude": 85.4726683
  },
  {
    "place_name": "Birasal B.O",
    "district": "DHENKANAL",
    "state": "ODISHA",
    "pincode": "759039",
    "office_type": "BO",
    "delivery": true,
    "division": "Dhenkanal Division",
    "region": "Sambalpur Region",
    "circle": "Odisha Circle",
    "latitude": 20.9937983,
    "longitude": 85.6747399
  },
  {
    "place_name": "Hatura B.O",
    "district": "DHENKANAL",
    "state": "ODISHA",
    "pincode": "759020",
    "office_type": "BO",
    "delivery": true,
    "division": "Dhenkanal Division",
    "region": "Sambalpur Region",
    "circle": "Odisha Circle",
    "latitude": 20.6899116,
    "longitude": 85.2108583
  },
  {
    "place_name": "Panchapada B.O",
    "district": "DHENKANAL",
    "state": "ODISHA",
    "pincode": "759020",
    "office_type": "BO",
    "delivery": true,
    "division": "Dhenkanal Division",
    "region": "Sambalpur Region",
    "circle": "Odisha Circle",
    "latitude": 20.6641033,
    "longitude": 85.3041416
  },
  {
    "place_name": "Ghatipiri B.O",
    "district": "DHENKANAL",
    "state": "ODISHA",
    "pincode": "759015",
    "office_type": "BO",
    "delivery": true,
    "division": "Dhenkanal Division",
    "region": "Sambalpur Region",
    "circle": "Odisha Circle",
    "latitude": 20.5759783,
    "longitude": 85.4449066
  },
  {
    "place_name": "Anantapur B.O",
    "district": "DHENKANAL",
    "state": "ODISHA",
    "pincode": "759017",
    "office_type": "BO",
    "delivery": true,
    "division": "Dhenkanal Division",
    "region": "Sambalpur Region",
    "circle": "Odisha Circle",
    "latitude": 20.9308816,
    "longitude": 85.8509283
  },
  {
    "place_name": "Balibo B.O",
    "district": "DHENKANAL",
    "state": "ODISHA",
    "pincode": "759017",
    "office_type": "BO",
    "delivery": true,
    "division": "Dhenkanal Division",
    "region": "Sambalpur Region",
    "circle": "Odisha Circle",
    "latitude": 20.9078916,
    "longitude": 85.87106
  },
  {
    "place_name": "Mahulapal B.O",
    "district": "DHENKANAL",
    "state": "ODISHA",
    "pincode": "759017",
    "office_type": "BO",
    "delivery": true,
    "division": "Dhenkanal Division",
    "region": "Sambalpur Region",
    "circle": "Odisha Circle",
    "latitude": 20.8690449,
    "longitude": 85.88885
  },
  {
    "place_name": "Gengutia B.O",
    "district": "DHENKANAL",
    "state": "ODISHA",
    "pincode": "759013",
    "office_type": "BO",
    "delivery": true,
    "division": "Dhenkanal Division",
    "region": "Sambalpur Region",
    "circle": "Odisha Circle",
    "latitude": 20.7189816,
    "longitude": 85.5580116
  },
  {
    "place_name": "Baulpur B.O",
    "district": "DHENKANAL",
    "state": "ODISHA",
    "pincode": "759025",
    "office_type": "BO",
    "delivery": true,
    "division": "Dhenkanal Division",
    "region": "Sambalpur Region",
    "circle": "Odisha Circle",
    "latitude": 20.7392683,
    "longitude": 85.51432
  },
  {
    "place_name": "Brahmaniapal B.O",
    "district": "DHENKANAL",
    "state": "ODISHA",
    "pincode": "759025",
    "office_type": "BO",
    "delivery": true,
    "division": "Dhenkanal Division",
    "region": "Sambalpur Region",
    "circle": "Odisha Circle",
    "latitude": 20.6653933,
    "longitude": 85.448165
  },
  {
    "place_name": "Sadasivapur B.O",
    "district": "DHENKANAL",
    "state": "ODISHA",
    "pincode": "759025",
    "office_type": "BO",
    "delivery": true,
    "division": "Dhenkanal Division",
    "region": "Sambalpur Region",
    "circle": "Odisha Circle",
    "latitude": 20.7231033,
    "longitude": 85.5262816
  },
  {
    "place_name": "Kalunigoda B.O",
    "district": "DHENKANAL",
    "state": "ODISHA",
    "pincode": "759016",
    "office_type": "BO",
    "delivery": true,
    "division": "Dhenkanal Division",
    "region": "Sambalpur Region",
    "circle": "Odisha Circle",
    "latitude": 20.8243799,
    "longitude": 85.9300666
  },
  {
    "place_name": "Mahulapada B.O",
    "district": "DHENKANAL",
    "state": "ODISHA",
    "pincode": "759027",
    "office_type": "BO",
    "delivery": true,
    "division": "Dhenkanal Division",
    "region": "Sambalpur Region",
    "circle": "Odisha Circle",
    "latitude": 20.613195,
    "longitude": 85.6727633
  },
  {
    "place_name": "Manipur B.O",
    "district": "DHENKANAL",
    "state": "ODISHA",
    "pincode": "759027",
    "office_type": "BO",
    "delivery": true,
    "division": "Dhenkanal Division",
    "region": "Sambalpur Region",
    "circle": "Odisha Circle",
    "latitude": 20.5572833,
    "longitude": 85.6192416
  },
  {
    "place_name": "Bedapada B.O",
    "district": "DHENKANAL",
    "state": "ODISHA",
    "pincode": "759019",
    "office_type": "BO",
    "delivery": true,
    "division": "Dhenkanal Division",
    "region": "Sambalpur Region",
    "circle": "Odisha Circle",
    "latitude": 20.7278483,
    "longitude": 85.4041983
  },
  {
    "place_name": "Saanda B.O",
    "district": "DHENKANAL",
    "state": "ODISHA",
    "pincode": "759019",
    "office_type": "BO",
    "delivery": true,
    "division": "Dhenkanal Division",
    "region": "Sambalpur Region",
    "circle": "Odisha Circle",
    "latitude": 20.8315933,
    "longitude": 85.4057516
  },
  {
    "place_name": "Bhagirathipur B.O",
    "district": "DHENKANAL",
    "state": "ODISHA",
    "pincode": "759018",
    "office_type": "BO",
    "delivery": true,
    "division": "Dhenkanal Division",
    "region": "Sambalpur Region",
    "circle": "Odisha Circle",
    "latitude": 20.911055,
    "longitude": 85.5263366
  },
  {
    "place_name": "Malapura B.O",
    "district": "DHENKANAL",
    "state": "ODISHA",
    "pincode": "759018",
    "office_type": "BO",
    "delivery": true,
    "division": "Dhenkanal Division",
    "region": "Sambalpur Region",
    "circle": "Odisha Circle",
    "latitude": 20.92739,
    "longitude": 85.5774866
  },
  {
    "place_name": "Motta B.O",
    "district": "DHENKANAL",
    "state": "ODISHA",
    "pincode": "759018",
    "office_type": "BO",
    "delivery": true,
    "division": "Dhenkanal Division",
    "region": "Sambalpur Region",
    "circle": "Odisha Circle",
    "latitude": 20.89197,
    "longitude": 85.5786866
  },
  {
    "place_name": "Tariniposi B.O",
    "district": "DHENKANAL",
    "state": "ODISHA",
    "pincode": "759028",
    "office_type": "BO",
    "delivery": true,
    "division": "Dhenkanal Division",
    "region": "Sambalpur Region",
    "circle": "Odisha Circle",
    "latitude": 21.0415866,
    "longitude": 85.611245
  },
  {
    "place_name": "Banasingh B.O",
    "district": "DHENKANAL",
    "state": "ODISHA",
    "pincode": "759014",
    "office_type": "BO",
    "delivery": true,
    "division": "Dhenkanal Division",
    "region": "Sambalpur Region",
    "circle": "Odisha Circle",
    "latitude": 20.7848483,
    "longitude": 85.6384733
  },
  {
    "place_name": "Kabera Madhapur B.O",
    "district": "DHENKANAL",
    "state": "ODISHA",
    "pincode": "759014",
    "office_type": "BO",
    "delivery": true,
    "division": "Dhenkanal Division",
    "region": "Sambalpur Region",
    "circle": "Odisha Circle",
    "latitude": 20.784525,
    "longitude": 85.7474166
  },
  {
    "place_name": "Kendupada B.O",
    "district": "DHENKANAL",
    "state": "ODISHA",
    "pincode": "759014",
    "office_type": "BO",
    "delivery": true,
    "division": "Dhenkanal Division",
    "region": "Sambalpur Region",
    "circle": "Odisha Circle",
    "latitude": 20.811875,
    "longitude": 85.69847
  },
  {
    "place_name": "Radhadeipur B.O",
    "district": "DHENKANAL",
    "state": "ODISHA",
    "pincode": "759014",
    "office_type": "BO",
    "delivery": true,
    "division": "Dhenkanal Division",
    "region": "Sambalpur Region",
    "circle": "Odisha Circle",
    "latitude": 20.8056083,
    "longitude": 85.6540466
  },
  {
    "place_name": "Bhairpur B.O",
    "district": "DHENKANAL",
    "state": "ODISHA",
    "pincode": "759023",
    "office_type": "BO",
    "delivery": true,
    "division": "Dhenkanal Division",
    "region": "Sambalpur Region",
    "circle": "Odisha Circle",
    "latitude": 20.8174633,
    "longitude": 85.61758
  },
  {
    "place_name": "Gobinda Bidyadharpur B.O",
    "district": "DHENKANAL",
    "state": "ODISHA",
    "pincode": "759023",
    "office_type": "BO",
    "delivery": true,
    "division": "Dhenkanal Division",
    "region": "Sambalpur Region",
    "circle": "Odisha Circle",
    "latitude": 20.8530283,
    "longitude": 85.7029833
  },
  {
    "place_name": "Gorodia B.O",
    "district": "DHENKANAL",
    "state": "ODISHA",
    "pincode": "759023",
    "office_type": "BO",
    "delivery": true,
    "division": "Dhenkanal Division",
    "region": "Sambalpur Region",
    "circle": "Odisha Circle",
    "latitude": 20.83814,
    "longitude": 85.6642233
  },
  {
    "place_name": "Odisha B.O",
    "district": "DHENKANAL",
    "state": "ODISHA",
    "pincode": "759024",
    "office_type": "BO",
    "delivery": true,
    "division": "Dhenkanal Division",
    "region": "Sambalpur Region",
    "circle": "Odisha Circle",
    "latitude": 20.9693883,
    "longitude": 85.7453983
  },
  {
    "place_name": "Beruanpal B.O",
    "district": "DHENKANAL",
    "state": "ODISHA",
    "pincode": "759121",
    "office_type": "BO",
    "delivery": true,
    "division": "Dhenkanal Division",
    "region": "Sambalpur Region",
    "circle": "Odisha Circle",
    "latitude": 20.7716983,
    "longitude": 85.276055
  },
  {
    "place_name": "Haladiabahal B.O",
    "district": "DHENKANAL",
    "state": "ODISHA",
    "pincode": "759121",
    "office_type": "BO",
    "delivery": true,
    "division": "Dhenkanal Division",
    "region": "Sambalpur Region",
    "circle": "Odisha Circle",
    "latitude": 20.7878966,
    "longitude": 85.3503883
  },
  {
    "place_name": "Kankalu B.O",
    "district": "DHENKANAL",
    "state": "ODISHA",
    "pincode": "759121",
    "office_type": "BO",
    "delivery": true,
    "division": "Dhenkanal Division",
    "region": "Sambalpur Region",
    "circle": "Odisha Circle",
    "latitude": 20.7275516,
    "longitude": 85.2336983
  },
  {
    "place_name": "Kusupanga B.O",
    "district": "DHENKANAL",
    "state": "ODISHA",
    "pincode": "759121",
    "office_type": "BO",
    "delivery": true,
    "division": "Dhenkanal Division",
    "region": "Sambalpur Region",
    "circle": "Odisha Circle",
    "latitude": 20.8469466,
    "longitude": 85.28871
  },
  {
    "place_name": "Chandapur B.O",
    "district": "DHENKANAL",
    "state": "ODISHA",
    "pincode": "759029",
    "office_type": "BO",
    "delivery": true,
    "division": "Dhenkanal Division",
    "region": "Sambalpur Region",
    "circle": "Odisha Circle",
    "latitude": 21.091805,
    "longitude": 85.332365
  },
  {
    "place_name": "Kankadasoda B.O",
    "district": "DHENKANAL",
    "state": "ODISHA",
    "pincode": "759120",
    "office_type": "BO",
    "delivery": true,
    "division": "Dhenkanal Division",
    "region": "Sambalpur Region",
    "circle": "Odisha Circle",
    "latitude": 20.965835,
    "longitude": 85.3467416
  },
  {
    "place_name": "Kuturia B.O",
    "district": "DHENKANAL",
    "state": "ODISHA",
    "pincode": "759029",
    "office_type": "BO",
    "delivery": true,
    "division": "Dhenkanal Division",
    "region": "Sambalpur Region",
    "circle": "Odisha Circle",
    "latitude": 21.0264583,
    "longitude": 85.3676283
  },
  {
    "place_name": "Mundeilo B.O",
    "district": "DHENKANAL",
    "state": "ODISHA",
    "pincode": "759120",
    "office_type": "BO",
    "delivery": true,
    "division": "Dhenkanal Division",
    "region": "Sambalpur Region",
    "circle": "Odisha Circle",
    "latitude": 20.93538,
    "longitude": 85.2994049
  },
  {
    "place_name": "Patamandir B.O",
    "district": "DHENKANAL",
    "state": "ODISHA",
    "pincode": "759120",
    "office_type": "BO",
    "delivery": true,
    "division": "Dhenkanal Division",
    "region": "Sambalpur Region",
    "circle": "Odisha Circle",
    "latitude": 20.851765,
    "longitude": 85.332145
  },
  {
    "place_name": "Badapadana B.O",
    "district": "KENDUJHAR",
    "state": "ODISHA",
    "pincode": "758021",
    "office_type": "BO",
    "delivery": true,
    "division": "Keonjhar Division",
    "region": "Sambalpur Region",
    "circle": "Odisha Circle",
    "latitude": 21.0771466,
    "longitude": 86.1107483
  },
  {
    "place_name": "Nuagaon B.O",
    "district": "KENDUJHAR",
    "state": "ODISHA",
    "pincode": "758021",
    "office_type": "BO",
    "delivery": true,
    "division": "Keonjhar Division",
    "region": "Sambalpur Region",
    "circle": "Odisha Circle",
    "latitude": 21.097815,
    "longitude": 86.1073083
  },
  {
    "place_name": "Padmapur B.O",
    "district": "KENDUJHAR",
    "state": "ODISHA",
    "pincode": "758021",
    "office_type": "BO",
    "delivery": true,
    "division": "Keonjhar Division",
    "region": "Sambalpur Region",
    "circle": "Odisha Circle",
    "latitude": 21.2346733,
    "longitude": 86.14022
  },
  {
    "place_name": "Daduan B.O",
    "district": "KENDUJHAR",
    "state": "ODISHA",
    "pincode": "758038",
    "office_type": "BO",
    "delivery": true,
    "division": "Keonjhar Division",
    "region": "Sambalpur Region",
    "circle": "Odisha Circle",
    "latitude": 22.02256,
    "longitude": 85.4691466
  },
  {
    "place_name": "Deojhar B.O",
    "district": "KENDUJHAR",
    "state": "ODISHA",
    "pincode": "758038",
    "office_type": "BO",
    "delivery": true,
    "division": "Keonjhar Division",
    "region": "Sambalpur Region",
    "circle": "Odisha Circle",
    "latitude": 22.0925583,
    "longitude": 85.4789033
  },
  {
    "place_name": "Bhadrasahi B.O",
    "district": "KENDUJHAR",
    "state": "ODISHA",
    "pincode": "758035",
    "office_type": "BO",
    "delivery": true,
    "division": "Keonjhar Division",
    "region": "Sambalpur Region",
    "circle": "Odisha Circle",
    "latitude": 22.0559466,
    "longitude": 85.39043
  },
  {
    "place_name": "Billa B.O",
    "district": "KENDUJHAR",
    "state": "ODISHA",
    "pincode": "758080",
    "office_type": "BO",
    "delivery": true,
    "division": "Keonjhar Division",
    "region": "Sambalpur Region",
    "circle": "Odisha Circle",
    "latitude": 21.2774066,
    "longitude": 85.9335766
  },
  {
    "place_name": "Chilikdhara B.O",
    "district": "KENDUJHAR",
    "state": "ODISHA",
    "pincode": "758080",
    "office_type": "BO",
    "delivery": true,
    "division": "Keonjhar Division",
    "region": "Sambalpur Region",
    "circle": "Odisha Circle",
    "latitude": 21.2472066,
    "longitude": 85.82084
  },
  {
    "place_name": "KUSUMAJODI  B.O",
    "district": "KENDUJHAR",
    "state": "ODISHA",
    "pincode": "758080",
    "office_type": "BO",
    "delivery": true,
    "division": "Keonjhar Division",
    "region": "Sambalpur Region",
    "circle": "Odisha Circle",
    "latitude": 0,
    "longitude": 0
  },
  {
    "place_name": "Chamakpur B.O",
    "district": "KENDUJHAR",
    "state": "ODISHA",
    "pincode": "758041",
    "office_type": "BO",
    "delivery": true,
    "division": "Keonjhar Division",
    "region": "Sambalpur Region",
    "circle": "Odisha Circle",
    "latitude": 22.0194533,
    "longitude": 85.4810666
  },
  {
    "place_name": "Kadagadia B.O",
    "district": "KENDUJHAR",
    "state": "ODISHA",
    "pincode": "758041",
    "office_type": "BO",
    "delivery": true,
    "division": "Keonjhar Division",
    "region": "Sambalpur Region",
    "circle": "Odisha Circle",
    "latitude": 22.0314416,
    "longitude": 85.559885
  },
  {
    "place_name": "Padhiaripally B.O",
    "district": "KENDUJHAR",
    "state": "ODISHA",
    "pincode": "758078",
    "office_type": "BO",
    "delivery": true,
    "division": "Keonjhar Division",
    "region": "Sambalpur Region",
    "circle": "Odisha Circle",
    "latitude": 21.2502483,
    "longitude": 86.3462666
  },
  {
    "place_name": "Raighati B.O",
    "district": "KENDUJHAR",
    "state": "ODISHA",
    "pincode": "758078",
    "office_type": "BO",
    "delivery": true,
    "division": "Keonjhar Division",
    "region": "Sambalpur Region",
    "circle": "Odisha Circle",
    "latitude": 21.254755,
    "longitude": 86.3210366
  },
  {
    "place_name": "Chinamaliposi B.O",
    "district": "KENDUJHAR",
    "state": "ODISHA",
    "pincode": "758029",
    "office_type": "BO",
    "delivery": true,
    "division": "Keonjhar Division",
    "region": "Sambalpur Region",
    "circle": "Odisha Circle",
    "latitude": 21.5369099,
    "longitude": 85.9127666
  },
  {
    "place_name": "Manoharpur B.O",
    "district": "KENDUJHAR",
    "state": "ODISHA",
    "pincode": "758029",
    "office_type": "BO",
    "delivery": true,
    "division": "Keonjhar Division",
    "region": "Sambalpur Region",
    "circle": "Odisha Circle",
    "latitude": 21.5335816,
    "longitude": 85.7819183
  },
  {
    "place_name": "Kadabahali B.O",
    "district": "KENDUJHAR",
    "state": "ODISHA",
    "pincode": "758015",
    "office_type": "BO",
    "delivery": true,
    "division": "Keonjhar Division",
    "region": "Sambalpur Region",
    "circle": "Odisha Circle",
    "latitude": 0,
    "longitude": 0
  },
  {
    "place_name": "Pitapiti B.O",
    "district": "KENDUJHAR",
    "state": "ODISHA",
    "pincode": "758028",
    "office_type": "BO",
    "delivery": true,
    "division": "Keonjhar Division",
    "region": "Sambalpur Region",
    "circle": "Odisha Circle",
    "latitude": 21.3701083,
    "longitude": 85.74696
  },
  {
    "place_name": "Thakurapada B.O",
    "district": "KENDUJHAR",
    "state": "ODISHA",
    "pincode": "758028",
    "office_type": "BO",
    "delivery": true,
    "division": "Keonjhar Division",
    "region": "Sambalpur Region",
    "circle": "Odisha Circle",
    "latitude": 21.3119516,
    "longitude": 85.7732016
  },
  {
    "place_name": "Inchola B.O",
    "district": "KENDUJHAR",
    "state": "ODISHA",
    "pincode": "758083",
    "office_type": "BO",
    "delivery": true,
    "division": "Keonjhar Division",
    "region": "Sambalpur Region",
    "circle": "Odisha Circle",
    "latitude": 21.1129316,
    "longitude": 86.2504633
  },
  {
    "place_name": "Orali B.O",
    "district": "KENDUJHAR",
    "state": "ODISHA",
    "pincode": "758083",
    "office_type": "BO",
    "delivery": true,
    "division": "Keonjhar Division",
    "region": "Sambalpur Region",
    "circle": "Odisha Circle",
    "latitude": 21.1315066,
    "longitude": 86.2802316
  },
  {
    "place_name": "Binjabahal B.O",
    "district": "KENDUJHAR",
    "state": "ODISHA",
    "pincode": "758084",
    "office_type": "BO",
    "delivery": true,
    "division": "Keonjhar Division",
    "region": "Sambalpur Region",
    "circle": "Odisha Circle",
    "latitude": 21.4461566,
    "longitude": 85.2865266
  },
  {
    "place_name": "Nuadihi B.O",
    "district": "KENDUJHAR",
    "state": "ODISHA",
    "pincode": "758084",
    "office_type": "BO",
    "delivery": true,
    "division": "Keonjhar Division",
    "region": "Sambalpur Region",
    "circle": "Odisha Circle",
    "latitude": 21.4344333,
    "longitude": 85.2984016
  },
  {
    "place_name": "Tana B.O",
    "district": "KENDUJHAR",
    "state": "ODISHA",
    "pincode": "758084",
    "office_type": "BO",
    "delivery": true,
    "division": "Keonjhar Division",
    "region": "Sambalpur Region",
    "circle": "Odisha Circle",
    "latitude": 21.5020116,
    "longitude": 85.3337783
  },
  {
    "place_name": "Hunda B.O",
    "district": "KENDUJHAR",
    "state": "ODISHA",
    "pincode": "758079",
    "office_type": "BO",
    "delivery": true,
    "division": "Keonjhar Division",
    "region": "Sambalpur Region",
    "circle": "Odisha Circle",
    "latitude": 21.3995816,
    "longitude": 85.6650566
  },
  {
    "place_name": "Arsala B.O",
    "district": "KENDUJHAR",
    "state": "ODISHA",
    "pincode": "758031",
    "office_type": "BO",
    "delivery": true,
    "division": "Keonjhar Division",
    "region": "Sambalpur Region",
    "circle": "Odisha Circle",
    "latitude": 21.8424109,
    "longitude": 85.5826016
  },
  {
    "place_name": "Khendra B.O",
    "district": "KENDUJHAR",
    "state": "ODISHA",
    "pincode": "758031",
    "office_type": "BO",
    "delivery": true,
    "division": "Keonjhar Division",
    "region": "Sambalpur Region",
    "circle": "Odisha Circle",
    "latitude": 21.8629984,
    "longitude": 85.5498479
  },
  {
    "place_name": "Badanai B.O",
    "district": "KENDUJHAR",
    "state": "ODISHA",
    "pincode": "758044",
    "office_type": "BO",
    "delivery": true,
    "division": "Keonjhar Division",
    "region": "Sambalpur Region",
    "circle": "Odisha Circle",
    "latitude": 21.970655,
    "longitude": 85.653515
  },
  {
    "place_name": "Chauthia B.O",
    "district": "KENDUJHAR",
    "state": "ODISHA",
    "pincode": "758044",
    "office_type": "BO",
    "delivery": true,
    "division": "Keonjhar Division",
    "region": "Sambalpur Region",
    "circle": "Odisha Circle",
    "latitude": 21.9321183,
    "longitude": 85.6384716
  },
  {
    "place_name": "Nandapur B.O",
    "district": "KENDUJHAR",
    "state": "ODISHA",
    "pincode": "758044",
    "office_type": "BO",
    "delivery": true,
    "division": "Keonjhar Division",
    "region": "Sambalpur Region",
    "circle": "Odisha Circle",
    "latitude": 21.9165833,
    "longitude": 85.7681033
  },
  {
    "place_name": "Rangamatia B.O",
    "district": "KENDUJHAR",
    "state": "ODISHA",
    "pincode": "758044",
    "office_type": "BO",
    "delivery": true,
    "division": "Keonjhar Division",
    "region": "Sambalpur Region",
    "circle": "Odisha Circle",
    "latitude": 21.9629633,
    "longitude": 85.743805
  },
  {
    "place_name": "Ranki B.O",
    "district": "KENDUJHAR",
    "state": "ODISHA",
    "pincode": "758002",
    "office_type": "BO",
    "delivery": true,
    "division": "Keonjhar Division",
    "region": "Sambalpur Region",
    "circle": "Odisha Circle",
    "latitude": 21.6217368,
    "longitude": 85.5806067
  },
  {
    "place_name": "Dhanurjaypur Haramatha B.O",
    "district": "KENDUJHAR",
    "state": "ODISHA",
    "pincode": "758040",
    "office_type": "BO",
    "delivery": true,
    "division": "Keonjhar Division",
    "region": "Sambalpur Region",
    "circle": "Odisha Circle",
    "latitude": 22.0559033,
    "longitude": 85.290475
  },
  {
    "place_name": "Bangarkota B.O",
    "district": "JAJAPUR",
    "state": "ODISHA",
    "pincode": "758025",
    "office_type": "BO",
    "delivery": true,
    "division": "Keonjhar Division",
    "region": "Sambalpur Region",
    "circle": "Odisha Circle",
    "latitude": 21.16204,
    "longitude": 86.06817
  },
  {
    "place_name": "Baripal B.O",
    "district": "KENDUJHAR",
    "state": "ODISHA",
    "pincode": "758025",
    "office_type": "BO",
    "delivery": true,
    "division": "Keonjhar Division",
    "region": "Sambalpur Region",
    "circle": "Odisha Circle",
    "latitude": 21.1631783,
    "longitude": 86.002795
  },
  {
    "place_name": "Kanpur B.O",
    "district": "KENDUJHAR",
    "state": "ODISHA",
    "pincode": "758025",
    "office_type": "BO",
    "delivery": true,
    "division": "Keonjhar Division",
    "region": "Sambalpur Region",
    "circle": "Odisha Circle",
    "latitude": 21.1581966,
    "longitude": 86.0793049
  },
  {
    "place_name": "Radhikadeipur B.O",
    "district": "KENDUJHAR",
    "state": "ODISHA",
    "pincode": "758025",
    "office_type": "BO",
    "delivery": true,
    "division": "Keonjhar Division",
    "region": "Sambalpur Region",
    "circle": "Odisha Circle",
    "latitude": 21.16142,
    "longitude": 85.962525
  },
  {
    "place_name": "Kolhabarapada B.O",
    "district": "KENDUJHAR",
    "state": "ODISHA",
    "pincode": "758036",
    "office_type": "BO",
    "delivery": true,
    "division": "Keonjhar Division",
    "region": "Sambalpur Region",
    "circle": "Odisha Circle",
    "latitude": 22.0958066,
    "longitude": 85.3703199
  },
  {
    "place_name": "Haladharpur B.O",
    "district": "KENDUJHAR",
    "state": "ODISHA",
    "pincode": "758014",
    "office_type": "BO",
    "delivery": true,
    "division": "Keonjhar Division",
    "region": "Sambalpur Region",
    "circle": "Odisha Circle",
    "latitude": 21.62781,
    "longitude": 85.7454483
  },
  {
    "place_name": "Maidankela B.O",
    "district": "KENDUJHAR",
    "state": "ODISHA",
    "pincode": "758014",
    "office_type": "BO",
    "delivery": true,
    "division": "Keonjhar Division",
    "region": "Sambalpur Region",
    "circle": "Odisha Circle",
    "latitude": 21.6641666,
    "longitude": 85.71835
  },
  {
    "place_name": "Anseikala B.O",
    "district": "KENDUJHAR",
    "state": "ODISHA",
    "pincode": "758047",
    "office_type": "BO",
    "delivery": true,
    "division": "Keonjhar Division",
    "region": "Sambalpur Region",
    "circle": "Odisha Circle",
    "latitude": 22.0698316,
    "longitude": 85.53136
  },
  {
    "place_name": "Nayakrihsnapur B.O",
    "district": "KENDUJHAR",
    "state": "ODISHA",
    "pincode": "758047",
    "office_type": "BO",
    "delivery": true,
    "division": "Keonjhar Division",
    "region": "Sambalpur Region",
    "circle": "Odisha Circle",
    "latitude": 22.0878733,
    "longitude": 85.5698866
  },
  {
    "place_name": "Tanda B.O",
    "district": "KENDUJHAR",
    "state": "ODISHA",
    "pincode": "758016",
    "office_type": "BO",
    "delivery": true,
    "division": "Keonjhar Division",
    "region": "Sambalpur Region",
    "circle": "Odisha Circle",
    "latitude": 21.6958966,
    "longitude": 86.0040283
  },
  {
    "place_name": "Tavasarua B.O",
    "district": "KENDUJHAR",
    "state": "ODISHA",
    "pincode": "758016",
    "office_type": "BO",
    "delivery": true,
    "division": "Keonjhar Division",
    "region": "Sambalpur Region",
    "circle": "Odisha Circle",
    "latitude": 21.6668416,
    "longitude": 85.9236966
  },
  {
    "place_name": "Bhaganai B.O",
    "district": "KENDUJHAR",
    "state": "ODISHA",
    "pincode": "758043",
    "office_type": "BO",
    "delivery": true,
    "division": "Keonjhar Division",
    "region": "Sambalpur Region",
    "circle": "Odisha Circle",
    "latitude": 21.1627366,
    "longitude": 86.0976316
  },
  {
    "place_name": "Khalana B.O",
    "district": "KENDUJHAR",
    "state": "ODISHA",
    "pincode": "758043",
    "office_type": "BO",
    "delivery": true,
    "division": "Keonjhar Division",
    "region": "Sambalpur Region",
    "circle": "Odisha Circle",
    "latitude": 21.1006633,
    "longitude": 86.1191066
  },
  {
    "place_name": "Madanpur B.O",
    "district": "KENDUJHAR",
    "state": "ODISHA",
    "pincode": "758043",
    "office_type": "BO",
    "delivery": true,
    "division": "Keonjhar Division",
    "region": "Sambalpur Region",
    "circle": "Odisha Circle",
    "latitude": 21.1565816,
    "longitude": 86.0566783
  },
  {
    "place_name": "Madhukeshari B.O",
    "district": "KENDUJHAR",
    "state": "ODISHA",
    "pincode": "758043",
    "office_type": "BO",
    "delivery": true,
    "division": "Keonjhar Division",
    "region": "Sambalpur Region",
    "circle": "Odisha Circle",
    "latitude": 21.1141033,
    "longitude": 86.1855216
  },
  {
    "place_name": "Pandua B.O",
    "district": "KENDUJHAR",
    "state": "ODISHA",
    "pincode": "758043",
    "office_type": "BO",
    "delivery": true,
    "division": "Keonjhar Division",
    "region": "Sambalpur Region",
    "circle": "Odisha Circle",
    "latitude": 21.128165,
    "longitude": 86.14531
  },
  {
    "place_name": "Ramachandrapur B.O",
    "district": "KENDUJHAR",
    "state": "ODISHA",
    "pincode": "758043",
    "office_type": "BO",
    "delivery": true,
    "division": "Keonjhar Division",
    "region": "Sambalpur Region",
    "circle": "Odisha Circle",
    "latitude": 21.0732216,
    "longitude": 86.1096866
  },
  {
    "place_name": "Panchupally B.O",
    "district": "KENDUJHAR",
    "state": "ODISHA",
    "pincode": "758020",
    "office_type": "BO",
    "delivery": true,
    "division": "Keonjhar Division",
    "region": "Sambalpur Region",
    "circle": "Odisha Circle",
    "latitude": 21.1706166,
    "longitude": 86.1766733
  },
  {
    "place_name": "Akula B.O",
    "district": "KENDUJHAR",
    "state": "ODISHA",
    "pincode": "758076",
    "office_type": "BO",
    "delivery": true,
    "division": "Keonjhar Division",
    "region": "Sambalpur Region",
    "circle": "Odisha Circle",
    "latitude": 21.2723183,
    "longitude": 85.412705
  },
  {
    "place_name": "Balabhadrapur B.O",
    "district": "KENDUJHAR",
    "state": "ODISHA",
    "pincode": "758076",
    "office_type": "BO",
    "delivery": true,
    "division": "Keonjhar Division",
    "region": "Sambalpur Region",
    "circle": "Odisha Circle",
    "latitude": 21.1814483,
    "longitude": 85.5536716
  },
  {
    "place_name": "Brahmanideo B.O",
    "district": "KENDUJHAR",
    "state": "ODISHA",
    "pincode": "758030",
    "office_type": "BO",
    "delivery": true,
    "division": "Keonjhar Division",
    "region": "Sambalpur Region",
    "circle": "Odisha Circle",
    "latitude": 21.64317,
    "longitude": 85.80577
  },
  {
    "place_name": "Deoladiha B.O",
    "district": "KENDUJHAR",
    "state": "ODISHA",
    "pincode": "758019",
    "office_type": "BO",
    "delivery": true,
    "division": "Keonjhar Division",
    "region": "Sambalpur Region",
    "circle": "Odisha Circle",
    "latitude": 21.388505,
    "longitude": 85.4235616
  },
  {
    "place_name": "Doblapal B.O",
    "district": "KENDUJHAR",
    "state": "ODISHA",
    "pincode": "758019",
    "office_type": "BO",
    "delivery": true,
    "division": "Keonjhar Division",
    "region": "Sambalpur Region",
    "circle": "Odisha Circle",
    "latitude": 21.3568933,
    "longitude": 85.3494016
  },
  {
    "place_name": "Oriya B.O",
    "district": "KENDUJHAR",
    "state": "ODISHA",
    "pincode": "758019",
    "office_type": "BO",
    "delivery": true,
    "division": "Keonjhar Division",
    "region": "Sambalpur Region",
    "circle": "Odisha Circle",
    "latitude": 21.388505,
    "longitude": 85.4235616
  },
  {
    "place_name": "Samakoi B.O",
    "district": "KENDUJHAR",
    "state": "ODISHA",
    "pincode": "758019",
    "office_type": "BO",
    "delivery": true,
    "division": "Keonjhar Division",
    "region": "Sambalpur Region",
    "circle": "Odisha Circle",
    "latitude": 0,
    "longitude": 0
  },
  {
    "place_name": "Chemana B.O",
    "district": "KENDUJHAR",
    "state": "ODISHA",
    "pincode": "758046",
    "office_type": "BO",
    "delivery": true,
    "division": "Keonjhar Division",
    "region": "Sambalpur Region",
    "circle": "Odisha Circle",
    "latitude": 21.769482,
    "longitude": 85.763978
  },
  {
    "place_name": "Jamuda B.O",
    "district": "KENDUJHAR",
    "state": "ODISHA",
    "pincode": "758045",
    "office_type": "BO",
    "delivery": true,
    "division": "Keonjhar Division",
    "region": "Sambalpur Region",
    "circle": "Odisha Circle",
    "latitude": 21.7867255,
    "longitude": 85.8436356
  },
  {
    "place_name": "Malarpada B.O",
    "district": "KENDUJHAR",
    "state": "ODISHA",
    "pincode": "758045",
    "office_type": "BO",
    "delivery": true,
    "division": "Keonjhar Division",
    "region": "Sambalpur Region",
    "circle": "Odisha Circle",
    "latitude": 21.76963,
    "longitude": 85.8301721
  },
  {
    "place_name": "Badaneuli B.O",
    "district": "KENDUJHAR",
    "state": "ODISHA",
    "pincode": "758032",
    "office_type": "BO",
    "delivery": true,
    "division": "Keonjhar Division",
    "region": "Sambalpur Region",
    "circle": "Odisha Circle",
    "latitude": 21.7767215,
    "longitude": 85.7043318
  },
  {
    "place_name": "Bhodaposi B.O",
    "district": "KENDUJHAR",
    "state": "ODISHA",
    "pincode": "758032",
    "office_type": "BO",
    "delivery": true,
    "division": "Keonjhar Division",
    "region": "Sambalpur Region",
    "circle": "Odisha Circle",
    "latitude": 21.8897053,
    "longitude": 85.6786931
  },
  {
    "place_name": "Bhuinpur B.O",
    "district": "KENDUJHAR",
    "state": "ODISHA",
    "pincode": "758032",
    "office_type": "BO",
    "delivery": true,
    "division": "Keonjhar Division",
    "region": "Sambalpur Region",
    "circle": "Odisha Circle",
    "latitude": 21.9082208,
    "longitude": 85.686888
  },
  {
    "place_name": "Gidhibas B.O",
    "district": "KENDUJHAR",
    "state": "ODISHA",
    "pincode": "758032",
    "office_type": "BO",
    "delivery": true,
    "division": "Keonjhar Division",
    "region": "Sambalpur Region",
    "circle": "Odisha Circle",
    "latitude": 21.9082208,
    "longitude": 85.686886
  },
  {
    "place_name": "Kaunrikala(A) B.O",
    "district": "KENDUJHAR",
    "state": "ODISHA",
    "pincode": "758032",
    "office_type": "BO",
    "delivery": true,
    "division": "Keonjhar Division",
    "region": "Sambalpur Region",
    "circle": "Odisha Circle",
    "latitude": 21.9018117,
    "longitude": 85.686883
  },
  {
    "place_name": "Silitia B.O",
    "district": "KENDUJHAR",
    "state": "ODISHA",
    "pincode": "758032",
    "office_type": "BO",
    "delivery": true,
    "division": "Keonjhar Division",
    "region": "Sambalpur Region",
    "circle": "Odisha Circle",
    "latitude": 21.7697382,
    "longitude": 85.7206139
  },
  {
    "place_name": "Kadakala B.O",
    "district": "KENDUJHAR",
    "state": "ODISHA",
    "pincode": "758085",
    "office_type": "BO",
    "delivery": true,
    "division": "Keonjhar Division",
    "region": "Sambalpur Region",
    "circle": "Odisha Circle",
    "latitude": 21.760115,
    "longitude": 85.3244516
  },
  {
    "place_name": "Kumundi (KHA) B.O",
    "district": "KENDUJHAR",
    "state": "ODISHA",
    "pincode": "758085",
    "office_type": "BO",
    "delivery": true,
    "division": "Keonjhar Division",
    "region": "Sambalpur Region",
    "circle": "Odisha Circle",
    "latitude": 21.7601152,
    "longitude": 85.3244511
  },
  {
    "place_name": "Dabuna B.O",
    "district": "KENDUJHAR",
    "state": "ODISHA",
    "pincode": "758086",
    "office_type": "BO",
    "delivery": true,
    "division": "Keonjhar Division",
    "region": "Sambalpur Region",
    "circle": "Odisha Circle",
    "latitude": 21.8422966,
    "longitude": 85.3983566
  },
  {
    "place_name": "Silijoda B.O",
    "district": "KENDUJHAR",
    "state": "ODISHA",
    "pincode": "758086",
    "office_type": "BO",
    "delivery": true,
    "division": "Keonjhar Division",
    "region": "Sambalpur Region",
    "circle": "Odisha Circle",
    "latitude": 21.89388,
    "longitude": 85.3739283
  },
  {
    "place_name": "Patilo B.O",
    "district": "KENDUJHAR",
    "state": "ODISHA",
    "pincode": "758087",
    "office_type": "BO",
    "delivery": true,
    "division": "Keonjhar Division",
    "region": "Sambalpur Region",
    "circle": "Odisha Circle",
    "latitude": 21.4246733,
    "longitude": 85.7128266
  },
  {
    "place_name": "Janged B.O",
    "district": "BARGARH",
    "state": "ODISHA",
    "pincode": "768027",
    "office_type": "BO",
    "delivery": true,
    "division": "Sambalpur Division",
    "region": "Sambalpur Region",
    "circle": "Odisha Circle",
    "latitude": 21.7974728,
    "longitude": 83.5916217
  },
  {
    "place_name": "Kulunda B.O",
    "district": "BARGARH",
    "state": "ODISHA",
    "pincode": "768027",
    "office_type": "BO",
    "delivery": true,
    "division": "Sambalpur Division",
    "region": "Sambalpur Region",
    "circle": "Odisha Circle",
    "latitude": 21.7974728,
    "longitude": 83.5916217
  },
  {
    "place_name": "Lastala B.O",
    "district": "BARGARH",
    "state": "ODISHA",
    "pincode": "768027",
    "office_type": "BO",
    "delivery": true,
    "division": "Sambalpur Division",
    "region": "Sambalpur Region",
    "circle": "Odisha Circle",
    "latitude": 21.7974728,
    "longitude": 83.5916217
  },
  {
    "place_name": "Banda B.O",
    "district": "BARGARH",
    "state": "ODISHA",
    "pincode": "768038",
    "office_type": "BO",
    "delivery": true,
    "division": "Sambalpur Division",
    "region": "Sambalpur Region",
    "circle": "Odisha Circle",
    "latitude": 21.4156393,
    "longitude": 83.6857987
  },
  {
    "place_name": "N. Jampali B.O",
    "district": "BARGARH",
    "state": "ODISHA",
    "pincode": "768038",
    "office_type": "BO",
    "delivery": true,
    "division": "Sambalpur Division",
    "region": "Sambalpur Region",
    "circle": "Odisha Circle",
    "latitude": 21.7974728,
    "longitude": 83.5916217
  },
  {
    "place_name": "Bagbadi B.O",
    "district": "BARGARH",
    "state": "ODISHA",
    "pincode": "768029",
    "office_type": "BO",
    "delivery": true,
    "division": "Sambalpur Division",
    "region": "Sambalpur Region",
    "circle": "Odisha Circle",
    "latitude": 22.0310716,
    "longitude": 83.775405
  },
  {
    "place_name": "Behera B.O",
    "district": "BARGARH",
    "state": "ODISHA",
    "pincode": "768029",
    "office_type": "BO",
    "delivery": true,
    "division": "Sambalpur Division",
    "region": "Sambalpur Region",
    "circle": "Odisha Circle",
    "latitude": 22.0310716,
    "longitude": 83.775405
  },
  {
    "place_name": "Kainsir B.O",
    "district": "BARGARH",
    "state": "ODISHA",
    "pincode": "768029",
    "office_type": "BO",
    "delivery": true,
    "division": "Sambalpur Division",
    "region": "Sambalpur Region",
    "circle": "Odisha Circle",
    "latitude": 22.0310716,
    "longitude": 83.775405
  },
  {
    "place_name": "Lenda B.O",
    "district": "BARGARH",
    "state": "ODISHA",
    "pincode": "768029",
    "office_type": "BO",
    "delivery": true,
    "division": "Sambalpur Division",
    "region": "Sambalpur Region",
    "circle": "Odisha Circle",
    "latitude": 22.0310716,
    "longitude": 83.775405
  },
  {
    "place_name": "Mahada B.O",
    "district": "BARGARH",
    "state": "ODISHA",
    "pincode": "768029",
    "office_type": "BO",
    "delivery": true,
    "division": "Sambalpur Division",
    "region": "Sambalpur Region",
    "circle": "Odisha Circle",
    "latitude": 21.0578335,
    "longitude": 83.5531529
  },
  {
    "place_name": "Nileswar B.O",
    "district": "BARGARH",
    "state": "ODISHA",
    "pincode": "768029",
    "office_type": "BO",
    "delivery": true,
    "division": "Sambalpur Division",
    "region": "Sambalpur Region",
    "circle": "Odisha Circle",
    "latitude": 21.1908276,
    "longitude": 83.591076
  },
  {
    "place_name": "Chadeigaon B.O",
    "district": "BARGARH",
    "state": "ODISHA",
    "pincode": "768030",
    "office_type": "BO",
    "delivery": true,
    "division": "Sambalpur Division",
    "region": "Sambalpur Region",
    "circle": "Odisha Circle",
    "latitude": 21.4175998,
    "longitude": 83.4098465
  },
  {
    "place_name": "NARANGPUR B.O",
    "district": "BARGARH",
    "state": "ODISHA",
    "pincode": "768030",
    "office_type": "BO",
    "delivery": true,
    "division": "Sambalpur Division",
    "region": "Sambalpur Region",
    "circle": "Odisha Circle",
    "latitude": 0,
    "longitude": 0
  },
  {
    "place_name": "Areigudi B.O",
    "district": "BARGARH",
    "state": "ODISHA",
    "pincode": "768104",
    "office_type": "BO",
    "delivery": true,
    "division": "Sambalpur Division",
    "region": "Sambalpur Region",
    "circle": "Odisha Circle",
    "latitude": 21.1958566,
    "longitude": 83.7445733
  },
  {
    "place_name": "Barapadar B.O",
    "district": "BARGARH",
    "state": "ODISHA",
    "pincode": "768104",
    "office_type": "BO",
    "delivery": true,
    "division": "Sambalpur Division",
    "region": "Sambalpur Region",
    "circle": "Odisha Circle",
    "latitude": 21.1958566,
    "longitude": 83.7445733
  },
  {
    "place_name": "Kudopali B.O",
    "district": "BARGARH",
    "state": "ODISHA",
    "pincode": "768104",
    "office_type": "BO",
    "delivery": true,
    "division": "Sambalpur Division",
    "region": "Sambalpur Region",
    "circle": "Odisha Circle",
    "latitude": 21.1958566,
    "longitude": 83.7445733
  },
  {
    "place_name": "Bara B.O",
    "district": "BARGARH",
    "state": "ODISHA",
    "pincode": "768045",
    "office_type": "BO",
    "delivery": true,
    "division": "Sambalpur Division",
    "region": "Sambalpur Region",
    "circle": "Odisha Circle",
    "latitude": 21.5794552,
    "longitude": 83.3867264
  },
  {
    "place_name": "Badbausen B.O",
    "district": "BARGARH",
    "state": "ODISHA",
    "pincode": "768032",
    "office_type": "BO",
    "delivery": true,
    "division": "Sambalpur Division",
    "region": "Sambalpur Region",
    "circle": "Odisha Circle",
    "latitude": 21.1880466,
    "longitude": 83.4607829
  },
  {
    "place_name": "Patharla B.O",
    "district": "BARGARH",
    "state": "ODISHA",
    "pincode": "768032",
    "office_type": "BO",
    "delivery": true,
    "division": "Sambalpur Division",
    "region": "Sambalpur Region",
    "circle": "Odisha Circle",
    "latitude": 21.0948648,
    "longitude": 83.423263
  },
  {
    "place_name": "CHARPALI",
    "district": "BARGARH",
    "state": "ODISHA",
    "pincode": "768032",
    "office_type": "BO",
    "delivery": true,
    "division": "Sambalpur Division",
    "region": "Sambalpur Region",
    "circle": "Odisha Circle",
    "latitude": 21.6730625,
    "longitude": 83.9361121
  },
  {
    "place_name": "Gourenmunda B.O",
    "district": "BARGARH",
    "state": "ODISHA",
    "pincode": "768037",
    "office_type": "BO",
    "delivery": true,
    "division": "Sambalpur Division",
    "region": "Sambalpur Region",
    "circle": "Odisha Circle",
    "latitude": 20.886366,
    "longitude": 83.3184677
  },
  {
    "place_name": "Jagalpat B.O",
    "district": "BARGARH",
    "state": "ODISHA",
    "pincode": "768037",
    "office_type": "BO",
    "delivery": true,
    "division": "Sambalpur Division",
    "region": "Sambalpur Region",
    "circle": "Odisha Circle",
    "latitude": 20.893936,
    "longitude": 83.3512565
  },
  {
    "place_name": "Petupali B.O",
    "district": "BARGARH",
    "state": "ODISHA",
    "pincode": "768034",
    "office_type": "BO",
    "delivery": true,
    "division": "Sambalpur Division",
    "region": "Sambalpur Region",
    "circle": "Odisha Circle",
    "latitude": 21.2095527,
    "longitude": 83.3130583
  },
  {
    "place_name": "Guthuguda B.O",
    "district": "BARGARH",
    "state": "ODISHA",
    "pincode": "768042",
    "office_type": "BO",
    "delivery": true,
    "division": "Sambalpur Division",
    "region": "Sambalpur Region",
    "circle": "Odisha Circle",
    "latitude": 21.041456,
    "longitude": 82.7698729
  },
  {
    "place_name": "Shakti B.O",
    "district": "BARGARH",
    "state": "ODISHA",
    "pincode": "768042",
    "office_type": "BO",
    "delivery": true,
    "division": "Sambalpur Division",
    "region": "Sambalpur Region",
    "circle": "Odisha Circle",
    "latitude": 21.0507894,
    "longitude": 82.8206054
  },
  {
    "place_name": "Jhitiki B.O",
    "district": "BARGARH",
    "state": "ODISHA",
    "pincode": "768050",
    "office_type": "BO",
    "delivery": true,
    "division": "Sambalpur Division",
    "region": "Sambalpur Region",
    "circle": "Odisha Circle",
    "latitude": 20.9108078,
    "longitude": 82.7355451
  },
  {
    "place_name": "Diptipur B.O",
    "district": "BARGARH",
    "state": "ODISHA",
    "pincode": "768035",
    "office_type": "BO",
    "delivery": true,
    "division": "Sambalpur Division",
    "region": "Sambalpur Region",
    "circle": "Odisha Circle",
    "latitude": 21.0787638,
    "longitude": 83.2295935
  },
  {
    "place_name": "Bartunda B.O",
    "district": "BARGARH",
    "state": "ODISHA",
    "pincode": "768039",
    "office_type": "BO",
    "delivery": true,
    "division": "Sambalpur Division",
    "region": "Sambalpur Region",
    "circle": "Odisha Circle",
    "latitude": 20.8445677,
    "longitude": 82.7473267
  },
  {
    "place_name": "Temri B.O",
    "district": "BARGARH",
    "state": "ODISHA",
    "pincode": "768039",
    "office_type": "BO",
    "delivery": true,
    "division": "Sambalpur Division",
    "region": "Sambalpur Region",
    "circle": "Odisha Circle",
    "latitude": 21.0090767,
    "longitude": 82.8956889
  },
  {
    "place_name": "Dahigaon B.O",
    "district": "BARGARH",
    "state": "ODISHA",
    "pincode": "768036",
    "office_type": "BO",
    "delivery": true,
    "division": "Sambalpur Division",
    "region": "Sambalpur Region",
    "circle": "Odisha Circle",
    "latitude": 20.9343914,
    "longitude": 83.0857653
  },
  {
    "place_name": "Lakhamara B.O",
    "district": "BARGARH",
    "state": "ODISHA",
    "pincode": "768036",
    "office_type": "BO",
    "delivery": true,
    "division": "Sambalpur Division",
    "region": "Sambalpur Region",
    "circle": "Odisha Circle",
    "latitude": 21.0891062,
    "longitude": 83.0241759
  },
  {
    "place_name": "CHARPALI B.O",
    "district": "BARGARH",
    "state": "ODISHA",
    "pincode": "768036",
    "office_type": "BO",
    "delivery": true,
    "division": "Sambalpur Division",
    "region": "Sambalpur Region",
    "circle": "Odisha Circle",
    "latitude": 0,
    "longitude": 0
  },
  {
    "place_name": "PUTUKA B.O",
    "district": "BARGARH",
    "state": "ODISHA",
    "pincode": "768036",
    "office_type": "BO",
    "delivery": true,
    "division": "Sambalpur Division",
    "region": "Sambalpur Region",
    "circle": "Odisha Circle",
    "latitude": 21.0894,
    "longitude": 83.3101
  },
  {
    "place_name": "Dekulba B.O",
    "district": "BARGARH",
    "state": "ODISHA",
    "pincode": "768103",
    "office_type": "BO",
    "delivery": true,
    "division": "Sambalpur Division",
    "region": "Sambalpur Region",
    "circle": "Odisha Circle",
    "latitude": 21.2605816,
    "longitude": 83.7306
  },
  {
    "place_name": "Bausenmura B.O",
    "district": "BARGARH",
    "state": "ODISHA",
    "pincode": "768033",
    "office_type": "BO",
    "delivery": true,
    "division": "Sambalpur Division",
    "region": "Sambalpur Region",
    "circle": "Odisha Circle",
    "latitude": 21.3000856,
    "longitude": 83.403194
  },
  {
    "place_name": "Chhuriapali B.O",
    "district": "BARGARH",
    "state": "ODISHA",
    "pincode": "768033",
    "office_type": "BO",
    "delivery": true,
    "division": "Sambalpur Division",
    "region": "Sambalpur Region",
    "circle": "Odisha Circle",
    "latitude": 21.3000856,
    "longitude": 83.403194
  },
  {
    "place_name": "Jatla B.O",
    "district": "BARGARH",
    "state": "ODISHA",
    "pincode": "768033",
    "office_type": "BO",
    "delivery": true,
    "division": "Sambalpur Division",
    "region": "Sambalpur Region",
    "circle": "Odisha Circle",
    "latitude": 21.3559815,
    "longitude": 83.4848799
  },
  {
    "place_name": "Lebidi B.O",
    "district": "BARGARH",
    "state": "ODISHA",
    "pincode": "768033",
    "office_type": "BO",
    "delivery": true,
    "division": "Sambalpur Division",
    "region": "Sambalpur Region",
    "circle": "Odisha Circle",
    "latitude": 21.2867198,
    "longitude": 83.469061
  },
  {
    "place_name": "Panimura B.O",
    "district": "BARGARH",
    "state": "ODISHA",
    "pincode": "768033",
    "office_type": "BO",
    "delivery": true,
    "division": "Sambalpur Division",
    "region": "Sambalpur Region",
    "circle": "Odisha Circle",
    "latitude": 21.3000856,
    "longitude": 83.403194
  },
  {
    "place_name": "Barhaguda B.O",
    "district": "BARGARH",
    "state": "ODISHA",
    "pincode": "768040",
    "office_type": "BO",
    "delivery": true,
    "division": "Sambalpur Division",
    "region": "Sambalpur Region",
    "circle": "Odisha Circle",
    "latitude": 21.3538976,
    "longitude": 83.6820956
  },
  {
    "place_name": "Badumermunda B.O",
    "district": "SAMBALPUR",
    "state": "ODISHA",
    "pincode": "768221",
    "office_type": "BO",
    "delivery": true,
    "division": "Sundargarh Division",
    "region": "Sambalpur Region",
    "circle": "Odisha Circle",
    "latitude": 22.0523801,
    "longitude": 84.2814561
  },
  {
    "place_name": "Baunslaga B.O",
    "district": "SAMBALPUR",
    "state": "ODISHA",
    "pincode": "768221",
    "office_type": "BO",
    "delivery": true,
    "division": "Sundargarh Division",
    "region": "Sambalpur Region",
    "circle": "Odisha Circle",
    "latitude": 22.0523801,
    "longitude": 84.2814561
  },
  {
    "place_name": "Kuarmal B.O",
    "district": "JHARSUGUDA",
    "state": "ODISHA",
    "pincode": "768221",
    "office_type": "BO",
    "delivery": true,
    "division": "Sundargarh Division",
    "region": "Sambalpur Region",
    "circle": "Odisha Circle",
    "latitude": 21.9250056,
    "longitude": 84.2368538
  },
  {
    "place_name": "Pankenpada B.O",
    "district": "JHARSUGUDA",
    "state": "ODISHA",
    "pincode": "768221",
    "office_type": "BO",
    "delivery": true,
    "division": "Sundargarh Division",
    "region": "Sambalpur Region",
    "circle": "Odisha Circle",
    "latitude": 21.9767185,
    "longitude": 84.3263573
  },
  {
    "place_name": "Sarandamal B.O",
    "district": "JHARSUGUDA",
    "state": "ODISHA",
    "pincode": "768211",
    "office_type": "BO",
    "delivery": true,
    "division": "Sundargarh Division",
    "region": "Sambalpur Region",
    "circle": "Odisha Circle",
    "latitude": 21.7418167,
    "longitude": 83.89743
  },
  {
    "place_name": "Chichinda B.O",
    "district": "JHARSUGUDA",
    "state": "ODISHA",
    "pincode": "768216",
    "office_type": "BO",
    "delivery": true,
    "division": "Sundargarh Division",
    "region": "Sambalpur Region",
    "circle": "Odisha Circle",
    "latitude": 21.8549951,
    "longitude": 83.9198477
  },
  {
    "place_name": "Gardega B.O",
    "district": "SAMBALPUR",
    "state": "ODISHA",
    "pincode": "768224",
    "office_type": "BO",
    "delivery": true,
    "division": "Sundargarh Division",
    "region": "Sambalpur Region",
    "circle": "Odisha Circle",
    "latitude": 22.0667211,
    "longitude": 84.4067322
  },
  {
    "place_name": "Kinabaga B.O",
    "district": "SAMBALPUR",
    "state": "ODISHA",
    "pincode": "768224",
    "office_type": "BO",
    "delivery": true,
    "division": "Sundargarh Division",
    "region": "Sambalpur Region",
    "circle": "Odisha Circle",
    "latitude": 22.1157469,
    "longitude": 84.4667347
  },
  {
    "place_name": "Pindapathar B.O",
    "district": "SAMBALPUR",
    "state": "ODISHA",
    "pincode": "768224",
    "office_type": "BO",
    "delivery": true,
    "division": "Sundargarh Division",
    "region": "Sambalpur Region",
    "circle": "Odisha Circle",
    "latitude": 22.1358039,
    "longitude": 84.4179657
  },
  {
    "place_name": "N. Adhapara B.O",
    "district": "JHARSUGUDA",
    "state": "ODISHA",
    "pincode": "768234",
    "office_type": "BO",
    "delivery": true,
    "division": "Sundargarh Division",
    "region": "Sambalpur Region",
    "circle": "Odisha Circle",
    "latitude": 21.7120683,
    "longitude": 83.8473233
  },
  {
    "place_name": "Badmal B.O",
    "district": "JHARSUGUDA",
    "state": "ODISHA",
    "pincode": "768202",
    "office_type": "BO",
    "delivery": true,
    "division": "Sundargarh Division",
    "region": "Sambalpur Region",
    "circle": "Odisha Circle",
    "latitude": 21.8188746,
    "longitude": 84.0087338
  },
  {
    "place_name": "Hirma B.O",
    "district": "JHARSUGUDA",
    "state": "ODISHA",
    "pincode": "768202",
    "office_type": "BO",
    "delivery": true,
    "division": "Sundargarh Division",
    "region": "Sambalpur Region",
    "circle": "Odisha Circle",
    "latitude": 21.7910825,
    "longitude": 83.9841228
  },
  {
    "place_name": "Markuta B.O",
    "district": "JHARSUGUDA",
    "state": "ODISHA",
    "pincode": "768202",
    "office_type": "BO",
    "delivery": true,
    "division": "Sundargarh Division",
    "region": "Sambalpur Region",
    "circle": "Odisha Circle",
    "latitude": 21.843815,
    "longitude": 83.9718861
  },
  {
    "place_name": "Lariapali B.O",
    "district": "SAMBALPUR",
    "state": "ODISHA",
    "pincode": "768228",
    "office_type": "BO",
    "delivery": true,
    "division": "Sundargarh Division",
    "region": "Sambalpur Region",
    "circle": "Odisha Circle",
    "latitude": 22.0104138,
    "longitude": 84.4386026
  },
  {
    "place_name": "Sole B.O",
    "district": "SUNDARGARH",
    "state": "ODISHA",
    "pincode": "768228",
    "office_type": "BO",
    "delivery": true,
    "division": "Sundargarh Division",
    "region": "Sambalpur Region",
    "circle": "Odisha Circle",
    "latitude": 21.9533134,
    "longitude": 84.5462137
  },
  {
    "place_name": "Bhatlaida B.O",
    "district": "JHARSUGUDA",
    "state": "ODISHA",
    "pincode": "768213",
    "office_type": "BO",
    "delivery": true,
    "division": "Sundargarh Division",
    "region": "Sambalpur Region",
    "circle": "Odisha Circle",
    "latitude": 21.8523283,
    "longitude": 84.230645
  },
  {
    "place_name": "Malidihi B.O",
    "district": "JHARSUGUDA",
    "state": "ODISHA",
    "pincode": "768213",
    "office_type": "BO",
    "delivery": true,
    "division": "Sundargarh Division",
    "region": "Sambalpur Region",
    "circle": "Odisha Circle",
    "latitude": 21.8136433,
    "longitude": 84.2745266
  },
  {
    "place_name": "Ardabahal B.O",
    "district": "SAMBALPUR",
    "state": "ODISHA",
    "pincode": "768222",
    "office_type": "BO",
    "delivery": true,
    "division": "Sundargarh Division",
    "region": "Sambalpur Region",
    "circle": "Odisha Circle",
    "latitude": 21.8288666,
    "longitude": 84.3714016
  },
  {
    "place_name": "Bhoipali B.O",
    "district": "SAMBALPUR",
    "state": "ODISHA",
    "pincode": "768222",
    "office_type": "BO",
    "delivery": true,
    "division": "Sundargarh Division",
    "region": "Sambalpur Region",
    "circle": "Odisha Circle",
    "latitude": 21.6455909,
    "longitude": 84.2709987
  },
  {
    "place_name": "Dhudipali B.O",
    "district": "SAMBALPUR",
    "state": "ODISHA",
    "pincode": "768222",
    "office_type": "BO",
    "delivery": true,
    "division": "Sundargarh Division",
    "region": "Sambalpur Region",
    "circle": "Odisha Circle",
    "latitude": 21.681783,
    "longitude": 84.2728244
  },
  {
    "place_name": "Salebhadi B.O",
    "district": "SAMBALPUR",
    "state": "ODISHA",
    "pincode": "768227",
    "office_type": "BO",
    "delivery": true,
    "division": "Sundargarh Division",
    "region": "Sambalpur Region",
    "circle": "Odisha Circle",
    "latitude": 21.7536716,
    "longitude": 84.575025
  },
  {
    "place_name": "Kenadhipa B.O",
    "district": "SAMBALPUR",
    "state": "ODISHA",
    "pincode": "768214",
    "office_type": "BO",
    "delivery": true,
    "division": "Sundargarh Division",
    "region": "Sambalpur Region",
    "circle": "Odisha Circle",
    "latitude": 21.6476775,
    "longitude": 84.2364236
  },
  {
    "place_name": "Sarangloi B.O",
    "district": "JHARSUGUDA",
    "state": "ODISHA",
    "pincode": "768215",
    "office_type": "BO",
    "delivery": true,
    "division": "Sundargarh Division",
    "region": "Sambalpur Region",
    "circle": "Odisha Circle",
    "latitude": 21.9172103,
    "longitude": 84.2550593
  },
  {
    "place_name": "Sudang B.O",
    "district": "JHARSUGUDA",
    "state": "ODISHA",
    "pincode": "768215",
    "office_type": "BO",
    "delivery": true,
    "division": "Sundargarh Division",
    "region": "Sambalpur Region",
    "circle": "Odisha Circle",
    "latitude": 21.9087289,
    "longitude": 84.3157371
  },
  {
    "place_name": "Bhaurkhol B.O",
    "district": "JHARSUGUDA",
    "state": "ODISHA",
    "pincode": "768219",
    "office_type": "BO",
    "delivery": true,
    "division": "Sundargarh Division",
    "region": "Sambalpur Region",
    "circle": "Odisha Circle",
    "latitude": 21.7644301,
    "longitude": 83.7716318
  },
  {
    "place_name": "Ghichamura B.O",
    "district": "SAMBALPUR",
    "state": "ODISHA",
    "pincode": "768212",
    "office_type": "BO",
    "delivery": true,
    "division": "Sambalpur Division",
    "region": "Sambalpur Region",
    "circle": "Odisha Circle",
    "latitude": 21.7639198,
    "longitude": 84.0996352
  },
  {
    "place_name": "K. Jhankarpali B.O",
    "district": "SAMBALPUR",
    "state": "ODISHA",
    "pincode": "768212",
    "office_type": "BO",
    "delivery": true,
    "division": "Sambalpur Division",
    "region": "Sambalpur Region",
    "circle": "Odisha Circle",
    "latitude": 21.6425987,
    "longitude": 84.1518191
  },
  {
    "place_name": "Balanda B.O",
    "district": "DEOGARH",
    "state": "ODISHA",
    "pincode": "768110",
    "office_type": "BO",
    "delivery": true,
    "division": "Sambalpur Division",
    "region": "Sambalpur Region",
    "circle": "Odisha Circle",
    "latitude": 21.5460435,
    "longitude": 84.9794063
  },
  {
    "place_name": "Kalla B.O",
    "district": "DEOGARH",
    "state": "ODISHA",
    "pincode": "768110",
    "office_type": "BO",
    "delivery": true,
    "division": "Sambalpur Division",
    "region": "Sambalpur Region",
    "circle": "Odisha Circle",
    "latitude": 21.5460435,
    "longitude": 84.9794063
  },
  {
    "place_name": "Madhyapur B.O",
    "district": "DEOGARH",
    "state": "ODISHA",
    "pincode": "768110",
    "office_type": "BO",
    "delivery": true,
    "division": "Sambalpur Division",
    "region": "Sambalpur Region",
    "circle": "Odisha Circle",
    "latitude": 21.5460435,
    "longitude": 84.9794063
  },
  {
    "place_name": "JHARAKANDHAL",
    "district": "DEOGARH",
    "state": "ODISHA",
    "pincode": "768110",
    "office_type": "BO",
    "delivery": true,
    "division": "Sambalpur Division",
    "region": "Sambalpur Region",
    "circle": "Odisha Circle",
    "latitude": 21.5031,
    "longitude": 85.112
  },
  {
    "place_name": "GOLABANDH B.O",
    "district": "DEOGARH",
    "state": "ODISHA",
    "pincode": "768110",
    "office_type": "BO",
    "delivery": true,
    "division": "Sambalpur Division",
    "region": "Sambalpur Region",
    "circle": "Odisha Circle",
    "latitude": 21.53823,
    "longitude": 84.729073
  },
  {
    "place_name": "Basantpur B.O",
    "district": "SAMBALPUR",
    "state": "ODISHA",
    "pincode": "768025",
    "office_type": "BO",
    "delivery": true,
    "division": "Sambalpur Division",
    "region": "Sambalpur Region",
    "circle": "Odisha Circle",
    "latitude": 21.3869716,
    "longitude": 83.8899883
  },
  {
    "place_name": "KARDOLA B.O",
    "district": "SAMBALPUR",
    "state": "ODISHA",
    "pincode": "768025",
    "office_type": "BO",
    "delivery": true,
    "division": "Sambalpur Division",
    "region": "Sambalpur Region",
    "circle": "Odisha Circle",
    "latitude": 0,
    "longitude": 0
  },
  {
    "place_name": "Dantaribahal B.O",
    "district": "DEOGARH",
    "state": "ODISHA",
    "pincode": "768108",
    "office_type": "BO",
    "delivery": true,
    "division": "Sambalpur Division",
    "region": "Sambalpur Region",
    "circle": "Odisha Circle",
    "latitude": 21.5949714,
    "longitude": 84.8245349
  },
  {
    "place_name": "Kandhal B.O",
    "district": "DEOGARH",
    "state": "ODISHA",
    "pincode": "768108",
    "office_type": "BO",
    "delivery": true,
    "division": "Sambalpur Division",
    "region": "Sambalpur Region",
    "circle": "Odisha Circle",
    "latitude": 21.5483428,
    "longitude": 84.8746194
  },
  {
    "place_name": "Parposi B.O",
    "district": "DEOGARH",
    "state": "ODISHA",
    "pincode": "768108",
    "office_type": "BO",
    "delivery": true,
    "division": "Sambalpur Division",
    "region": "Sambalpur Region",
    "circle": "Odisha Circle",
    "latitude": 21.6365549,
    "longitude": 84.6698164
  },
  {
    "place_name": "TUSULA B.O",
    "district": "DEOGARH",
    "state": "ODISHA",
    "pincode": "768108",
    "office_type": "BO",
    "delivery": true,
    "division": "Sambalpur Division",
    "region": "Sambalpur Region",
    "circle": "Odisha Circle",
    "latitude": 21.5848,
    "longitude": 84.6976
  },
  {
    "place_name": "Sahaspur B.O",
    "district": "SAMBALPUR",
    "state": "ODISHA",
    "pincode": "768113",
    "office_type": "BO",
    "delivery": true,
    "division": "Sambalpur Division",
    "region": "Sambalpur Region",
    "circle": "Odisha Circle",
    "latitude": 21.3401051,
    "longitude": 83.9633999
  },
  {
    "place_name": "Chaurpur B.O",
    "district": "SAMBALPUR",
    "state": "ODISHA",
    "pincode": "768005",
    "office_type": "BO",
    "delivery": true,
    "division": "Sambalpur Division",
    "region": "Sambalpur Region",
    "circle": "Odisha Circle",
    "latitude": 21.4487372,
    "longitude": 83.9924319
  },
  {
    "place_name": "Dholpara B.O",
    "district": "DEOGARH",
    "state": "ODISHA",
    "pincode": "768121",
    "office_type": "BO",
    "delivery": true,
    "division": "Sambalpur Division",
    "region": "Sambalpur Region",
    "circle": "Odisha Circle",
    "latitude": 21.4447987,
    "longitude": 84.5426309
  },
  {
    "place_name": "Rusuda B.O",
    "district": "BARGARH",
    "state": "ODISHA",
    "pincode": "768115",
    "office_type": "BO",
    "delivery": true,
    "division": "Sambalpur Division",
    "region": "Sambalpur Region",
    "circle": "Odisha Circle",
    "latitude": 21.166805,
    "longitude": 83.8496866
  },
  {
    "place_name": "Dangarpara B.O",
    "district": "SAMBALPUR",
    "state": "ODISHA",
    "pincode": "768112",
    "office_type": "BO",
    "delivery": true,
    "division": "Sambalpur Division",
    "region": "Sambalpur Region",
    "circle": "Odisha Circle",
    "latitude": 21.4224799,
    "longitude": 84.185946
  },
  {
    "place_name": "Jayantapur B.O",
    "district": "SAMBALPUR",
    "state": "ODISHA",
    "pincode": "768112",
    "office_type": "BO",
    "delivery": true,
    "division": "Sambalpur Division",
    "region": "Sambalpur Region",
    "circle": "Odisha Circle",
    "latitude": 21.4451241,
    "longitude": 84.068058
  },
  {
    "place_name": "Kulundi B.O",
    "district": "SAMBALPUR",
    "state": "ODISHA",
    "pincode": "768112",
    "office_type": "BO",
    "delivery": true,
    "division": "Sambalpur Division",
    "region": "Sambalpur Region",
    "circle": "Odisha Circle",
    "latitude": 21.4410057,
    "longitude": 84.1925932
  },
  {
    "place_name": "Bamandagarh B.O",
    "district": "SAMBALPUR",
    "state": "ODISHA",
    "pincode": "768107",
    "office_type": "BO",
    "delivery": true,
    "division": "Sambalpur Division",
    "region": "Sambalpur Region",
    "circle": "Odisha Circle",
    "latitude": 21.6793614,
    "longitude": 84.4590572
  },
  {
    "place_name": "Fasimal B.O",
    "district": "SAMBALPUR",
    "state": "ODISHA",
    "pincode": "768107",
    "office_type": "BO",
    "delivery": true,
    "division": "Sambalpur Division",
    "region": "Sambalpur Region",
    "circle": "Odisha Circle",
    "latitude": 21.6014073,
    "longitude": 84.2821556
  },
  {
    "place_name": "Gundurchuan B.O",
    "district": "SAMBALPUR",
    "state": "ODISHA",
    "pincode": "768107",
    "office_type": "BO",
    "delivery": true,
    "division": "Sambalpur Division",
    "region": "Sambalpur Region",
    "circle": "Odisha Circle",
    "latitude": 21.638264,
    "longitude": 84.3355991
  },
  {
    "place_name": "Katangapani B.O",
    "district": "SAMBALPUR",
    "state": "ODISHA",
    "pincode": "768107",
    "office_type": "BO",
    "delivery": true,
    "division": "Sambalpur Division",
    "region": "Sambalpur Region",
    "circle": "Odisha Circle",
    "latitude": 21.5721027,
    "longitude": 84.3859784
  },
  {
    "place_name": "Sarda B.O",
    "district": "SAMBALPUR",
    "state": "ODISHA",
    "pincode": "768107",
    "office_type": "BO",
    "delivery": true,
    "division": "Sambalpur Division",
    "region": "Sambalpur Region",
    "circle": "Odisha Circle",
    "latitude": 21.4744512,
    "longitude": 84.3892448
  },