[
  {
    "place_name": "Diwan Khera BO",
    "district": "FAZILKA",
    "state": "PUNJAB",
    "pincode": "152128",
    "office_type": "BO",
    "delivery": true,
    "division": "Ferozpur Division",
    "region": "Punjab West Region",
    "circle": "Punjab Circle",
    "latitude": 30.1417,
    "longitude": 74.01125
  },
  {
    "place_name": "Panjkosi BO",
    "district": "FAZILKA",
    "state": "PUNJAB",
    "pincode": "152128",
    "office_type": "BO",
    "delivery": true,
    "division": "Ferozpur Division",
    "region": "Punjab West Region",
    "circle": "Punjab Circle",
    "latitude": 30.9265606,
    "longitude": 74.6135161
  },
  {
    "place_name": "Chak Kannian Kalan BO",
    "district": "MOGA",
    "state": "PUNJAB",
    "pincode": "142058",
    "office_type": "BO",
    "delivery": true,
    "division": "Ferozpur Division",
    "region": "Punjab West Region",
    "circle": "Punjab Circle",
    "latitude": 30.79727,
    "longitude": 75.32054
  },
  {
    "place_name": "Fateh Garh Panjtoor BO",
    "district": "MOGA",
    "state": "PUNJAB",
    "pincode": "142043",
    "office_type": "BO",
    "delivery": true,
    "division": "Ferozpur Division",
    "region": "Punjab West Region",
    "circle": "Punjab Circle",
    "latitude": 31.05585,
    "longitude": 75.13277
  },
  {
    "place_name": "Gargrah BO",
    "district": "MOGA",
    "state": "PUNJAB",
    "pincode": "142043",
    "office_type": "BO",
    "delivery": true,
    "division": "Ferozpur Division",
    "region": "Punjab West Region",
    "circle": "Punjab Circle",
    "latitude": 30.8164673,
    "longitude": 75.1717023
  },
  {
    "place_name": "Mandar Kalan BO",
    "district": "MOGA",
    "state": "PUNJAB",
    "pincode": "142043",
    "office_type": "BO",
    "delivery": true,
    "division": "Ferozpur Division",
    "region": "Punjab West Region",
    "circle": "Punjab Circle",
    "latitude": 30.95245,
    "longitude": 75.13675
  },
  {
    "place_name": "Pir Mohamad BO",
    "district": "FIROZEPUR",
    "state": "PUNJAB",
    "pincode": "142044",
    "office_type": "BO",
    "delivery": true,
    "division": "Ferozpur Division",
    "region": "Punjab West Region",
    "circle": "Punjab Circle",
    "latitude": 31.09945,
    "longitude": 74.93417
  },
  {
    "place_name": "Malluwalia Wala BO",
    "district": "FIROZEPUR",
    "state": "PUNJAB",
    "pincode": "152021",
    "office_type": "BO",
    "delivery": true,
    "division": "Ferozpur Division",
    "region": "Punjab West Region",
    "circle": "Punjab Circle",
    "latitude": 30.82655,
    "longitude": 74.5765
  },
  {
    "place_name": "Khosa Randhir BO",
    "district": "MOGA",
    "state": "PUNJAB",
    "pincode": "152028",
    "office_type": "BO",
    "delivery": true,
    "division": "Ferozpur Division",
    "region": "Punjab West Region",
    "circle": "Punjab Circle",
    "latitude": 30.893749,
    "longitude": 75.126809
  },
  {
    "place_name": "Sanehar BO",
    "district": "FIROZEPUR",
    "state": "PUNJAB",
    "pincode": "152028",
    "office_type": "BO",
    "delivery": true,
    "division": "Ferozpur Division",
    "region": "Punjab West Region",
    "circle": "Punjab Circle",
    "latitude": 30.968536,
    "longitude": 74.991058
  },
  {
    "place_name": "Ratta Khera BO",
    "district": "FAZILKA",
    "state": "PUNJAB",
    "pincode": "152033",
    "office_type": "BO",
    "delivery": true,
    "division": "Ferozpur Division",
    "region": "Punjab West Region",
    "circle": "Punjab Circle",
    "latitude": 30.97996,
    "longitude": 74.6816
  },
  {
    "place_name": "Gumjal BO",
    "district": "FAZILKA",
    "state": "PUNJAB",
    "pincode": "152132",
    "office_type": "BO",
    "delivery": true,
    "division": "Ferozpur Division",
    "region": "Punjab West Region",
    "circle": "Punjab Circle",
    "latitude": 30.9265586,
    "longitude": 74.6135181
  },
  {
    "place_name": "Shergarh BO",
    "district": "FAZILKA",
    "state": "PUNJAB",
    "pincode": "152132",
    "office_type": "BO",
    "delivery": true,
    "division": "Ferozpur Division",
    "region": "Punjab West Region",
    "circle": "Punjab Circle",
    "latitude": 30.04488,
    "longitude": 73.98143
  },
  {
    "place_name": "Usman Khera BO",
    "district": "FAZILKA",
    "state": "PUNJAB",
    "pincode": "152132",
    "office_type": "BO",
    "delivery": false,
    "division": "Ferozpur Division",
    "region": "Punjab West Region",
    "circle": "Punjab Circle",
    "latitude": 30.04488,
    "longitude": 73.98143
  },
  {
    "place_name": "Bazidpur Kattianwali BO",
    "district": "FAZILKA",
    "state": "PUNJAB",
    "pincode": "152122",
    "office_type": "BO",
    "delivery": true,
    "division": "Ferozpur Division",
    "region": "Punjab West Region",
    "circle": "Punjab Circle",
    "latitude": 30.2451,
    "longitude": 74.12985
  },
  {
    "place_name": "Jhummianwali BO",
    "district": "FAZILKA",
    "state": "PUNJAB",
    "pincode": "152122",
    "office_type": "BO",
    "delivery": true,
    "division": "Ferozpur Division",
    "region": "Punjab West Region",
    "circle": "Punjab Circle",
    "latitude": 30.403733,
    "longitude": 74.025531
  },
  {
    "place_name": "Bazidpur BO",
    "district": "FIROZEPUR",
    "state": "PUNJAB",
    "pincode": "152004",
    "office_type": "BO",
    "delivery": true,
    "division": "Ferozpur Division",
    "region": "Punjab West Region",
    "circle": "Punjab Circle",
    "latitude": 29.97117,
    "longitude": 74.57624
  },
  {
    "place_name": "Sayianwala BO",
    "district": "FIROZEPUR",
    "state": "PUNJAB",
    "pincode": "152004",
    "office_type": "BO",
    "delivery": true,
    "division": "Ferozpur Division",
    "region": "Punjab West Region",
    "circle": "Punjab Circle",
    "latitude": 29.97117,
    "longitude": 74.57624
  },
  {
    "place_name": "Khosa Dal Singh BO",
    "district": "FIROZEPUR",
    "state": "PUNJAB",
    "pincode": "152005",
    "office_type": "BO",
    "delivery": true,
    "division": "Ferozpur Division",
    "region": "Punjab West Region",
    "circle": "Punjab Circle",
    "latitude": 30.7499537,
    "longitude": 75.4126063
  },
  {
    "place_name": "Lohgarh Thakran BO",
    "district": "FIROZEPUR",
    "state": "PUNJAB",
    "pincode": "152005",
    "office_type": "BO",
    "delivery": true,
    "division": "Ferozpur Division",
    "region": "Punjab West Region",
    "circle": "Punjab Circle",
    "latitude": 30.918107,
    "longitude": 74.616135
  },
  {
    "place_name": "Sodhi Nagar BO",
    "district": "FIROZEPUR",
    "state": "PUNJAB",
    "pincode": "152005",
    "office_type": "BO",
    "delivery": true,
    "division": "Ferozpur Division",
    "region": "Punjab West Region",
    "circle": "Punjab Circle",
    "latitude": 30.7456,
    "longitude": 75.30656
  },
  {
    "place_name": "Kassoana BO",
    "district": "FIROZEPUR",
    "state": "PUNJAB",
    "pincode": "142050",
    "office_type": "BO",
    "delivery": true,
    "division": "Ferozpur Division",
    "region": "Punjab West Region",
    "circle": "Punjab Circle",
    "latitude": 30.85535,
    "longitude": 74.94099
  },
  {
    "place_name": "Lalle BO",
    "district": "FIROZEPUR",
    "state": "PUNJAB",
    "pincode": "142050",
    "office_type": "BO",
    "delivery": true,
    "division": "Ferozpur Division",
    "region": "Punjab West Region",
    "circle": "Punjab Circle",
    "latitude": 30.918105,
    "longitude": 74.616137
  },
  {
    "place_name": "Pandori Khatrian BO",
    "district": "FIROZEPUR",
    "state": "PUNJAB",
    "pincode": "142050",
    "office_type": "BO",
    "delivery": true,
    "division": "Ferozpur Division",
    "region": "Punjab West Region",
    "circle": "Punjab Circle",
    "latitude": 30.85535,
    "longitude": 74.94099
  },
  {
    "place_name": "Dhandian BO",
    "district": "FIROZEPUR",
    "state": "PUNJAB",
    "pincode": "142047",
    "office_type": "BO",
    "delivery": true,
    "division": "Ferozpur Division",
    "region": "Punjab West Region",
    "circle": "Punjab Circle",
    "latitude": 30.968537,
    "longitude": 74.991057
  },
  {
    "place_name": "Shahwala BO",
    "district": "FIROZEPUR",
    "state": "PUNJAB",
    "pincode": "142047",
    "office_type": "BO",
    "delivery": true,
    "division": "Ferozpur Division",
    "region": "Punjab West Region",
    "circle": "Punjab Circle",
    "latitude": 30.94655,
    "longitude": 74.9391
  },
  {
    "place_name": "Thatha Kishan Singh BO",
    "district": "FIROZEPUR",
    "state": "PUNJAB",
    "pincode": "142047",
    "office_type": "BO",
    "delivery": true,
    "division": "Ferozpur Division",
    "region": "Punjab West Region",
    "circle": "Punjab Circle",
    "latitude": 30.94655,
    "longitude": 74.9391
  },
  {
    "place_name": "Khuban BO",
    "district": "FAZILKA",
    "state": "PUNJAB",
    "pincode": "152118",
    "office_type": "BO",
    "delivery": true,
    "division": "Ferozpur Division",
    "region": "Punjab West Region",
    "circle": "Punjab Circle",
    "latitude": 30.9265586,
    "longitude": 74.6135181
  },
  {
    "place_name": "Sardarpura BO",
    "district": "FAZILKA",
    "state": "PUNJAB",
    "pincode": "152118",
    "office_type": "BO",
    "delivery": true,
    "division": "Ferozpur Division",
    "region": "Punjab West Region",
    "circle": "Punjab Circle",
    "latitude": 30.15515,
    "longitude": 74.2034
  },
  {
    "place_name": "Hardo Jhande BO",
    "district": "GURDASPUR",
    "state": "PUNJAB",
    "pincode": "143507",
    "office_type": "BO",
    "delivery": true,
    "division": "Gurdaspur Division",
    "region": "Punjab West Region",
    "circle": "Punjab Circle",
    "latitude": 31.79,
    "longitude": 75.15
  },
  {
    "place_name": "Athwal BO",
    "district": "GURDASPUR",
    "state": "PUNJAB",
    "pincode": "143511",
    "office_type": "BO",
    "delivery": true,
    "division": "Gurdaspur Division",
    "region": "Punjab West Region",
    "circle": "Punjab Circle",
    "latitude": 31.95,
    "longitude": 75.19
  },
  {
    "place_name": "Wadala Banger BO",
    "district": "GURDASPUR",
    "state": "PUNJAB",
    "pincode": "143511",
    "office_type": "BO",
    "delivery": true,
    "division": "Gurdaspur Division",
    "region": "Punjab West Region",
    "circle": "Punjab Circle",
    "latitude": 31.95,
    "longitude": 75.16
  },
  {
    "place_name": "Khushalpur BO",
    "district": "GURDASPUR",
    "state": "PUNJAB",
    "pincode": "143604",
    "office_type": "BO",
    "delivery": true,
    "division": "Gurdaspur Division",
    "region": "Punjab West Region",
    "circle": "Punjab Circle",
    "latitude": 32,
    "longitude": 75.04
  },
  {
    "place_name": "Talwandi Rama BO",
    "district": "GURDASPUR",
    "state": "PUNJAB",
    "pincode": "143604",
    "office_type": "BO",
    "delivery": true,
    "division": "Gurdaspur Division",
    "region": "Punjab West Region",
    "circle": "Punjab Circle",
    "latitude": 31.94,
    "longitude": 74.99
  },
  {
    "place_name": "Hardorwal BO",
    "district": "GURDASPUR",
    "state": "PUNJAB",
    "pincode": "143602",
    "office_type": "BO",
    "delivery": true,
    "division": "Gurdaspur Division",
    "region": "Punjab West Region",
    "circle": "Punjab Circle",
    "latitude": 31.92,
    "longitude": 74.93
  },
  {
    "place_name": "Sarchur BO",
    "district": "GURDASPUR",
    "state": "PUNJAB",
    "pincode": "143602",
    "office_type": "BO",
    "delivery": true,
    "division": "Gurdaspur Division",
    "region": "Punjab West Region",
    "circle": "Punjab Circle",
    "latitude": 31.82,
    "longitude": 75.05
  },
  {
    "place_name": "Padhe BO",
    "district": "GURDASPUR",
    "state": "PUNJAB",
    "pincode": "143514",
    "office_type": "BO",
    "delivery": true,
    "division": "Gurdaspur Division",
    "region": "Punjab West Region",
    "circle": "Punjab Circle",
    "latitude": 31.6759,
    "longitude": 75.3395
  },
  {
    "place_name": "Massania BO",
    "district": "GURDASPUR",
    "state": "PUNJAB",
    "pincode": "143506",
    "office_type": "BO",
    "delivery": true,
    "division": "Gurdaspur Division",
    "region": "Punjab West Region",
    "circle": "Punjab Circle",
    "latitude": 31.79,
    "longitude": 75.26
  },
  {
    "place_name": "Bodhe Di Khui BO",
    "district": "GURDASPUR",
    "state": "PUNJAB",
    "pincode": "143506",
    "office_type": "BO",
    "delivery": true,
    "division": "Gurdaspur Division",
    "region": "Punjab West Region",
    "circle": "Punjab Circle",
    "latitude": 31.7345,
    "longitude": 75.2818
  },
  {
    "place_name": "Panjgarian BO",
    "district": "GURDASPUR",
    "state": "PUNJAB",
    "pincode": "143506",
    "office_type": "BO",
    "delivery": true,
    "division": "Gurdaspur Division",
    "region": "Punjab West Region",
    "circle": "Punjab Circle",
    "latitude": 31.8183,
    "longitude": 75.2071
  },
  {
    "place_name": "Harpura Dhandoi BO",
    "district": "GURDASPUR",
    "state": "PUNJAB",
    "pincode": "143506",
    "office_type": "BO",
    "delivery": true,
    "division": "Gurdaspur Division",
    "region": "Punjab West Region",
    "circle": "Punjab Circle",
    "latitude": 31.75362,
    "longitude": 75.17385
  },
  {
    "place_name": "Bhole Ke BO",
    "district": "GURDASPUR",
    "state": "PUNJAB",
    "pincode": "143513",
    "office_type": "BO",
    "delivery": true,
    "division": "Gurdaspur Division",
    "region": "Punjab West Region",
    "circle": "Punjab Circle",
    "latitude": 31.90225,
    "longitude": 75.05125
  },
  {
    "place_name": "Dhandal BO",
    "district": "GURDASPUR",
    "state": "PUNJAB",
    "pincode": "143516",
    "office_type": "BO",
    "delivery": true,
    "division": "Gurdaspur Division",
    "region": "Punjab West Region",
    "circle": "Punjab Circle",
    "latitude": 31.86,
    "longitude": 75.41
  },
  {
    "place_name": "Dhapai BO",
    "district": "GURDASPUR",
    "state": "PUNJAB",
    "pincode": "143516",
    "office_type": "BO",
    "delivery": true,
    "division": "Gurdaspur Division",
    "region": "Punjab West Region",
    "circle": "Punjab Circle",
    "latitude": 31.78,
    "longitude": 75.4
  },
  {
    "place_name": "Kot Todarmal BO",
    "district": "GURDASPUR",
    "state": "PUNJAB",
    "pincode": "143516",
    "office_type": "BO",
    "delivery": true,
    "division": "Gurdaspur Division",
    "region": "Punjab West Region",
    "circle": "Punjab Circle",
    "latitude": 31.84,
    "longitude": 75.42
  },
  {
    "place_name": "Leel Kalan BO",
    "district": "GURDASPUR",
    "state": "PUNJAB",
    "pincode": "143516",
    "office_type": "BO",
    "delivery": true,
    "division": "Gurdaspur Division",
    "region": "Punjab West Region",
    "circle": "Punjab Circle",
    "latitude": 31.8,
    "longitude": 75.36
  },
  {
    "place_name": "Cheema Khudi BO",
    "district": "GURDASPUR",
    "state": "PUNJAB",
    "pincode": "143515",
    "office_type": "BO",
    "delivery": true,
    "division": "Gurdaspur Division",
    "region": "Punjab West Region",
    "circle": "Punjab Circle",
    "latitude": 31.7212,
    "longitude": 75.4359
  },
  {
    "place_name": "Janial BO",
    "district": "PATHANKOT",
    "state": "PUNJAB",
    "pincode": "145027",
    "office_type": "BO",
    "delivery": true,
    "division": "Gurdaspur Division",
    "region": "Punjab West Region",
    "circle": "Punjab Circle",
    "latitude": 32.32,
    "longitude": 75.41
  },
  {
    "place_name": "Kaler Kalan BO",
    "district": "GURDASPUR",
    "state": "PUNJAB",
    "pincode": "143519",
    "office_type": "BO",
    "delivery": true,
    "division": "Gurdaspur Division",
    "region": "Punjab West Region",
    "circle": "Punjab Circle",
    "latitude": 31.94,
    "longitude": 75.28
  },
  {
    "place_name": "Langah BO",
    "district": "GURDASPUR",
    "state": "PUNJAB",
    "pincode": "143519",
    "office_type": "BO",
    "delivery": true,
    "division": "Gurdaspur Division",
    "region": "Punjab West Region",
    "circle": "Punjab Circle",
    "latitude": 32.02,
    "longitude": 75.28
  },
  {
    "place_name": "Magar Mudian BO",
    "district": "GURDASPUR",
    "state": "PUNJAB",
    "pincode": "143526",
    "office_type": "BO",
    "delivery": true,
    "division": "Gurdaspur Division",
    "region": "Punjab West Region",
    "circle": "Punjab Circle",
    "latitude": 32.09,
    "longitude": 75.37
  },
  {
    "place_name": "Bharath BO",
    "district": "GURDASPUR",
    "state": "PUNJAB",
    "pincode": "143527",
    "office_type": "BO",
    "delivery": true,
    "division": "Gurdaspur Division",
    "region": "Punjab West Region",
    "circle": "Punjab Circle",
    "latitude": 31.74,
    "longitude": 75.43
  },
  {
    "place_name": "Kala Bala e BO",
    "district": "GURDASPUR",
    "state": "PUNJAB",
    "pincode": "143528",
    "office_type": "BO",
    "delivery": true,
    "division": "Gurdaspur Division",
    "region": "Punjab West Region",
    "circle": "Punjab Circle",
    "latitude": 31.19,
    "longitude": 75.45
  },
  {
    "place_name": "Bharoli BO",
    "district": "PATHANKOT",
    "state": "PUNJAB",
    "pincode": "145025",
    "office_type": "BO",
    "delivery": true,
    "division": "Gurdaspur Division",
    "region": "Punjab West Region",
    "circle": "Punjab Circle",
    "latitude": 32.27,
    "longitude": 75.61
  },
  {
    "place_name": "Naushehra Nal Bandan BO",
    "district": "PATHANKOT",
    "state": "PUNJAB",
    "pincode": "145025",
    "office_type": "BO",
    "delivery": true,
    "division": "Gurdaspur Division",
    "region": "Punjab West Region",
    "circle": "Punjab Circle",
    "latitude": 32.21,
    "longitude": 75.62
  },
  {
    "place_name": "Jhabkra BO",
    "district": "GURDASPUR",
    "state": "PUNJAB",
    "pincode": "143525",
    "office_type": "BO",
    "delivery": true,
    "division": "Gurdaspur Division",
    "region": "Punjab West Region",
    "circle": "Punjab Circle",
    "latitude": 32.16,
    "longitude": 75.36
  },
  {
    "place_name": "Ghiala BO",
    "district": "PATHANKOT",
    "state": "PUNJAB",
    "pincode": "145101",
    "office_type": "BO",
    "delivery": true,
    "division": "Gurdaspur Division",
    "region": "Punjab West Region",
    "circle": "Punjab Circle",
    "latitude": 32.16,
    "longitude": 75.65
  },
  {
    "place_name": "Gurrah BO",
    "district": "PATHANKOT",
    "state": "PUNJAB",
    "pincode": "145101",
    "office_type": "BO",
    "delivery": true,
    "division": "Gurdaspur Division",
    "region": "Punjab West Region",
    "circle": "Punjab Circle",
    "latitude": 32.13,
    "longitude": 75.64
  },
  {
    "place_name": "Nangal BO",
    "district": "PATHANKOT",
    "state": "PUNJAB",
    "pincode": "145101",
    "office_type": "BO",
    "delivery": true,
    "division": "Gurdaspur Division",
    "region": "Punjab West Region",
    "circle": "Punjab Circle",
    "latitude": 32.12009,
    "longitude": 75.59708
  },
  {
    "place_name": "Datial BO",
    "district": "PATHANKOT",
    "state": "PUNJAB",
    "pincode": "145026",
    "office_type": "BO",
    "delivery": true,
    "division": "Gurdaspur Division",
    "region": "Punjab West Region",
    "circle": "Punjab Circle",
    "latitude": 32.24,
    "longitude": 75.41
  },
  {
    "place_name": "Chakkar BO",
    "district": "PATHANKOT",
    "state": "PUNJAB",
    "pincode": "145001",
    "office_type": "BO",
    "delivery": true,
    "division": "Gurdaspur Division",
    "region": "Punjab West Region",
    "circle": "Punjab Circle",
    "latitude": 32.33,
    "longitude": 75.77
  },
  {
    "place_name": "Hara BO",
    "district": "PATHANKOT",
    "state": "PUNJAB",
    "pincode": "145001",
    "office_type": "BO",
    "delivery": true,
    "division": "Gurdaspur Division",
    "region": "Punjab West Region",
    "circle": "Punjab Circle",
    "latitude": 32.33,
    "longitude": 75.8
  },
  {
    "place_name": "Trihari BO",
    "district": "PATHANKOT",
    "state": "PUNJAB",
    "pincode": "145001",
    "office_type": "BO",
    "delivery": true,
    "division": "Gurdaspur Division",
    "region": "Punjab West Region",
    "circle": "Punjab Circle",
    "latitude": 32.36,
    "longitude": 75.75
  },
  {
    "place_name": "Uchathara BO",
    "district": "PATHANKOT",
    "state": "PUNJAB",
    "pincode": "145001",
    "office_type": "BO",
    "delivery": true,
    "division": "Gurdaspur Division",
    "region": "Punjab West Region",
    "circle": "Punjab Circle",
    "latitude": 32.44,
    "longitude": 75.76
  },
  {
    "place_name": "Ferozepur Kalan BO",
    "district": "PATHANKOT",
    "state": "PUNJAB",
    "pincode": "145023",
    "office_type": "BO",
    "delivery": true,
    "division": "Gurdaspur Division",
    "region": "Punjab West Region",
    "circle": "Punjab Circle",
    "latitude": 32.33,
    "longitude": 75.58
  },
  {
    "place_name": "Panjore BO",
    "district": "PATHANKOT",
    "state": "PUNJAB",
    "pincode": "145023",
    "office_type": "BO",
    "delivery": true,
    "division": "Gurdaspur Division",
    "region": "Punjab West Region",
    "circle": "Punjab Circle",
    "latitude": 32.29,
    "longitude": 75.56
  },
  {
    "place_name": "Babri BO",
    "district": "GURDASPUR",
    "state": "PUNJAB",
    "pincode": "143529",
    "office_type": "BO",
    "delivery": true,
    "division": "Gurdaspur Division",
    "region": "Punjab West Region",
    "circle": "Punjab Circle",
    "latitude": 32.01,
    "longitude": 75.37
  },
  {
    "place_name": "Bhumbli BO",
    "district": "GURDASPUR",
    "state": "PUNJAB",
    "pincode": "143529",
    "office_type": "BO",
    "delivery": true,
    "division": "Gurdaspur Division",
    "region": "Punjab West Region",
    "circle": "Punjab Circle",
    "latitude": 31.94,
    "longitude": 75.38
  },
  {
    "place_name": "Khojepur BO",
    "district": "GURDASPUR",
    "state": "PUNJAB",
    "pincode": "143530",
    "office_type": "BO",
    "delivery": true,
    "division": "Gurdaspur Division",
    "region": "Punjab West Region",
    "circle": "Punjab Circle",
    "latitude": 32.07,
    "longitude": 75.45
  },
  {
    "place_name": "Bhater BO",
    "district": "HOSHIARPUR",
    "state": "PUNJAB",
    "pincode": "144224",
    "office_type": "BO",
    "delivery": true,
    "division": "Hoshiarpur Division",
    "region": "Punjab West Region",
    "circle": "Punjab Circle",
    "latitude": 23.41,
    "longitude": 87.91
  },
  {
    "place_name": "Behbalmanj BO",
    "district": "HOSHIARPUR",
    "state": "PUNJAB",
    "pincode": "144306",
    "office_type": "BO",
    "delivery": true,
    "division": "Hoshiarpur Division",
    "region": "Punjab West Region",
    "circle": "Punjab Circle",
    "latitude": 32.02,
    "longitude": 75.61
  },
  {
    "place_name": "Harse Mansar BO",
    "district": "HOSHIARPUR",
    "state": "PUNJAB",
    "pincode": "144306",
    "office_type": "BO",
    "delivery": true,
    "division": "Hoshiarpur Division",
    "region": "Punjab West Region",
    "circle": "Punjab Circle",
    "latitude": 31.99,
    "longitude": 75.62
  },
  {
    "place_name": "Kotli Khas BO",
    "district": "HOSHIARPUR",
    "state": "PUNJAB",
    "pincode": "144306",
    "office_type": "BO",
    "delivery": true,
    "division": "Hoshiarpur Division",
    "region": "Punjab West Region",
    "circle": "Punjab Circle",
    "latitude": 31.59,
    "longitude": 75.88
  },
  {
    "place_name": "Fatehpur Bhattlan BO",
    "district": "HOSHIARPUR",
    "state": "PUNJAB",
    "pincode": "144213",
    "office_type": "BO",
    "delivery": true,
    "division": "Hoshiarpur Division",
    "region": "Punjab West Region",
    "circle": "Punjab Circle",
    "latitude": 31.94,
    "longitude": 75.13
  },
  {
    "place_name": "Koi BO",
    "district": "HOSHIARPUR",
    "state": "PUNJAB",
    "pincode": "144213",
    "office_type": "BO",
    "delivery": true,
    "division": "Hoshiarpur Division",
    "region": "Punjab West Region",
    "circle": "Punjab Circle",
    "latitude": 31.8,
    "longitude": 75.81
  },
  {
    "place_name": "Chak Ladhian BO",
    "district": "HOSHIARPUR",
    "state": "PUNJAB",
    "pincode": "144210",
    "office_type": "BO",
    "delivery": true,
    "division": "Hoshiarpur Division",
    "region": "Punjab West Region",
    "circle": "Punjab Circle",
    "latitude": 31.31,
    "longitude": 75.54
  },
  {
    "place_name": "Kandhala Sheikhan BO",
    "district": "HOSHIARPUR",
    "state": "PUNJAB",
    "pincode": "144212",
    "office_type": "BO",
    "delivery": true,
    "division": "Hoshiarpur Division",
    "region": "Punjab West Region",
    "circle": "Punjab Circle",
    "latitude": 31.59,
    "longitude": 75.88
  },
  {
    "place_name": "Kandhali Narangpur BO",
    "district": "HOSHIARPUR",
    "state": "PUNJAB",
    "pincode": "144212",
    "office_type": "BO",
    "delivery": true,
    "division": "Hoshiarpur Division",
    "region": "Punjab West Region",
    "circle": "Punjab Circle",
    "latitude": 31.59,
    "longitude": 75.88
  },
  {
    "place_name": "Rajpur Gahot BO",
    "district": "HOSHIARPUR",
    "state": "PUNJAB",
    "pincode": "144212",
    "office_type": "BO",
    "delivery": true,
    "division": "Hoshiarpur Division",
    "region": "Punjab West Region",
    "circle": "Punjab Circle",
    "latitude": 31.24,
    "longitude": 75.84
  },
  {
    "place_name": "Dhade Fateh Singh BO",
    "district": "HOSHIARPUR",
    "state": "PUNJAB",
    "pincode": "146113",
    "office_type": "BO",
    "delivery": true,
    "division": "Hoshiarpur Division",
    "region": "Punjab West Region",
    "circle": "Punjab Circle",
    "latitude": 31.94,
    "longitude": 75.79
  },
  {
    "place_name": "Bhagowal BO",
    "district": "HOSHIARPUR",
    "state": "PUNJAB",
    "pincode": "146024",
    "office_type": "BO",
    "delivery": true,
    "division": "Hoshiarpur Division",
    "region": "Punjab West Region",
    "circle": "Punjab Circle",
    "latitude": 31.515963,
    "longitude": 75.904004
  },
  {
    "place_name": "Handwal BO",
    "district": "HOSHIARPUR",
    "state": "PUNJAB",
    "pincode": "144222",
    "office_type": "BO",
    "delivery": true,
    "division": "Hoshiarpur Division",
    "region": "Punjab West Region",
    "circle": "Punjab Circle",
    "latitude": 31.25,
    "longitude": 75.45
  },
  {
    "place_name": "Karari BO",
    "district": "HOSHIARPUR",
    "state": "PUNJAB",
    "pincode": "144222",
    "office_type": "BO",
    "delivery": true,
    "division": "Hoshiarpur Division",
    "region": "Punjab West Region",
    "circle": "Punjab Circle",
    "latitude": 31.85,
    "longitude": 75.45
  },
  {
    "place_name": "Chathial Khurd BO",
    "district": "HOSHIARPUR",
    "state": "PUNJAB",
    "pincode": "144207",
    "office_type": "BO",
    "delivery": true,
    "division": "Hoshiarpur Division",
    "region": "Punjab West Region",
    "circle": "Punjab Circle",
    "latitude": 31.84,
    "longitude": 75.84
  },
  {
    "place_name": "Chipra BO",
    "district": "HOSHIARPUR",
    "state": "PUNJAB",
    "pincode": "144207",
    "office_type": "BO",
    "delivery": true,
    "division": "Hoshiarpur Division",
    "region": "Punjab West Region",
    "circle": "Punjab Circle",
    "latitude": 31.83,
    "longitude": 75.64
  },
  {
    "place_name": "Seeprian BO",
    "district": "HOSHIARPUR",
    "state": "PUNJAB",
    "pincode": "144221",
    "office_type": "BO",
    "delivery": true,
    "division": "Hoshiarpur Division",
    "region": "Punjab West Region",
    "circle": "Punjab Circle",
    "latitude": 31.8,
    "longitude": 75.45
  },
  {
    "place_name": "Sataur BO",
    "district": "HOSHIARPUR",
    "state": "PUNJAB",
    "pincode": "144208",
    "office_type": "BO",
    "delivery": true,
    "division": "Hoshiarpur Division",
    "region": "Punjab West Region",
    "circle": "Punjab Circle",
    "latitude": 30.45,
    "longitude": 75.89
  },
  {
    "place_name": "Bhikhowal BO",
    "district": "HOSHIARPUR",
    "state": "PUNJAB",
    "pincode": "144208",
    "office_type": "BO",
    "delivery": true,
    "division": "Hoshiarpur Division",
    "region": "Punjab West Region",
    "circle": "Punjab Circle",
    "latitude": 31.25,
    "longitude": 75.83
  },
  {
    "place_name": "Dandoh BO",
    "district": "HOSHIARPUR",
    "state": "PUNJAB",
    "pincode": "144209",
    "office_type": "BO",
    "delivery": true,
    "division": "Hoshiarpur Division",
    "region": "Punjab West Region",
    "circle": "Punjab Circle",
    "latitude": 31.24,
    "longitude": 74.56
  },
  {
    "place_name": "Behlakhan BO",
    "district": "HOSHIARPUR",
    "state": "PUNJAB",
    "pincode": "144223",
    "office_type": "BO",
    "delivery": true,
    "division": "Hoshiarpur Division",
    "region": "Punjab West Region",
    "circle": "Punjab Circle",
    "latitude": 31.46,
    "longitude": 74.13
  },
  {
    "place_name": "Badla BO",
    "district": "HOSHIARPUR",
    "state": "PUNJAB",
    "pincode": "144223",
    "office_type": "BO",
    "delivery": true,
    "division": "Hoshiarpur Division",
    "region": "Punjab West Region",
    "circle": "Punjab Circle",
    "latitude": 30.78,
    "longitude": 75.13
  },
  {
    "place_name": "Sarhala Mundian BO",
    "district": "HOSHIARPUR",
    "state": "PUNJAB",
    "pincode": "146116",
    "office_type": "BO",
    "delivery": true,
    "division": "Hoshiarpur Division",
    "region": "Punjab West Region",
    "circle": "Punjab Circle",
    "latitude": 31.42,
    "longitude": 75.85
  },
  {
    "place_name": "Safdarpur BO",
    "district": "HOSHIARPUR",
    "state": "PUNJAB",
    "pincode": "144305",
    "office_type": "BO",
    "delivery": true,
    "division": "Hoshiarpur Division",
    "region": "Punjab West Region",
    "circle": "Punjab Circle",
    "latitude": 31.45,
    "longitude": 74.15
  },
  {
    "place_name": "Bodal Garna Sahib BO",
    "district": "HOSHIARPUR",
    "state": "PUNJAB",
    "pincode": "144305",
    "office_type": "BO",
    "delivery": true,
    "division": "Hoshiarpur Division",
    "region": "Punjab West Region",
    "circle": "Punjab Circle",
    "latitude": 31.26,
    "longitude": 75.15
  },
  {
    "place_name": "Jalalpur BO",
    "district": "HOSHIARPUR",
    "state": "PUNJAB",
    "pincode": "144202",
    "office_type": "BO",
    "delivery": true,
    "division": "Hoshiarpur Division",
    "region": "Punjab West Region",
    "circle": "Punjab Circle",
    "latitude": 31.46,
    "longitude": 75.36
  },
  {
    "place_name": "Hoshiarpur Kalota BO",
    "district": "HOSHIARPUR",
    "state": "PUNJAB",
    "pincode": "144211",
    "office_type": "BO",
    "delivery": true,
    "division": "Hoshiarpur Division",
    "region": "Punjab West Region",
    "circle": "Punjab Circle",
    "latitude": 31.5143178,
    "longitude": 75.911483
  },
  {
    "place_name": "Mansoorpur BO",
    "district": "HOSHIARPUR",
    "state": "PUNJAB",
    "pincode": "144211",
    "office_type": "BO",
    "delivery": true,
    "division": "Hoshiarpur Division",
    "region": "Punjab West Region",
    "circle": "Punjab Circle",
    "latitude": 31.5143178,
    "longitude": 75.911483
  },
  {
    "place_name": "Baja Chak BO",
    "district": "HOSHIARPUR",
    "state": "PUNJAB",
    "pincode": "144214",
    "office_type": "BO",
    "delivery": true,
    "division": "Hoshiarpur Division",
    "region": "Punjab West Region",
    "circle": "Punjab Circle",
    "latitude": 30.84,
    "longitude": 75.12
  },
  {
    "place_name": "Umarpur BO",
    "district": "HOSHIARPUR",
    "state": "PUNJAB",
    "pincode": "144214",
    "office_type": "BO",
    "delivery": true,
    "division": "Hoshiarpur Division",
    "region": "Punjab West Region",
    "circle": "Punjab Circle",
    "latitude": 31.15,
    "longitude": 75.12
  },
  {
    "place_name": "Kurala Kalan BO",
    "district": "HOSHIARPUR",
    "state": "PUNJAB",
    "pincode": "144204",
    "office_type": "BO",
    "delivery": true,
    "division": "Hoshiarpur Division",
    "region": "Punjab West Region",
    "circle": "Punjab Circle",
    "latitude": 31.52,
    "longitude": 75.84
  },
  {
    "place_name": "Phuglana BO",
    "district": "HOSHIARPUR",
    "state": "PUNJAB",
    "pincode": "144404",
    "office_type": "BO",
    "delivery": true,
    "division": "Hoshiarpur Division",
    "region": "Punjab West Region",
    "circle": "Punjab Circle",
    "latitude": 31.24,
    "longitude": 75.84
  },
  {
    "place_name": "Dihana BO",
    "district": "HOSHIARPUR",
    "state": "PUNJAB",
    "pincode": "144406",
    "office_type": "BO",
    "delivery": true,
    "division": "Hoshiarpur Division",
    "region": "Punjab West Region",
    "circle": "Punjab Circle",
    "latitude": 30.45,
    "longitude": 75.42
  },
  {
    "place_name": "Mehatpur Oladini BO",
    "district": "Shahid Bhagat Singh Nagar",
    "state": "PUNJAB",
    "pincode": "144521",
    "office_type": "BO",
    "delivery": true,
    "division": "Hoshiarpur Division",
    "region": "Punjab West Region",
    "circle": "Punjab Circle",
    "latitude": 31.42,
    "longitude": 75.06
  },
  {
    "place_name": "Nangal Khurd BO",
    "district": "HOSHIARPUR",
    "state": "PUNJAB",
    "pincode": "146101",
    "office_type": "BO",
    "delivery": true,
    "division": "Hoshiarpur Division",
    "region": "Punjab West Region",
    "circle": "Punjab Circle",
    "latitude": 31.56,
    "longitude": 75.84
  },
  {
    "place_name": "Bahadarpur Bahian BO",
    "district": "HOSHIARPUR",
    "state": "PUNJAB",
    "pincode": "146102",
    "office_type": "BO",
    "delivery": true,
    "division": "Hoshiarpur Division",
    "region": "Punjab West Region",
    "circle": "Punjab Circle",
    "latitude": 31.46,
    "longitude": 75.83
  },
  {
    "place_name": "Kalewal Bhagtan BO",
    "district": "HOSHIARPUR",
    "state": "PUNJAB",
    "pincode": "146102",
    "office_type": "BO",
    "delivery": true,
    "division": "Hoshiarpur Division",
    "region": "Punjab West Region",
    "circle": "Punjab Circle",
    "latitude": 31.69,
    "longitude": 75.54
  },
  {
    "place_name": "Naru Nangal BO",
    "district": "HOSHIARPUR",
    "state": "PUNJAB",
    "pincode": "146102",
    "office_type": "BO",
    "delivery": true,
    "division": "Hoshiarpur Division",
    "region": "Punjab West Region",
    "circle": "Punjab Circle",
    "latitude": 31.52,
    "longitude": 75.62
  },
  {
    "place_name": "Singhpur BO",
    "district": "HOSHIARPUR",
    "state": "PUNJAB",
    "pincode": "146102",
    "office_type": "BO",
    "delivery": true,
    "division": "Hoshiarpur Division",
    "region": "Punjab West Region",
    "circle": "Punjab Circle",
    "latitude": 31.52,
    "longitude": 75.96
  },
  {
    "place_name": "Kalewal BO",
    "district": "HOSHIARPUR",
    "state": "PUNJAB",
    "pincode": "144523",
    "office_type": "BO",
    "delivery": true,
    "division": "Hoshiarpur Division",
    "region": "Punjab West Region",
    "circle": "Punjab Circle",
    "latitude": 31.56,
    "longitude": 75.11
  },
  {
    "place_name": "Aiman Jattan BO",
    "district": "HOSHIARPUR",
    "state": "PUNJAB",
    "pincode": "144520",
    "office_type": "BO",
    "delivery": true,
    "division": "Hoshiarpur Division",
    "region": "Punjab West Region",
    "circle": "Punjab Circle",
    "latitude": 31.03,
    "longitude": 75.81
  },
  {
    "place_name": "Thowana BO",
    "district": "HOSHIARPUR",
    "state": "PUNJAB",
    "pincode": "144520",
    "office_type": "BO",
    "delivery": true,
    "division": "Hoshiarpur Division",
    "region": "Punjab West Region",
    "circle": "Punjab Circle",
    "latitude": 30.04,
    "longitude": 74.56
  },
  {
    "place_name": "Mustapur BO",
    "district": "HOSHIARPUR",
    "state": "PUNJAB",
    "pincode": "146024",
    "office_type": "BO",
    "delivery": true,
    "division": "Hoshiarpur Division",
    "region": "Punjab West Region",
    "circle": "Punjab Circle",
    "latitude": 31.25,
    "longitude": 74.89
  },
  {
    "place_name": "Chak Sadu BO",
    "district": "HOSHIARPUR",
    "state": "PUNJAB",
    "pincode": "146110",
    "office_type": "BO",
    "delivery": true,
    "division": "Hoshiarpur Division",
    "region": "Punjab West Region",
    "circle": "Punjab Circle",
    "latitude": 31.36,
    "longitude": 75.81
  },
  {
    "place_name": "Kharkan Camp BO",
    "district": "HOSHIARPUR",
    "state": "PUNJAB",
    "pincode": "146110",
    "office_type": "BO",
    "delivery": true,
    "division": "Hoshiarpur Division",
    "region": "Punjab West Region",
    "circle": "Punjab Circle",
    "latitude": 31.63,
    "longitude": 75.41
  },
  {
    "place_name": "Bahowal BO",
    "district": "HOSHIARPUR",
    "state": "PUNJAB",
    "pincode": "146105",
    "office_type": "BO",
    "delivery": true,
    "division": "Hoshiarpur Division",
    "region": "Punjab West Region",
    "circle": "Punjab Circle",
    "latitude": 31.45,
    "longitude": 75.414
  },
  {
    "place_name": "Chinkoa BO",
    "district": "Shahid Bhagat Singh Nagar",
    "state": "PUNJAB",
    "pincode": "144526",
    "office_type": "BO",
    "delivery": true,
    "division": "Hoshiarpur Division",
    "region": "Punjab West Region",
    "circle": "Punjab Circle",
    "latitude": 31.45,
    "longitude": 75.96
  },
  {
    "place_name": "Kaulgarh BO",
    "district": "Shahid Bhagat Singh Nagar",
    "state": "PUNJAB",
    "pincode": "144526",
    "office_type": "BO",
    "delivery": true,
    "division": "Hoshiarpur Division",
    "region": "Punjab West Region",
    "circle": "Punjab Circle",
    "latitude": 31.45,
    "longitude": 75.84
  },
  {
    "place_name": "Mohar BO",
    "district": "Shahid Bhagat Singh Nagar",
    "state": "PUNJAB",
    "pincode": "144526",
    "office_type": "BO",
    "delivery": true,
    "division": "Hoshiarpur Division",
    "region": "Punjab West Region",
    "circle": "Punjab Circle",
    "latitude": 31.08,
    "longitude": 75.87
  },
  {
    "place_name": "Kitna BO",
    "district": "HOSHIARPUR",
    "state": "PUNJAB",
    "pincode": "144531",
    "office_type": "BO",
    "delivery": true,
    "division": "Hoshiarpur Division",
    "region": "Punjab West Region",
    "circle": "Punjab Circle",
    "latitude": 30.24,
    "longitude": 74.58
  },
  {
    "place_name": "Ajram BO",
    "district": "HOSHIARPUR",
    "state": "PUNJAB",
    "pincode": "146111",
    "office_type": "BO",
    "delivery": true,
    "division": "Hoshiarpur Division",
    "region": "Punjab West Region",
    "circle": "Punjab Circle",
    "latitude": 31.05,
    "longitude": 75.46
  },
  {
    "place_name": "Bathian Brahmnan BO",
    "district": "HOSHIARPUR",
    "state": "PUNJAB",
    "pincode": "146111",
    "office_type": "BO",
    "delivery": true,
    "division": "Hoshiarpur Division",
    "region": "Punjab West Region",
    "circle": "Punjab Circle",
    "latitude": 31.58,
    "longitude": 75.45
  },
  {
    "place_name": "Dhakkowal BO",
    "district": "HOSHIARPUR",
    "state": "PUNJAB",
    "pincode": "146111",
    "office_type": "BO",
    "delivery": true,
    "division": "Hoshiarpur Division",
    "region": "Punjab West Region",
    "circle": "Punjab Circle",
    "latitude": 31.24,
    "longitude": 75.11
  },
  {
    "place_name": "Bhungarani BO",
    "district": "HOSHIARPUR",
    "state": "PUNJAB",
    "pincode": "146112",
    "office_type": "BO",
    "delivery": true,
    "division": "Hoshiarpur Division",
    "region": "Punjab West Region",
    "circle": "Punjab Circle",
    "latitude": 31.09,
    "longitude": 75.84
  },
  {
    "place_name": "Pandorikad BO",
    "district": "HOSHIARPUR",
    "state": "PUNJAB",
    "pincode": "146112",
    "office_type": "BO",
    "delivery": true,
    "division": "Hoshiarpur Division",
    "region": "Punjab West Region",
    "circle": "Punjab Circle",
    "latitude": 31.04,
    "longitude": 75.15
  },
  {
    "place_name": "Bassi Gulam Hussain BO",
    "district": "HOSHIARPUR",
    "state": "PUNJAB",
    "pincode": "146021",
    "office_type": "BO",
    "delivery": true,
    "division": "Hoshiarpur Division",
    "region": "Punjab West Region",
    "circle": "Punjab Circle",
    "latitude": 31.25,
    "longitude": 75.41
  },
  {
    "place_name": "Dada BO",
    "district": "HOSHIARPUR",
    "state": "PUNJAB",
    "pincode": "146021",
    "office_type": "BO",
    "delivery": true,
    "division": "Hoshiarpur Division",
    "region": "Punjab West Region",
    "circle": "Punjab Circle",
    "latitude": 31.26,
    "longitude": 75.81
  },
  {
    "place_name": "Panam BO",
    "district": "HOSHIARPUR",
    "state": "PUNJAB",
    "pincode": "144532",
    "office_type": "BO",
    "delivery": true,
    "division": "Hoshiarpur Division",
    "region": "Punjab West Region",
    "circle": "Punjab Circle",
    "latitude": 31.45,
    "longitude": 75.45
  },
  {
    "place_name": "Simbli BO",
    "district": "HOSHIARPUR",
    "state": "PUNJAB",
    "pincode": "144532",
    "office_type": "BO",
    "delivery": true,
    "division": "Hoshiarpur Division",
    "region": "Punjab West Region",
    "circle": "Punjab Circle",
    "latitude": 30.94,
    "longitude": 75.08
  },
  {
    "place_name": "Laksian BO",
    "district": "HOSHIARPUR",
    "state": "PUNJAB",
    "pincode": "146108",
    "office_type": "BO",
    "delivery": true,
    "division": "Hoshiarpur Division",
    "region": "Punjab West Region",
    "circle": "Punjab Circle",
    "latitude": 31.56,
    "longitude": 75.45
  },
  {
    "place_name": "Pandori  Ganga Singh BO",
    "district": "HOSHIARPUR",
    "state": "PUNJAB",
    "pincode": "146108",
    "office_type": "BO",
    "delivery": true,
    "division": "Hoshiarpur Division",
    "region": "Punjab West Region",
    "circle": "Punjab Circle",
    "latitude": 30.56,
    "longitude": 75.56
  },
  {
    "place_name": "Gandhowal BO",
    "district": "HOSHIARPUR",
    "state": "PUNJAB",
    "pincode": "146109",
    "office_type": "BO",
    "delivery": true,
    "division": "Hoshiarpur Division",
    "region": "Punjab West Region",
    "circle": "Punjab Circle",
    "latitude": 31.26,
    "longitude": 75.45
  },
  {
    "place_name": "Jiwanpur Jattan BO",
    "district": "HOSHIARPUR",
    "state": "PUNJAB",
    "pincode": "146109",
    "office_type": "BO",
    "delivery": true,
    "division": "Hoshiarpur Division",
    "region": "Punjab West Region",
    "circle": "Punjab Circle",
    "latitude": 31.53,
    "longitude": 75.45
  },
  {
    "place_name": "Baharowal BO",
    "district": "Shahid Bhagat Singh Nagar",
    "state": "PUNJAB",
    "pincode": "144505",
    "office_type": "BO",
    "delivery": true,
    "division": "Jalandhar Division",
    "region": "Punjab West Region",
    "circle": "Punjab Circle",
    "latitude": 31.1964,
    "longitude": 75.9678
  },
  {
    "place_name": "Dhandwar BO",
    "district": "JALANDHAR",
    "state": "PUNJAB",
    "pincode": "144502",
    "office_type": "BO",
    "delivery": true,
    "division": "Jalandhar Division",
    "region": "Punjab West Region",
    "circle": "Punjab Circle",
    "latitude": 31.1617,
    "longitude": 75.8769
  },
  {
    "place_name": "Sarhal Qazian BO",
    "district": "Shahid Bhagat Singh Nagar",
    "state": "PUNJAB",
    "pincode": "144502",
    "office_type": "BO",
    "delivery": true,
    "division": "Jalandhar Division",
    "region": "Punjab West Region",
    "circle": "Punjab Circle",
    "latitude": 31.1561,
    "longitude": 75.913
  },
  {
    "place_name": "Majara Nau Abad BO",
    "district": "Shahid Bhagat Singh Nagar",
    "state": "PUNJAB",
    "pincode": "144511",
    "office_type": "BO",
    "delivery": true,
    "division": "Jalandhar Division",
    "region": "Punjab West Region",
    "circle": "Punjab Circle",
    "latitude": 30.9755,
    "longitude": 76.0184
  },
  {
    "place_name": "Paddi Jagir BO",
    "district": "JALANDHAR",
    "state": "PUNJAB",
    "pincode": "144409",
    "office_type": "BO",
    "delivery": true,
    "division": "Jalandhar Division",
    "region": "Punjab West Region",
    "circle": "Punjab Circle",
    "latitude": 31.1452,
    "longitude": 75.7134
  },
  {
    "place_name": "Dhangerpur BO",
    "district": "Shahid Bhagat Singh Nagar",
    "state": "PUNJAB",
    "pincode": "144515",
    "office_type": "BO",
    "delivery": true,
    "division": "Jalandhar Division",
    "region": "Punjab West Region",
    "circle": "Punjab Circle",
    "latitude": 31.0675,
    "longitude": 76.2035
  },
  {
    "place_name": "Sheikhepur Bagh BO",
    "district": "Shahid Bhagat Singh Nagar",
    "state": "PUNJAB",
    "pincode": "144515",
    "office_type": "BO",
    "delivery": true,
    "division": "Jalandhar Division",
    "region": "Punjab West Region",
    "circle": "Punjab Circle",
    "latitude": 31.0675,
    "longitude": 76.2035
  },
  {
    "place_name": "Usmanpur BO",
    "district": "Shahid Bhagat Singh Nagar",
    "state": "PUNJAB",
    "pincode": "144515",
    "office_type": "BO",
    "delivery": true,
    "division": "Jalandhar Division",
    "region": "Punjab West Region",
    "circle": "Punjab Circle",
    "latitude": 31.0641,
    "longitude": 76.1802
  },
  {
    "place_name": "Paddi Matwali BO",
    "district": "Shahid Bhagat Singh Nagar",
    "state": "PUNJAB",
    "pincode": "144510",
    "office_type": "BO",
    "delivery": true,
    "division": "Jalandhar Division",
    "region": "Punjab West Region",
    "circle": "Punjab Circle",
    "latitude": 31.2144,
    "longitude": 76.0232
  },
  {
    "place_name": "Sanawa BO",
    "district": "Shahid Bhagat Singh Nagar",
    "state": "PUNJAB",
    "pincode": "144516",
    "office_type": "BO",
    "delivery": true,
    "division": "Jalandhar Division",
    "region": "Punjab West Region",
    "circle": "Punjab Circle",
    "latitude": 31.104,
    "longitude": 76.1682
  },
  {
    "place_name": "Sujjon BO",
    "district": "Shahid Bhagat Singh Nagar",
    "state": "PUNJAB",
    "pincode": "144506",
    "office_type": "BO",
    "delivery": true,
    "division": "Jalandhar Division",
    "region": "Punjab West Region",
    "circle": "Punjab Circle",
    "latitude": 31.1869,
    "longitude": 75.9922
  },
  {
    "place_name": "Hakimpur BO",
    "district": "Shahid Bhagat Singh Nagar",
    "state": "PUNJAB",
    "pincode": "144507",
    "office_type": "BO",
    "delivery": true,
    "division": "Jalandhar Division",
    "region": "Punjab West Region",
    "circle": "Punjab Circle",
    "latitude": 31.1186,
    "longitude": 75.9558
  },
  {
    "place_name": "Sheikhupur BO",
    "district": "JALANDHAR",
    "state": "PUNJAB",
    "pincode": "144029",
    "office_type": "BO",
    "delivery": true,
    "division": "Jalandhar Division",
    "region": "Punjab West Region",
    "circle": "Punjab Circle",
    "latitude": 31.0855,
    "longitude": 75.9167
  },
  {
    "place_name": "Kamam BO",
    "district": "Shahid Bhagat Singh Nagar",
    "state": "PUNJAB",
    "pincode": "144513",
    "office_type": "BO",
    "delivery": true,
    "division": "Jalandhar Division",
    "region": "Punjab West Region",
    "circle": "Punjab Circle",
    "latitude": 31.1343,
    "longitude": 76.046
  },
  {
    "place_name": "Rasulpur BO",
    "district": "Shahid Bhagat Singh Nagar",
    "state": "PUNJAB",
    "pincode": "144513",
    "office_type": "BO",
    "delivery": true,
    "division": "Jalandhar Division",
    "region": "Punjab West Region",
    "circle": "Punjab Circle",
    "latitude": 31.1343,
    "longitude": 76.046
  },
  {
    "place_name": "Malpur BO",
    "district": "Shahid Bhagat Singh Nagar",
    "state": "PUNJAB",
    "pincode": "144508",
    "office_type": "BO",
    "delivery": true,
    "division": "Jalandhar Division",
    "region": "Punjab West Region",
    "circle": "Punjab Circle",
    "latitude": 31.300299,
    "longitude": 75.630428
  },
  {
    "place_name": "Barnala Kalan BO",
    "district": "Shahid Bhagat Singh Nagar",
    "state": "PUNJAB",
    "pincode": "144514",
    "office_type": "BO",
    "delivery": true,
    "division": "Jalandhar Division",
    "region": "Punjab West Region",
    "circle": "Punjab Circle",
    "latitude": 31.0667,
    "longitude": 76.1667
  },
  {
    "place_name": "Kariam BO",
    "district": "Shahid Bhagat Singh Nagar",
    "state": "PUNJAB",
    "pincode": "144514",
    "office_type": "BO",
    "delivery": true,
    "division": "Jalandhar Division",
    "region": "Punjab West Region",
    "circle": "Punjab Circle",
    "latitude": 31.0667,
    "longitude": 76.1667
  },
  {
    "place_name": "Katarian BO",
    "district": "Shahid Bhagat Singh Nagar",
    "state": "PUNJAB",
    "pincode": "144503",
    "office_type": "BO",
    "delivery": true,
    "division": "Jalandhar Division",
    "region": "Punjab West Region",
    "circle": "Punjab Circle",
    "latitude": 31.2222,
    "longitude": 75.8846
  },
  {
    "place_name": "Kadiana BO",
    "district": "JALANDHAR",
    "state": "PUNJAB",
    "pincode": "144410",
    "office_type": "BO",
    "delivery": true,
    "division": "Jalandhar Division",
    "region": "Punjab West Region",
    "circle": "Punjab Circle",
    "latitude": 31.0368,
    "longitude": 75.8228
  },
  {
    "place_name": "Khaira BO",
    "district": "JALANDHAR",
    "state": "PUNJAB",
    "pincode": "144410",
    "office_type": "BO",
    "delivery": true,
    "division": "Jalandhar Division",
    "region": "Punjab West Region",
    "circle": "Punjab Circle",
    "latitude": 31.0256,
    "longitude": 75.8236
  },
  {
    "place_name": "Shahpur Bhattian BO",
    "district": "JALANDHAR",
    "state": "PUNJAB",
    "pincode": "144410",
    "office_type": "BO",
    "delivery": true,
    "division": "Jalandhar Division",
    "region": "Punjab West Region",
    "circle": "Punjab Circle",
    "latitude": 31.0369,
    "longitude": 75.8239
  },
  {
    "place_name": "Ghataron BO",
    "district": "Shahid Bhagat Singh Nagar",
    "state": "PUNJAB",
    "pincode": "144421",
    "office_type": "BO",
    "delivery": true,
    "division": "Jalandhar Division",
    "region": "Punjab West Region",
    "circle": "Punjab Circle",
    "latitude": 31.1005,
    "longitude": 76.0377
  },
  {
    "place_name": "Dhina BO",
    "district": "JALANDHAR",
    "state": "PUNJAB",
    "pincode": "144005",
    "office_type": "BO",
    "delivery": false,
    "division": "Jalandhar Division",
    "region": "Punjab West Region",
    "circle": "Punjab Circle",
    "latitude": 31.300299,
    "longitude": 75.630428
  },
  {
    "place_name": "Kandola BO",
    "district": "JALANDHAR",
    "state": "PUNJAB",
    "pincode": "144103",
    "office_type": "BO",
    "delivery": true,
    "division": "Jalandhar Division",
    "region": "Punjab West Region",
    "circle": "Punjab Circle",
    "latitude": 31.4236,
    "longitude": 75.7569
  },
  {
    "place_name": "Chuharwali BO",
    "district": "JALANDHAR",
    "state": "PUNJAB",
    "pincode": "144102",
    "office_type": "BO",
    "delivery": true,
    "division": "Jalandhar Division",
    "region": "Punjab West Region",
    "circle": "Punjab Circle",
    "latitude": 31.3875,
    "longitude": 75.2456
  },
  {
    "place_name": "Jalbhe BO",
    "district": "JALANDHAR",
    "state": "PUNJAB",
    "pincode": "144106",
    "office_type": "BO",
    "delivery": true,
    "division": "Jalandhar Division",
    "region": "Punjab West Region",
    "circle": "Punjab Circle",
    "latitude": 31.4736,
    "longitude": 75.7577
  },
  {
    "place_name": "Manko BO",
    "district": "JALANDHAR",
    "state": "PUNJAB",
    "pincode": "144106",
    "office_type": "BO",
    "delivery": true,
    "division": "Jalandhar Division",
    "region": "Punjab West Region",
    "circle": "Punjab Circle",
    "latitude": 31.4736,
    "longitude": 75.7678
  },
  {
    "place_name": "Naugajja BO",
    "district": "JALANDHAR",
    "state": "PUNJAB",
    "pincode": "144301",
    "office_type": "BO",
    "delivery": true,
    "division": "Jalandhar Division",
    "region": "Punjab West Region",
    "circle": "Punjab Circle",
    "latitude": 31.4346,
    "longitude": 75.6498
  },
  {
    "place_name": "Dhaliwal BO",
    "district": "JALANDHAR",
    "state": "PUNJAB",
    "pincode": "144002",
    "office_type": "BO",
    "delivery": true,
    "division": "Jalandhar Division",
    "region": "Punjab West Region",
    "circle": "Punjab Circle",
    "latitude": 31.37426,
    "longitude": 75.512
  },
  {
    "place_name": "Kohala BO",
    "district": "JALANDHAR",
    "state": "PUNJAB",
    "pincode": "144002",
    "office_type": "BO",
    "delivery": true,
    "division": "Jalandhar Division",
    "region": "Punjab West Region",
    "circle": "Punjab Circle",
    "latitude": 31.3742,
    "longitude": 75.5122
  },
  {
    "place_name": "Dolike Sunderpur BO",
    "district": "JALANDHAR",
    "state": "PUNJAB",
    "pincode": "144302",
    "office_type": "BO",
    "delivery": true,
    "division": "Jalandhar Division",
    "region": "Punjab West Region",
    "circle": "Punjab Circle",
    "latitude": 30.9987,
    "longitude": 75.1651
  },
  {
    "place_name": "Duhre BO",
    "district": "JALANDHAR",
    "state": "PUNJAB",
    "pincode": "144302",
    "office_type": "BO",
    "delivery": true,
    "division": "Jalandhar Division",
    "region": "Punjab West Region",
    "circle": "Punjab Circle",
    "latitude": 31.1141,
    "longitude": 75.1652
  },
  {
    "place_name": "Binpalke BO",
    "district": "JALANDHAR",
    "state": "PUNJAB",
    "pincode": "144201",
    "office_type": "BO",
    "delivery": true,
    "division": "Jalandhar Division",
    "region": "Punjab West Region",
    "circle": "Punjab Circle",
    "latitude": 31.3263,
    "longitude": 75.5762
  },
  {
    "place_name": "Manakrai BO",
    "district": "JALANDHAR",
    "state": "PUNJAB",
    "pincode": "144201",
    "office_type": "BO",
    "delivery": true,
    "division": "Jalandhar Division",
    "region": "Punjab West Region",
    "circle": "Punjab Circle",
    "latitude": 31.3265,
    "longitude": 75.5765
  },
  {
    "place_name": "Sanaura BO",
    "district": "JALANDHAR",
    "state": "PUNJAB",
    "pincode": "144201",
    "office_type": "BO",
    "delivery": true,
    "division": "Jalandhar Division",
    "region": "Punjab West Region",
    "circle": "Punjab Circle",
    "latitude": 31.3269,
    "longitude": 75.5769
  },
  {
    "place_name": "Lidhran BO",
    "district": "JALANDHAR",
    "state": "PUNJAB",
    "pincode": "144008",
    "office_type": "BO",
    "delivery": false,
    "division": "Jalandhar Division",
    "region": "Punjab West Region",
    "circle": "Punjab Circle",
    "latitude": 31.3203,
    "longitude": 75.5908
  },
  {
    "place_name": "Nussi BO",
    "district": "JALANDHAR",
    "state": "PUNJAB",
    "pincode": "144008",
    "office_type": "BO",
    "delivery": false,
    "division": "Jalandhar Division",
    "region": "Punjab West Region",
    "circle": "Punjab Circle",
    "latitude": 31.3256,
    "longitude": 75.5915
  },
  {
    "place_name": "Hazara BO",
    "district": "JALANDHAR",
    "state": "PUNJAB",
    "pincode": "144025",
    "office_type": "BO",
    "delivery": true,
    "division": "Jalandhar Division",
    "region": "Punjab West Region",
    "circle": "Punjab Circle",
    "latitude": 31.384,
    "longitude": 75.639
  },
  {
    "place_name": "Jaitewali BO",
    "district": "JALANDHAR",
    "state": "PUNJAB",
    "pincode": "144025",
    "office_type": "BO",
    "delivery": true,
    "division": "Jalandhar Division",
    "region": "Punjab West Region",
    "circle": "Punjab Circle",
    "latitude": 31.384,
    "longitude": 75.6312
  },
  {
    "place_name": "Sheikhe Pind BO",
    "district": "JALANDHAR",
    "state": "PUNJAB",
    "pincode": "144025",
    "office_type": "BO",
    "delivery": true,
    "division": "Jalandhar Division",
    "region": "Punjab West Region",
    "circle": "Punjab Circle",
    "latitude": 31.3835,
    "longitude": 75.639
  },
  {
    "place_name": "Jallowal BO",
    "district": "JALANDHAR",
    "state": "PUNJAB",
    "pincode": "144303",
    "office_type": "BO",
    "delivery": true,
    "division": "Jalandhar Division",
    "region": "Punjab West Region",
    "circle": "Punjab Circle",
    "latitude": 31.4328,
    "longitude": 75.6508
  },
  {
    "place_name": "Kandhala Guru BO",
    "district": "JALANDHAR",
    "state": "PUNJAB",
    "pincode": "144303",
    "office_type": "BO",
    "delivery": true,
    "division": "Jalandhar Division",
    "region": "Punjab West Region",
    "circle": "Punjab Circle",
    "latitude": 31.4328,
    "longitude": 75.6508
  },
  {
    "place_name": "Khambra BO",
    "district": "JALANDHAR",
    "state": "PUNJAB",
    "pincode": "144026",
    "office_type": "BO",
    "delivery": true,
    "division": "Jalandhar Division",
    "region": "Punjab West Region",
    "circle": "Punjab Circle",
    "latitude": 31.3534,
    "longitude": 75.6171
  },
  {
    "place_name": "Malko Tarar BO",
    "district": "JALANDHAR",
    "state": "PUNJAB",
    "pincode": "144026",
    "office_type": "BO",
    "delivery": true,
    "division": "Jalandhar Division",
    "region": "Punjab West Region",
    "circle": "Punjab Circle",
    "latitude": 31.3524,
    "longitude": 75.6171
  },
  {
    "place_name": "Phoolpur Dhanal BO",
    "district": "JALANDHAR",
    "state": "PUNJAB",
    "pincode": "144026",
    "office_type": "BO",
    "delivery": true,
    "division": "Jalandhar Division",
    "region": "Punjab West Region",
    "circle": "Punjab Circle",
    "latitude": 31.3524,
    "longitude": 75.6171
  },
  {
    "place_name": "Samipur BO",
    "district": "JALANDHAR",
    "state": "PUNJAB",
    "pincode": "144026",
    "office_type": "BO",
    "delivery": true,
    "division": "Jalandhar Division",
    "region": "Punjab West Region",
    "circle": "Punjab Circle",
    "latitude": 31.3524,
    "longitude": 75.6171
  },
  {
    "place_name": "Khurla BO",
    "district": "JALANDHAR",
    "state": "PUNJAB",
    "pincode": "144001",
    "office_type": "BO",
    "delivery": false,
    "division": "Jalandhar Division",
    "region": "Punjab West Region",
    "circle": "Punjab Circle",
    "latitude": 31.3384,
    "longitude": 75.3531
  },
  {
    "place_name": "Kotli Than Singh BO",
    "district": "JALANDHAR",
    "state": "PUNJAB",
    "pincode": "144101",
    "office_type": "BO",
    "delivery": true,
    "division": "Jalandhar Division",
    "region": "Punjab West Region",
    "circle": "Punjab Circle",
    "latitude": 31.3404,
    "longitude": 75.6717
  },
  {
    "place_name": "Gohir BO",
    "district": "JALANDHAR",
    "state": "PUNJAB",
    "pincode": "144630",
    "office_type": "BO",
    "delivery": true,
    "division": "Kapurthala Division",
    "region": "Punjab West Region",
    "circle": "Punjab Circle",
    "latitude": 31.1743,
    "longitude": 75.4817
  },
  {
    "place_name": "Dhaliwal Bet BO",
    "district": "KAPURTHALA",
    "state": "PUNJAB",
    "pincode": "144804",
    "office_type": "BO",
    "delivery": true,
    "division": "Kapurthala Division",
    "region": "Punjab West Region",
    "circle": "Punjab Circle",
    "latitude": 31.1684383,
    "longitude": 75.5938799
  },
  {
    "place_name": "Muddowal BO",
    "district": "KAPURTHALA",
    "state": "PUNJAB",
    "pincode": "144802",
    "office_type": "BO",
    "delivery": true,
    "division": "Kapurthala Division",
    "region": "Punjab West Region",
    "circle": "Punjab Circle",
    "latitude": 31.5423317,
    "longitude": 75.5058241
  },
  {
    "place_name": "Ramidi BO",
    "district": "KAPURTHALA",
    "state": "PUNJAB",
    "pincode": "144802",
    "office_type": "BO",
    "delivery": true,
    "division": "Kapurthala Division",
    "region": "Punjab West Region",
    "circle": "Punjab Circle",
    "latitude": 31.4770717,
    "longitude": 75.3944033
  },
  {
    "place_name": "Kanjli BO",
    "district": "KAPURTHALA",
    "state": "PUNJAB",
    "pincode": "144802",
    "office_type": "BO",
    "delivery": true,
    "division": "Kapurthala Division",
    "region": "Punjab West Region",
    "circle": "Punjab Circle",
    "latitude": 31.3909666,
    "longitude": 75.3910154
  },
  {
    "place_name": "Talwandi Saleem BO",
    "district": "JALANDHAR",
    "state": "PUNJAB",
    "pincode": "144623",
    "office_type": "BO",
    "delivery": true,
    "division": "Kapurthala Division",
    "region": "Punjab West Region",
    "circle": "Punjab Circle",
    "latitude": 31.26957,
    "longitude": 75.40631
  },
  {
    "place_name": "Bara Jodh Singh BO",
    "district": "JALANDHAR",
    "state": "PUNJAB",
    "pincode": "144629",
    "office_type": "BO",
    "delivery": true,
    "division": "Kapurthala Division",
    "region": "Punjab West Region",
    "circle": "Punjab Circle",
    "latitude": 31.0919,
    "longitude": 75.3178
  },
  {
    "place_name": "Kang Khurd BO",
    "district": "JALANDHAR",
    "state": "PUNJAB",
    "pincode": "144629",
    "office_type": "BO",
    "delivery": true,
    "division": "Kapurthala Division",
    "region": "Punjab West Region",
    "circle": "Punjab Circle",
    "latitude": 31.0444409,
    "longitude": 75.7127738
  },
  {
    "place_name": "Turna BO",
    "district": "JALANDHAR",
    "state": "PUNJAB",
    "pincode": "144629",
    "office_type": "BO",
    "delivery": true,
    "division": "Kapurthala Division",
    "region": "Punjab West Region",
    "circle": "Punjab Circle",
    "latitude": 31.0444409,
    "longitude": 75.7127738
  },
  {
    "place_name": "Yusufpur Darewal BO",
    "district": "JALANDHAR",
    "state": "PUNJAB",
    "pincode": "144629",
    "office_type": "BO",
    "delivery": true,
    "division": "Kapurthala Division",
    "region": "Punjab West Region",
    "circle": "Punjab Circle",
    "latitude": 31.0444409,
    "longitude": 75.7127738
  },
  {
    "place_name": "Nihaluwal BO",
    "district": "JALANDHAR",
    "state": "PUNJAB",
    "pincode": "144701",
    "office_type": "BO",
    "delivery": true,
    "division": "Kapurthala Division",
    "region": "Punjab West Region",
    "circle": "Punjab Circle",
    "latitude": 31.125809,
    "longitude": 75.473291
  },
  {
    "place_name": "Akbarpur Kalan BO",
    "district": "JALANDHAR",
    "state": "PUNJAB",
    "pincode": "144041",
    "office_type": "BO",
    "delivery": true,
    "division": "Kapurthala Division",
    "region": "Punjab West Region",
    "circle": "Punjab Circle",
    "latitude": 31.52747,
    "longitude": 75.8066
  },
  {
    "place_name": "Bulanda BO",
    "district": "JALANDHAR",
    "state": "PUNJAB",
    "pincode": "144041",
    "office_type": "BO",
    "delivery": true,
    "division": "Kapurthala Division",
    "region": "Punjab West Region",
    "circle": "Punjab Circle",
    "latitude": 31.52747,
    "longitude": 75.8066
  },
  {
    "place_name": "Singhpur BO",
    "district": "JALANDHAR",
    "state": "PUNJAB",
    "pincode": "144041",
    "office_type": "BO",
    "delivery": true,
    "division": "Kapurthala Division",
    "region": "Punjab West Region",
    "circle": "Punjab Circle",
    "latitude": 31.125808,
    "longitude": 75.473292
  },
  {
    "place_name": "Bhullar BO",
    "district": "JALANDHAR",
    "state": "PUNJAB",
    "pincode": "144040",
    "office_type": "BO",
    "delivery": true,
    "division": "Kapurthala Division",
    "region": "Punjab West Region",
    "circle": "Punjab Circle",
    "latitude": 31.1449,
    "longitude": 75.4852
  },
  {
    "place_name": "Nawanpind Jattan BO",
    "district": "JALANDHAR",
    "state": "PUNJAB",
    "pincode": "144040",
    "office_type": "BO",
    "delivery": true,
    "division": "Kapurthala Division",
    "region": "Punjab West Region",
    "circle": "Punjab Circle",
    "latitude": 31.1449,
    "longitude": 75.4852
  },
  {
    "place_name": "Pandori Khas BO",
    "district": "JALANDHAR",
    "state": "PUNJAB",
    "pincode": "144040",
    "office_type": "BO",
    "delivery": true,
    "division": "Kapurthala Division",
    "region": "Punjab West Region",
    "circle": "Punjab Circle",
    "latitude": 31.1449,
    "longitude": 75.4852
  },
  {
    "place_name": "Sadiqpur BO",
    "district": "JALANDHAR",
    "state": "PUNJAB",
    "pincode": "144703",
    "office_type": "BO",
    "delivery": true,
    "division": "Kapurthala Division",
    "region": "Punjab West Region",
    "circle": "Punjab Circle",
    "latitude": 31.125808,
    "longitude": 75.473292
  },
  {
    "place_name": "Sindher BO",
    "district": "JALANDHAR",
    "state": "PUNJAB",
    "pincode": "144702",
    "office_type": "BO",
    "delivery": true,
    "division": "Kapurthala Division",
    "region": "Punjab West Region",
    "circle": "Punjab Circle",
    "latitude": 31.374927,
    "longitude": 75.384209
  },
  {
    "place_name": "Sherpur Dona BO",
    "district": "KAPURTHALA",
    "state": "PUNJAB",
    "pincode": "144626",
    "office_type": "BO",
    "delivery": true,
    "division": "Kapurthala Division",
    "region": "Punjab West Region",
    "circle": "Punjab Circle",
    "latitude": 31.19524,
    "longitude": 75.1263
  },
  {
    "place_name": "Khiranwali BO",
    "district": "KAPURTHALA",
    "state": "PUNJAB",
    "pincode": "144606",
    "office_type": "BO",
    "delivery": true,
    "division": "Kapurthala Division",
    "region": "Punjab West Region",
    "circle": "Punjab Circle",
    "latitude": 31.37493,
    "longitude": 75.384206
  },
  {
    "place_name": "Nasirpur BO",
    "district": "KAPURTHALA",
    "state": "PUNJAB",
    "pincode": "144628",
    "office_type": "BO",
    "delivery": true,
    "division": "Kapurthala Division",
    "region": "Punjab West Region",
    "circle": "Punjab Circle",
    "latitude": 31.374928,
    "longitude": 75.384208
  },
  {
    "place_name": "Tibba BO",
    "district": "KAPURTHALA",
    "state": "PUNJAB",
    "pincode": "144628",
    "office_type": "BO",
    "delivery": true,
    "division": "Kapurthala Division",
    "region": "Punjab West Region",
    "circle": "Punjab Circle",
    "latitude": 31.41945,
    "longitude": 75.35345
  },
  {
    "place_name": "Wadala Kalan BO",
    "district": "KAPURTHALA",
    "state": "PUNJAB",
    "pincode": "144603",
    "office_type": "BO",
    "delivery": true,
    "division": "Kapurthala Division",
    "region": "Punjab West Region",
    "circle": "Punjab Circle",
    "latitude": 31.38345,
    "longitude": 75.32705
  },
  {
    "place_name": "Baler Khanpur BO",
    "district": "KAPURTHALA",
    "state": "PUNJAB",
    "pincode": "144603",
    "office_type": "BO",
    "delivery": true,
    "division": "Kapurthala Division",
    "region": "Punjab West Region",
    "circle": "Punjab Circle",
    "latitude": 31.38345,
    "longitude": 75.32705
  },
  {
    "place_name": "Pabwan BO",
    "district": "JALANDHAR",
    "state": "PUNJAB",
    "pincode": "144034",
    "office_type": "BO",
    "delivery": true,
    "division": "Kapurthala Division",
    "region": "Punjab West Region",
    "circle": "Punjab Circle",
    "latitude": 31.217806,
    "longitude": 75.769394
  },
  {
    "place_name": "Mehli BO",
    "district": "Shahid Bhagat Singh Nagar",
    "state": "PUNJAB",
    "pincode": "144632",
    "office_type": "BO",
    "delivery": true,
    "division": "Kapurthala Division",
    "region": "Punjab West Region",
    "circle": "Punjab Circle",
    "latitude": 31.2227913,
    "longitude": 75.7764331
  },
  {
    "place_name": "Rehana Jattan BO",
    "district": "KAPURTHALA",
    "state": "PUNJAB",
    "pincode": "144407",
    "office_type": "BO",
    "delivery": true,
    "division": "Kapurthala Division",
    "region": "Punjab West Region",
    "circle": "Punjab Circle",
    "latitude": 31.34097,
    "longitude": 75.79195
  },
  {
    "place_name": "Chak Vendal BO",
    "district": "JALANDHAR",
    "state": "PUNJAB",
    "pincode": "144033",
    "office_type": "BO",
    "delivery": true,
    "division": "Kapurthala Division",
    "region": "Punjab West Region",
    "circle": "Punjab Circle",
    "latitude": 31.238182,
    "longitude": 76.488107
  },
  {
    "place_name": "Barn BO",
    "district": "KAPURTHALA",
    "state": "PUNJAB",
    "pincode": "144403",
    "office_type": "BO",
    "delivery": true,
    "division": "Kapurthala Division",
    "region": "Punjab West Region",
    "circle": "Punjab Circle",
    "latitude": 31.29515,
    "longitude": 75.73451
  },
  {
    "place_name": "Daduwal BO",
    "district": "JALANDHAR",
    "state": "PUNJAB",
    "pincode": "144032",
    "office_type": "BO",
    "delivery": true,
    "division": "Kapurthala Division",
    "region": "Punjab West Region",
    "circle": "Punjab Circle",
    "latitude": 31.2069036,
    "longitude": 75.6723245
  },
  {
    "place_name": "Dhanipind BO",
    "district": "JALANDHAR",
    "state": "PUNJAB",
    "pincode": "144633",
    "office_type": "BO",
    "delivery": true,
    "division": "Kapurthala Division",
    "region": "Punjab West Region",
    "circle": "Punjab Circle",
    "latitude": 31.1778861,
    "longitude": 75.6576652
  },
  {
    "place_name": "Lakhanpal BO",
    "district": "JALANDHAR",
    "state": "PUNJAB",
    "pincode": "144633",
    "office_type": "BO",
    "delivery": true,
    "division": "Kapurthala Division",
    "region": "Punjab West Region",
    "circle": "Punjab Circle",
    "latitude": 31.18494,
    "longitude": 75.72812
  },
  {
    "place_name": "Tahli BO",
    "district": "JALANDHAR",
    "state": "PUNJAB",
    "pincode": "144043",
    "office_type": "BO",
    "delivery": true,
    "division": "Kapurthala Division",
    "region": "Punjab West Region",
    "circle": "Punjab Circle",
    "latitude": 31.217805,
    "longitude": 75.769395
  },
  {
    "place_name": "Handesera BO",
    "district": "S.A.S Nagar",
    "state": "PUNJAB",
    "pincode": "140501",
    "office_type": "BO",
    "delivery": true,
    "division": "Chandigarh Division",
    "region": "DivReportingCircle",
    "circle": "Punjab Circle",
    "latitude": 30.692051,
    "longitude": 76.69841
  },
  {
    "place_name": "Jauli BO",
    "district": "S.A.S Nagar",
    "state": "PUNJAB",
    "pincode": "140501",
    "office_type": "BO",
    "delivery": true,
    "division": "Chandigarh Division",
    "region": "DivReportingCircle",
    "circle": "Punjab Circle",
    "latitude": 30.692051,
    "longitude": 76.69841
  },
  {
    "place_name": "Rani Majra BO",
    "district": "S.A.S Nagar",
    "state": "PUNJAB",
    "pincode": "140501",
    "office_type": "BO",
    "delivery": true,
    "division": "Chandigarh Division",
    "region": "DivReportingCircle",
    "circle": "Punjab Circle",
    "latitude": 30.692051,
    "longitude": 76.69841
  },
  {
    "place_name": "Samgoli BO",
    "district": "S.A.S Nagar",
    "state": "PUNJAB",
    "pincode": "140501",
    "office_type": "BO",
    "delivery": true,
    "division": "Chandigarh Division",
    "region": "DivReportingCircle",
    "circle": "Punjab Circle",
    "latitude": 30.692051,
    "longitude": 76.69841
  },
  {
    "place_name": "Tiwana BO",
    "district": "S.A.S Nagar",
    "state": "PUNJAB",
    "pincode": "140501",
    "office_type": "BO",
    "delivery": true,
    "division": "Chandigarh Division",
    "region": "DivReportingCircle",
    "circle": "Punjab Circle",
    "latitude": 30.692051,
    "longitude": 76.69841
  },
  {
    "place_name": "Khelan BO",
    "district": "S.A.S Nagar",
    "state": "PUNJAB",
    "pincode": "140501",
    "office_type": "BO",
    "delivery": true,
    "division": "Chandigarh Division",
    "region": "DivReportingCircle",
    "circle": "Punjab Circle",
    "latitude": 30.692051,
    "longitude": 76.69841
  },
  {
    "place_name": "Dayalpur Sodhian BO",
    "district": "S.A.S Nagar",
    "state": "PUNJAB",
    "pincode": "140603",
    "office_type": "BO",
    "delivery": true,
    "division": "Chandigarh Division",
    "region": "DivReportingCircle",
    "circle": "Punjab Circle",
    "latitude": 30.692051,
    "longitude": 76.69841
  },
  {
    "place_name": "Bazidpur BO",
    "district": "RUPNAGAR",
    "state": "PUNJAB",
    "pincode": "140111",
    "office_type": "BO",
    "delivery": true,
    "division": "Chandigarh Division",
    "region": "DivReportingCircle",
    "circle": "Punjab Circle",
    "latitude": 30.692051,
    "longitude": 76.69841
  },
  {
    "place_name": "Jatana BO",
    "district": "RUPNAGAR",
    "state": "PUNJAB",
    "pincode": "140111",
    "office_type": "BO",
    "delivery": true,
    "division": "Chandigarh Division",
    "region": "DivReportingCircle",
    "circle": "Punjab Circle",
    "latitude": 30.7573,
    "longitude": 76.3715277
  },
  {
    "place_name": "Kalitran BO",
    "district": "RUPNAGAR",
    "state": "PUNJAB",
    "pincode": "140133",
    "office_type": "BO",
    "delivery": true,
    "division": "Chandigarh Division",
    "region": "DivReportingCircle",
    "circle": "Punjab Circle",
    "latitude": 30.9666111,
    "longitude": 76.3715277
  },
  {
    "place_name": "Bhallan B.O",
    "district": "RUPNAGAR",
    "state": "PUNJAB",
    "pincode": "140127",
    "office_type": "BO",
    "delivery": true,
    "division": "Chandigarh Division",
    "region": "DivReportingCircle",
    "circle": "Punjab Circle",
    "latitude": 30.9666111,
    "longitude": 76.3715277
  },
  {
    "place_name": "Mojowal BO",
    "district": "RUPNAGAR",
    "state": "PUNJAB",
    "pincode": "140126",
    "office_type": "BO",
    "delivery": true,
    "division": "Chandigarh Division",
    "region": "DivReportingCircle",
    "circle": "Punjab Circle",
    "latitude": 30.9666111,
    "longitude": 76.3715277
  },
  {
    "place_name": "Lodhi Majra BO",
    "district": "RUPNAGAR",
    "state": "PUNJAB",
    "pincode": "140113",
    "office_type": "BO",
    "delivery": true,
    "division": "Chandigarh Division",
    "region": "DivReportingCircle",
    "circle": "Punjab Circle",
    "latitude": 30.9666111,
    "longitude": 76.3715277
  },
  {
    "place_name": "Bassian Brahman BO",
    "district": "S.A.S Nagar",
    "state": "PUNJAB",
    "pincode": "140413",
    "office_type": "BO",
    "delivery": true,
    "division": "Chandigarh Division",
    "region": "DivReportingCircle",
    "circle": "Punjab Circle",
    "latitude": 30.9666111,
    "longitude": 76.3715277
  },
  {
    "place_name": "Palheri BO",
    "district": "S.A.S Nagar",
    "state": "PUNJAB",
    "pincode": "140301",
    "office_type": "BO",
    "delivery": true,
    "division": "Chandigarh Division",
    "region": "DivReportingCircle",
    "circle": "Punjab Circle",
    "latitude": 30.9666111,
    "longitude": 76.3715277
  },
  {
    "place_name": "Jhinjari BO",
    "district": "RUPNAGAR",
    "state": "PUNJAB",
    "pincode": "140116",
    "office_type": "BO",
    "delivery": true,
    "division": "Chandigarh Division",
    "region": "DivReportingCircle",
    "circle": "Punjab Circle",
    "latitude": 30.9666111,
    "longitude": 76.3715277
  },
  {
    "place_name": "Allahpur BO",
    "district": "S.A.S Nagar",
    "state": "PUNJAB",
    "pincode": "140103",
    "office_type": "BO",
    "delivery": true,
    "division": "Chandigarh Division",
    "region": "DivReportingCircle",
    "circle": "Punjab Circle",
    "latitude": 30.9666111,
    "longitude": 76.3715277
  },
  {
    "place_name": "Burmajra BO",
    "district": "S.A.S Nagar",
    "state": "PUNJAB",
    "pincode": "140103",
    "office_type": "BO",
    "delivery": true,
    "division": "Chandigarh Division",
    "region": "DivReportingCircle",
    "circle": "Punjab Circle",
    "latitude": 30.9666111,
    "longitude": 76.3715277
  },
  {
    "place_name": "Kaishanpura BO",
    "district": "S.A.S Nagar",
    "state": "PUNJAB",
    "pincode": "140103",
    "office_type": "BO",
    "delivery": true,
    "division": "Chandigarh Division",
    "region": "DivReportingCircle",
    "circle": "Punjab Circle",
    "latitude": 30.9666111,
    "longitude": 76.3715277
  },
  {
    "place_name": "Sotal BO",
    "district": "S.A.S Nagar",
    "state": "PUNJAB",
    "pincode": "140103",
    "office_type": "BO",
    "delivery": true,
    "division": "Chandigarh Division",
    "region": "DivReportingCircle",
    "circle": "Punjab Circle",
    "latitude": 30.9666111,
    "longitude": 76.3715277
  },
  {
    "place_name": "Chudiala Sudan BO",
    "district": "S.A.S Nagar",
    "state": "PUNJAB",
    "pincode": "140307",
    "office_type": "BO",
    "delivery": true,
    "division": "Chandigarh Division",
    "region": "DivReportingCircle",
    "circle": "Punjab Circle",
    "latitude": 30.9666111,
    "longitude": 76.3715277
  },
  {
    "place_name": "Majatri BO",
    "district": "S.A.S Nagar",
    "state": "PUNJAB",
    "pincode": "140307",
    "office_type": "BO",
    "delivery": true,
    "division": "Chandigarh Division",
    "region": "DivReportingCircle",
    "circle": "Punjab Circle",
    "latitude": 30.9666111,
    "longitude": 76.3715277
  },
  {
    "place_name": "Rasanheri BO",
    "district": "S.A.S Nagar",
    "state": "PUNJAB",
    "pincode": "140307",
    "office_type": "BO",
    "delivery": true,
    "division": "Chandigarh Division",
    "region": "DivReportingCircle",
    "circle": "Punjab Circle",
    "latitude": 30.9666111,
    "longitude": 76.3715277
  },
  {
    "place_name": "Samana Kalan BO",
    "district": "RUPNAGAR",
    "state": "PUNJAB",
    "pincode": "140102",
    "office_type": "BO",
    "delivery": true,
    "division": "Chandigarh Division",
    "region": "DivReportingCircle",
    "circle": "Punjab Circle",
    "latitude": 30.692051,
    "longitude": 76.69841
  },
  {
    "place_name": "Nangal Nikku BO",
    "district": "RUPNAGAR",
    "state": "PUNJAB",
    "pincode": "140124",
    "office_type": "BO",
    "delivery": true,
    "division": "Chandigarh Division",
    "region": "DivReportingCircle",
    "circle": "Punjab Circle",
    "latitude": 30.692051,
    "longitude": 76.69841
  },
  {
    "place_name": "Nangal Talwara BO",
    "district": "RUPNAGAR",
    "state": "PUNJAB",
    "pincode": "140124",
    "office_type": "BO",
    "delivery": true,
    "division": "Chandigarh Division",
    "region": "DivReportingCircle",
    "circle": "Punjab Circle",
    "latitude": 30.692051,
    "longitude": 76.69841
  },
  {
    "place_name": "Katta Sabour B.O",
    "district": "RUPNAGAR",
    "state": "PUNJAB",
    "pincode": "140128",
    "office_type": "BO",
    "delivery": true,
    "division": "Chandigarh Division",
    "region": "DivReportingCircle",
    "circle": "Punjab Circle",
    "latitude": 30.9666111,
    "longitude": 76.3715277
  },
  {
    "place_name": "Bandelhari BO",
    "district": "RUPNAGAR",
    "state": "PUNJAB",
    "pincode": "140125",
    "office_type": "BO",
    "delivery": true,
    "division": "Chandigarh Division",
    "region": "DivReportingCircle",
    "circle": "Punjab Circle",
    "latitude": 30.692051,
    "longitude": 76.69841
  },
  {
    "place_name": "Kumbra BO",
    "district": "S.A.S Nagar",
    "state": "PUNJAB",
    "pincode": "140308",
    "office_type": "BO",
    "delivery": true,
    "division": "Chandigarh Division",
    "region": "DivReportingCircle",
    "circle": "Punjab Circle",
    "latitude": 30.692051,
    "longitude": 76.69841
  },
  {
    "place_name": "Mauli Baidwan BO",
    "district": "S.A.S Nagar",
    "state": "PUNJAB",
    "pincode": "140308",
    "office_type": "BO",
    "delivery": true,
    "division": "Chandigarh Division",
    "region": "DivReportingCircle",
    "circle": "Punjab Circle",
    "latitude": 30.692051,
    "longitude": 76.69841
  },
  {
    "place_name": "Bajrur BO",
    "district": "RUPNAGAR",
    "state": "PUNJAB",
    "pincode": "140119",
    "office_type": "BO",
    "delivery": true,
    "division": "Chandigarh Division",
    "region": "DivReportingCircle",
    "circle": "Punjab Circle",
    "latitude": 30.692051,
    "longitude": 76.69841
  },
  {
    "place_name": "Boothgarh BO",
    "district": "LUDHIANA",
    "state": "PUNJAB",
    "pincode": "141007",
    "office_type": "BO",
    "delivery": true,
    "division": "Ludhiana City Division",
    "region": "DivReportingCircle",
    "circle": "Punjab Circle",
    "latitude": 30.98,
    "longitude": 75.95
  },
  {
    "place_name": "Mattewara BO",
    "district": "LUDHIANA",
    "state": "PUNJAB",
    "pincode": "141007",
    "office_type": "BO",
    "delivery": true,
    "division": "Ludhiana City Division",
    "region": "DivReportingCircle",
    "circle": "Punjab Circle",
    "latitude": 30.98,
    "longitude": 75.98
  },
  {
    "place_name": "Nathowal BO",
    "district": "LUDHIANA",
    "state": "PUNJAB",
    "pincode": "142032",
    "office_type": "BO",
    "delivery": true,
    "division": "Ludhiana Moffusil Division",
    "region": "DivReportingCircle",
    "circle": "Punjab Circle",
    "latitude": 30.612156,
    "longitude": 75.511656
  },
  {
    "place_name": "Dhatt BO",
    "district": "LUDHIANA",
    "state": "PUNJAB",
    "pincode": "141101",
    "office_type": "BO",
    "delivery": true,
    "division": "Ludhiana Moffusil Division",
    "region": "DivReportingCircle",
    "circle": "Punjab Circle",
    "latitude": 29.72456,
    "longitude": 75.6697667
  },
  {
    "place_name": "Jangpura BO",
    "district": "LUDHIANA",
    "state": "PUNJAB",
    "pincode": "141101",
    "office_type": "BO",
    "delivery": true,
    "division": "Ludhiana Moffusil Division",
    "region": "DivReportingCircle",
    "circle": "Punjab Circle",
    "latitude": 28.582103,
    "longitude": 77.248525
  },
  {
    "place_name": "Pandori BO",
    "district": "LUDHIANA",
    "state": "PUNJAB",
    "pincode": "141101",
    "office_type": "BO",
    "delivery": true,
    "division": "Ludhiana Moffusil Division",
    "region": "DivReportingCircle",
    "circle": "Punjab Circle",
    "latitude": 33.094868,
    "longitude": 73.617562
  },
  {
    "place_name": "Gahaur BO",
    "district": "LUDHIANA",
    "state": "PUNJAB",
    "pincode": "141102",
    "office_type": "BO",
    "delivery": true,
    "division": "Ludhiana Moffusil Division",
    "region": "DivReportingCircle",
    "circle": "Punjab Circle",
    "latitude": 30.869803,
    "longitude": 75.720431
  },
  {
    "place_name": "Attiana BO",
    "district": "LUDHIANA",
    "state": "PUNJAB",
    "pincode": "141107",
    "office_type": "BO",
    "delivery": true,
    "division": "Ludhiana Moffusil Division",
    "region": "DivReportingCircle",
    "circle": "Punjab Circle",
    "latitude": 30.752087,
    "longitude": 75.858119
  },
  {
    "place_name": "Barhmi BO",
    "district": "LUDHIANA",
    "state": "PUNJAB",
    "pincode": "141107",
    "office_type": "BO",
    "delivery": true,
    "division": "Ludhiana Moffusil Division",
    "region": "DivReportingCircle",
    "circle": "Punjab Circle",
    "latitude": 30.675492,
    "longitude": 75.621161
  },
  {
    "place_name": "Bhatta Dhahan BO",
    "district": "LUDHIANA",
    "state": "PUNJAB",
    "pincode": "141110",
    "office_type": "BO",
    "delivery": true,
    "division": "Ludhiana Moffusil Division",
    "region": "DivReportingCircle",
    "circle": "Punjab Circle",
    "latitude": 26.897615,
    "longitude": 75.830189
  },
  {
    "place_name": "GHUMNEWAL B.O",
    "district": "LUDHIANA",
    "state": "PUNJAB",
    "pincode": "141110",
    "office_type": "BO",
    "delivery": true,
    "division": "Ludhiana Moffusil Division",
    "region": "DivReportingCircle",
    "circle": "Punjab Circle",
    "latitude": 30.907711,
    "longitude": 75.650964
  },
  {
    "place_name": "Rasulpur BO",
    "district": "LUDHIANA",
    "state": "PUNJAB",
    "pincode": "142035",
    "office_type": "BO",
    "delivery": true,
    "division": "Ludhiana Moffusil Division",
    "region": "DivReportingCircle",
    "circle": "Punjab Circle",
    "latitude": 23.18401,
    "longitude": 88.030195
  },
  {
    "place_name": "Leel BO",
    "district": "LUDHIANA",
    "state": "PUNJAB",
    "pincode": "141108",
    "office_type": "BO",
    "delivery": true,
    "division": "Ludhiana Moffusil Division",
    "region": "DivReportingCircle",
    "circle": "Punjab Circle",
    "latitude": 31.150573,
    "longitude": 75.578612
  },
  {
    "place_name": "Nangal Khurd BO",
    "district": "LUDHIANA",
    "state": "PUNJAB",
    "pincode": "141108",
    "office_type": "BO",
    "delivery": true,
    "division": "Ludhiana Moffusil Division",
    "region": "DivReportingCircle",
    "circle": "Punjab Circle",
    "latitude": 31.357485,
    "longitude": 76.005099
  },
  {
    "place_name": "Bhaini Baringa BO",
    "district": "LUDHIANA",
    "state": "PUNJAB",
    "pincode": "141109",
    "office_type": "BO",
    "delivery": true,
    "division": "Ludhiana Moffusil Division",
    "region": "DivReportingCircle",
    "circle": "Punjab Circle",
    "latitude": 30.642549,
    "longitude": 75.643282
  },
  {
    "place_name": "Johalan BO",
    "district": "LUDHIANA",
    "state": "PUNJAB",
    "pincode": "141109",
    "office_type": "BO",
    "delivery": true,
    "division": "Ludhiana Moffusil Division",
    "region": "DivReportingCircle",
    "circle": "Punjab Circle",
    "latitude": 30.604724,
    "longitude": 75.645539
  },
  {
    "place_name": "Kalsian BO",
    "district": "LUDHIANA",
    "state": "PUNJAB",
    "pincode": "141109",
    "office_type": "BO",
    "delivery": true,
    "division": "Ludhiana Moffusil Division",
    "region": "DivReportingCircle",
    "circle": "Punjab Circle",
    "latitude": 30.632077,
    "longitude": 75.676082
  },
  {
    "place_name": "Sahauli BO",
    "district": "LUDHIANA",
    "state": "PUNJAB",
    "pincode": "141105",
    "office_type": "BO",
    "delivery": true,
    "division": "Ludhiana Moffusil Division",
    "region": "DivReportingCircle",
    "circle": "Punjab Circle",
    "latitude": 30.775309,
    "longitude": 75.686262
  },
  {
    "place_name": "Tossey BO",
    "district": "LUDHIANA",
    "state": "PUNJAB",
    "pincode": "141105",
    "office_type": "BO",
    "delivery": true,
    "division": "Ludhiana Moffusil Division",
    "region": "DivReportingCircle",
    "circle": "Punjab Circle",
    "latitude": 30.735593,
    "longitude": 75.672026
  },
  {
    "place_name": "Gidderwindi BO",
    "district": "LUDHIANA",
    "state": "PUNJAB",
    "pincode": "142033",
    "office_type": "BO",
    "delivery": true,
    "division": "Ludhiana Moffusil Division",
    "region": "DivReportingCircle",
    "circle": "Punjab Circle",
    "latitude": 30.930017,
    "longitude": 75.419896
  },
  {
    "place_name": "Madarpura BO",
    "district": "LUDHIANA",
    "state": "PUNJAB",
    "pincode": "142033",
    "office_type": "BO",
    "delivery": true,
    "division": "Ludhiana Moffusil Division",
    "region": "DivReportingCircle",
    "circle": "Punjab Circle",
    "latitude": 26.225215,
    "longitude": 84.677986
  },
  {
    "place_name": "Bhundri BO",
    "district": "LUDHIANA",
    "state": "PUNJAB",
    "pincode": "142025",
    "office_type": "BO",
    "delivery": true,
    "division": "Ludhiana Moffusil Division",
    "region": "DivReportingCircle",
    "circle": "Punjab Circle",
    "latitude": 30.942665,
    "longitude": 75.575702
  },
  {
    "place_name": "New Rajguru Nagar BO",
    "district": "LUDHIANA",
    "state": "PUNJAB",
    "pincode": "141012",
    "office_type": "BO",
    "delivery": false,
    "division": "Ludhiana City Division",
    "region": "DivReportingCircle",
    "circle": "Punjab Circle",
    "latitude": 30.877874,
    "longitude": 75.780026
  },
  {
    "place_name": "Lehra BO",
    "district": "LUDHIANA",
    "state": "PUNJAB",
    "pincode": "141118",
    "office_type": "BO",
    "delivery": true,
    "division": "Ludhiana Moffusil Division",
    "region": "DivReportingCircle",
    "circle": "Punjab Circle",
    "latitude": 30.70701,
    "longitude": 75.849764
  },
  {
    "place_name": "Doburji BO",
    "district": "LUDHIANA",
    "state": "PUNJAB",
    "pincode": "141421",
    "office_type": "BO",
    "delivery": true,
    "division": "Ludhiana Moffusil Division",
    "region": "DivReportingCircle",
    "circle": "Punjab Circle",
    "latitude": 30.77938,
    "longitude": 75.95721
  },
  {
    "place_name": "Khanpur BO",
    "district": "LUDHIANA",
    "state": "PUNJAB",
    "pincode": "141206",
    "office_type": "BO",
    "delivery": true,
    "division": "Ludhiana Moffusil Division",
    "region": "DivReportingCircle",
    "circle": "Punjab Circle",
    "latitude": 28.633183,
    "longitude": 70.657369
  },
  {
    "place_name": "Mukandpur BO",
    "district": "LUDHIANA",
    "state": "PUNJAB",
    "pincode": "141206",
    "office_type": "BO",
    "delivery": true,
    "division": "Ludhiana Moffusil Division",
    "region": "DivReportingCircle",
    "circle": "Punjab Circle",
    "latitude": 31.128446,
    "longitude": 75.943421
  },
  {
    "place_name": "Jassowal BO",
    "district": "LUDHIANA",
    "state": "PUNJAB",
    "pincode": "141116",
    "office_type": "BO",
    "delivery": true,
    "division": "Ludhiana Moffusil Division",
    "region": "DivReportingCircle",
    "circle": "Punjab Circle",
    "latitude": 30.793602,
    "longitude": 75.598985
  },
  {
    "place_name": "Sarih BO",
    "district": "LUDHIANA",
    "state": "PUNJAB",
    "pincode": "141116",
    "office_type": "BO",
    "delivery": true,
    "division": "Ludhiana Moffusil Division",
    "region": "DivReportingCircle",
    "circle": "Punjab Circle",
    "latitude": 31.139843,
    "longitude": 75.558238
  },
  {
    "place_name": "SHAHEED BHAGAT SINGH NAGAR",
    "district": "LUDHIANA",
    "state": "PUNJAB",
    "pincode": "141116",
    "office_type": "BO",
    "delivery": true,
    "division": "Ludhiana Moffusil Division",
    "region": "DivReportingCircle",
    "circle": "Punjab Circle",
    "latitude": 30.858774,
    "longitude": 75.842529
  },
  {
    "place_name": "Chaminda BO",
    "district": "LUDHIANA",
    "state": "PUNJAB",
    "pincode": "141202",
    "office_type": "BO",
    "delivery": true,
    "division": "Ludhiana Moffusil Division",
    "region": "DivReportingCircle",
    "circle": "Punjab Circle",
    "latitude": 30.76524,
    "longitude": 75.740783
  },
  {
    "place_name": "Rajewal BO",
    "district": "LUDHIANA",
    "state": "PUNJAB",
    "pincode": "141414",
    "office_type": "BO",
    "delivery": true,
    "division": "Ludhiana Moffusil Division",
    "region": "DivReportingCircle",
    "circle": "Punjab Circle",
    "latitude": 30.653488,
    "longitude": 76.145766
  },
  {
    "place_name": "Bharthala Randhawa BO",
    "district": "LUDHIANA",
    "state": "PUNJAB",
    "pincode": "141415",
    "office_type": "BO",
    "delivery": true,
    "division": "Ludhiana Moffusil Division",
    "region": "DivReportingCircle",
    "circle": "Punjab Circle",
    "latitude": 30.569922,
    "longitude": 76.078307
  },
  {
    "place_name": "Jargari BO",
    "district": "LUDHIANA",
    "state": "PUNJAB",
    "pincode": "141415",
    "office_type": "BO",
    "delivery": true,
    "division": "Ludhiana Moffusil Division",
    "region": "DivReportingCircle",
    "circle": "Punjab Circle",
    "latitude": 30.634941,
    "longitude": 76.033389
  },
  {
    "place_name": "Kot Gangu Rai BO",
    "district": "LUDHIANA",
    "state": "PUNJAB",
    "pincode": "141113",
    "office_type": "BO",
    "delivery": true,
    "division": "Ludhiana Moffusil Division",
    "region": "DivReportingCircle",
    "circle": "Punjab Circle",
    "latitude": 30.862155,
    "longitude": 76.089951
  },
  {
    "place_name": "Budhewal BO",
    "district": "LUDHIANA",
    "state": "PUNJAB",
    "pincode": "141112",
    "office_type": "BO",
    "delivery": true,
    "division": "Ludhiana Moffusil Division",
    "region": "DivReportingCircle",
    "circle": "Punjab Circle",
    "latitude": 30.907622,
    "longitude": 75.997844
  },
  {
    "place_name": "Rachhine BO",
    "district": "LUDHIANA",
    "state": "PUNJAB",
    "pincode": "141205",
    "office_type": "BO",
    "delivery": true,
    "division": "Ludhiana Moffusil Division",
    "region": "DivReportingCircle",
    "circle": "Punjab Circle",
    "latitude": 49.001574,
    "longitude": 24.032911
  },
  {
    "place_name": "Maherna Kalan BO",
    "district": "LUDHIANA",
    "state": "PUNJAB",
    "pincode": "141205",
    "office_type": "BO",
    "delivery": true,
    "division": "Ludhiana Moffusil Division",
    "region": "DivReportingCircle",
    "circle": "Punjab Circle",
    "latitude": 30.638397,
    "longitude": 75.770579
  },
  {
    "place_name": "Ramgarh Sardaran BO",
    "district": "LUDHIANA",
    "state": "PUNJAB",
    "pincode": "141119",
    "office_type": "BO",
    "delivery": true,
    "division": "Ludhiana Moffusil Division",
    "region": "DivReportingCircle",
    "circle": "Punjab Circle",
    "latitude": 30.639726,
    "longitude": 75.903497
  },
  {
    "place_name": "Barmalipur BO",
    "district": "LUDHIANA",
    "state": "PUNJAB",
    "pincode": "141416",
    "office_type": "BO",
    "delivery": true,
    "division": "Ludhiana Moffusil Division",
    "region": "DivReportingCircle",
    "circle": "Punjab Circle",
    "latitude": 30.753299,
    "longitude": 76.07255
  },
  {
    "place_name": "Ghudani Khurd BO",
    "district": "LUDHIANA",
    "state": "PUNJAB",
    "pincode": "141416",
    "office_type": "BO",
    "delivery": true,
    "division": "Ludhiana Moffusil Division",
    "region": "DivReportingCircle",
    "circle": "Punjab Circle",
    "latitude": 30.716097,
    "longitude": 76.032046
  },
  {
    "place_name": "Maksudran BO",
    "district": "LUDHIANA",
    "state": "PUNJAB",
    "pincode": "141416",
    "office_type": "BO",
    "delivery": true,
    "division": "Ludhiana Moffusil Division",
    "region": "DivReportingCircle",
    "circle": "Punjab Circle",
    "latitude": 30.736708,
    "longitude": 76.013453
  },
  {
    "place_name": "Lalori Kalan BO",
    "district": "LUDHIANA",
    "state": "PUNJAB",
    "pincode": "141417",
    "office_type": "BO",
    "delivery": true,
    "division": "Ludhiana Moffusil Division",
    "region": "DivReportingCircle",
    "circle": "Punjab Circle",
    "latitude": 30.729733,
    "longitude": 76.209241
  },
  {
    "place_name": "Kotla Bhari BO",
    "district": "LUDHIANA",
    "state": "PUNJAB",
    "pincode": "141417",
    "office_type": "BO",
    "delivery": true,
    "division": "Ludhiana Moffusil Division",
    "region": "DivReportingCircle",
    "circle": "Punjab Circle",
    "latitude": 30.753943,
    "longitude": 76.293527
  },
  {
    "place_name": "Sahibana BO",
    "district": "LUDHIANA",
    "state": "PUNJAB",
    "pincode": "141123",
    "office_type": "BO",
    "delivery": true,
    "division": "Ludhiana Moffusil Division",
    "region": "DivReportingCircle",
    "circle": "Punjab Circle",
    "latitude": 30.897719,
    "longitude": 75.971724
  },
  {
    "place_name": "Kubba BO",
    "district": "LUDHIANA",
    "state": "PUNJAB",
    "pincode": "141418",
    "office_type": "BO",
    "delivery": true,
    "division": "Ludhiana Moffusil Division",
    "region": "DivReportingCircle",
    "circle": "Punjab Circle",
    "latitude": 30.834016,
    "longitude": 76.089951
  },
  {
    "place_name": "Bondli BO",
    "district": "LUDHIANA",
    "state": "PUNJAB",
    "pincode": "141114",
    "office_type": "BO",
    "delivery": true,
    "division": "Ludhiana Moffusil Division",
    "region": "DivReportingCircle",
    "circle": "Punjab Circle",
    "latitude": 30.836281,
    "longitude": 76.214596
  },
  {
    "place_name": "Dhindsa BO",
    "district": "LUDHIANA",
    "state": "PUNJAB",
    "pincode": "141114",
    "office_type": "BO",
    "delivery": true,
    "division": "Ludhiana Moffusil Division",
    "region": "DivReportingCircle",
    "circle": "Punjab Circle",
    "latitude": 30.425324,
    "longitude": 76.535095
  },
  {
    "place_name": "Otalan BO",
    "district": "LUDHIANA",
    "state": "PUNJAB",
    "pincode": "141114",
    "office_type": "BO",
    "delivery": true,
    "division": "Ludhiana Moffusil Division",
    "region": "DivReportingCircle",
    "circle": "Punjab Circle",
    "latitude": 30.816728,
    "longitude": 76.196486
  },
  {
    "place_name": "Shamspur BO",
    "district": "LUDHIANA",
    "state": "PUNJAB",
    "pincode": "141114",
    "office_type": "BO",
    "delivery": true,
    "division": "Ludhiana Moffusil Division",
    "region": "DivReportingCircle",
    "circle": "Punjab Circle",
    "latitude": 33.006763,
    "longitude": 73.695559
  },
  {
    "place_name": "Tibba BO",
    "district": "LUDHIANA",
    "state": "PUNJAB",
    "pincode": "141120",
    "office_type": "BO",
    "delivery": true,
    "division": "Ludhiana Moffusil Division",
    "region": "DivReportingCircle",
    "circle": "Punjab Circle",
    "latitude": 31.311716,
    "longitude": 75.210711
  },
  {
    "place_name": "Chhounta BO",
    "district": "LUDHIANA",
    "state": "PUNJAB",
    "pincode": "141127",
    "office_type": "BO",
    "delivery": true,
    "division": "Ludhiana Moffusil Division",
    "region": "DivReportingCircle",
    "circle": "Punjab Circle",
    "latitude": 30.960536,
    "longitude": 76.057322
  },
  {
    "place_name": "Rattangarh BO",
    "district": "LUDHIANA",
    "state": "PUNJAB",
    "pincode": "141127",
    "office_type": "BO",
    "delivery": true,
    "division": "Ludhiana Moffusil Division",
    "region": "DivReportingCircle",
    "circle": "Punjab Circle",
    "latitude": 30.943691,
    "longitude": 76.070374
  },
  {
    "place_name": "Agol BO",
    "district": "PATIALA",
    "state": "PUNJAB",
    "pincode": "147202",
    "office_type": "BO",
    "delivery": true,
    "division": "Patiala Division",
    "region": "DivReportingCircle",
    "circle": "Punjab Circle",
    "latitude": 30.45,
    "longitude": 76.2
  },
  {
    "place_name": "Mallewal BO",
    "district": "PATIALA",
    "state": "PUNJAB",
    "pincode": "147202",
    "office_type": "BO",
    "delivery": true,
    "division": "Patiala Division",
    "region": "DivReportingCircle",
    "circle": "Punjab Circle",
    "latitude": 30.49,
    "longitude": 76.15
  },
  {
    "place_name": "Mangewal BO",
    "district": "PATIALA",
    "state": "PUNJAB",
    "pincode": "147202",
    "office_type": "BO",
    "delivery": true,
    "division": "Patiala Division",
    "region": "DivReportingCircle",
    "circle": "Punjab Circle",
    "latitude": 30.49,
    "longitude": 76.21
  },
  {
    "place_name": "Sakrali BO",
    "district": "PATIALA",
    "state": "PUNJAB",
    "pincode": "147202",
    "office_type": "BO",
    "delivery": true,
    "division": "Patiala Division",
    "region": "DivReportingCircle",
    "circle": "Punjab Circle",
    "latitude": 30.47,
    "longitude": 76.24
  },
  {
    "place_name": "Badshahpur BO",
    "district": "PATIALA",
    "state": "PUNJAB",
    "pincode": "147102",
    "office_type": "BO",
    "delivery": true,
    "division": "Patiala Division",
    "region": "DivReportingCircle",
    "circle": "Punjab Circle",
    "latitude": 30,
    "longitude": 76.17
  },
  {
    "place_name": "Chappar BO",
    "district": "PATIALA",
    "state": "PUNJAB",
    "pincode": "147021",
    "office_type": "BO",
    "delivery": true,
    "division": "Patiala Division",
    "region": "DivReportingCircle",
    "circle": "Punjab Circle",
    "latitude": 30.33,
    "longitude": 76.41
  },
  {
    "place_name": "Jogipur BO",
    "district": "PATIALA",
    "state": "PUNJAB",
    "pincode": "147021",
    "office_type": "BO",
    "delivery": true,
    "division": "Patiala Division",
    "region": "DivReportingCircle",
    "circle": "Punjab Circle",
    "latitude": 30.33,
    "longitude": 76.5
  },
  {
    "place_name": "Ajnoda Kalan BO",
    "district": "PATIALA",
    "state": "PUNJAB",
    "pincode": "147201",
    "office_type": "BO",
    "delivery": true,
    "division": "Patiala Division",
    "region": "DivReportingCircle",
    "circle": "Punjab Circle",
    "latitude": 30.42,
    "longitude": 76.25
  },