[
  {
    "place_name": "Mudinambattu B.O",
    "district": "VELLORE",
    "state": "TAMIL NADU",
    "pincode": "632204",
    "office_type": "BO",
    "delivery": true,
    "division": "Vellore Division",
    "region": "Chennai City Region",
    "circle": "Tamilnadu Circle",
    "latitude": 12.9428,
    "longitude": 79.0147
  },
  {
    "place_name": "Erayangadu B.O",
    "district": "VELLORE",
    "state": "TAMIL NADU",
    "pincode": "632104",
    "office_type": "BO",
    "delivery": true,
    "division": "Vellore Division",
    "region": "Chennai City Region",
    "circle": "Tamilnadu Circle",
    "latitude": 12.9228,
    "longitude": 78.9993
  },
  {
    "place_name": "Vallandramam B.O",
    "district": "VELLORE",
    "state": "TAMIL NADU",
    "pincode": "632104",
    "office_type": "BO",
    "delivery": true,
    "division": "Vellore Division",
    "region": "Chennai City Region",
    "circle": "Tamilnadu Circle",
    "latitude": 12.9016,
    "longitude": 79.0111
  },
  {
    "place_name": "Panapatti BO",
    "district": "COIMBATORE",
    "state": "TAMIL NADU",
    "pincode": "641201",
    "office_type": "BO",
    "delivery": true,
    "division": "Coimbatore Division",
    "region": "Western Region Coimbatore",
    "circle": "Tamilnadu Circle",
    "latitude": 10.8772266,
    "longitude": 77.10007
  },
  {
    "place_name": "Periyakuyilai BO",
    "district": "COIMBATORE",
    "state": "TAMIL NADU",
    "pincode": "641201",
    "office_type": "BO",
    "delivery": true,
    "division": "Coimbatore Division",
    "region": "Western Region Coimbatore",
    "circle": "Tamilnadu Circle",
    "latitude": 10.9001633,
    "longitude": 77.0738033
  },
  {
    "place_name": "Krishnarayapuram BO",
    "district": "COIMBATORE",
    "state": "TAMIL NADU",
    "pincode": "641006",
    "office_type": "BO",
    "delivery": false,
    "division": "Coimbatore Division",
    "region": "Western Region Coimbatore",
    "circle": "Tamilnadu Circle",
    "latitude": 11.0475766,
    "longitude": 76.9669067
  },
  {
    "place_name": "Palathurai BO",
    "district": "COIMBATORE",
    "state": "TAMIL NADU",
    "pincode": "641105",
    "office_type": "BO",
    "delivery": true,
    "division": "Coimbatore Division",
    "region": "Western Region Coimbatore",
    "circle": "Tamilnadu Circle",
    "latitude": 10.88238,
    "longitude": 76.9560466
  },
  {
    "place_name": "Sinnanavakkarai BO",
    "district": "COIMBATORE",
    "state": "TAMIL NADU",
    "pincode": "641105",
    "office_type": "BO",
    "delivery": true,
    "division": "Coimbatore Division",
    "region": "Western Region Coimbatore",
    "circle": "Tamilnadu Circle",
    "latitude": 10.8661266,
    "longitude": 76.8777883
  },
  {
    "place_name": "Kuppaipalayam BO",
    "district": "COIMBATORE",
    "state": "TAMIL NADU",
    "pincode": "641107",
    "office_type": "BO",
    "delivery": true,
    "division": "Coimbatore Division",
    "region": "Western Region Coimbatore",
    "circle": "Tamilnadu Circle",
    "latitude": 11.1819108,
    "longitude": 77.0295819
  },
  {
    "place_name": "Puluvapatti BO",
    "district": "COIMBATORE",
    "state": "TAMIL NADU",
    "pincode": "641101",
    "office_type": "BO",
    "delivery": true,
    "division": "Coimbatore Division",
    "region": "Western Region Coimbatore",
    "circle": "Tamilnadu Circle",
    "latitude": 10.9622566,
    "longitude": 76.8159516
  },
  {
    "place_name": "Siruvani Adivaram BO",
    "district": "COIMBATORE",
    "state": "TAMIL NADU",
    "pincode": "641114",
    "office_type": "BO",
    "delivery": true,
    "division": "Coimbatore Division",
    "region": "Western Region Coimbatore",
    "circle": "Tamilnadu Circle",
    "latitude": 10.9434216,
    "longitude": 76.7159983
  },
  {
    "place_name": "Sengalipalayam BO",
    "district": "COIMBATORE",
    "state": "TAMIL NADU",
    "pincode": "641022",
    "office_type": "BO",
    "delivery": true,
    "division": "Coimbatore Division",
    "region": "Western Region Coimbatore",
    "circle": "Tamilnadu Circle",
    "latitude": 11.101868,
    "longitude": 76.9537677
  },
  {
    "place_name": "Madampatti BO",
    "district": "COIMBATORE",
    "state": "TAMIL NADU",
    "pincode": "641010",
    "office_type": "BO",
    "delivery": true,
    "division": "Coimbatore Division",
    "region": "Western Region Coimbatore",
    "circle": "Tamilnadu Circle",
    "latitude": 10.9690116,
    "longitude": 76.8615533
  },
  {
    "place_name": "Nanjundapuramtadagam BO",
    "district": "COIMBATORE",
    "state": "TAMIL NADU",
    "pincode": "641108",
    "office_type": "BO",
    "delivery": true,
    "division": "Coimbatore Division",
    "region": "Western Region Coimbatore",
    "circle": "Tamilnadu Circle",
    "latitude": 11.0699833,
    "longitude": 76.88193
  },
  {
    "place_name": "Pathanjalipuri BO",
    "district": "COIMBATORE",
    "state": "TAMIL NADU",
    "pincode": "641108",
    "office_type": "BO",
    "delivery": true,
    "division": "Coimbatore Division",
    "region": "Western Region Coimbatore",
    "circle": "Tamilnadu Circle",
    "latitude": 11.0760666,
    "longitude": 76.8248183
  },
  {
    "place_name": "Somayampalayam BO",
    "district": "COIMBATORE",
    "state": "TAMIL NADU",
    "pincode": "641108",
    "office_type": "BO",
    "delivery": true,
    "division": "Coimbatore Division",
    "region": "Western Region Coimbatore",
    "circle": "Tamilnadu Circle",
    "latitude": 11.0601626,
    "longitude": 76.9061562
  },
  {
    "place_name": "Veerapanditadagam BO",
    "district": "COIMBATORE",
    "state": "TAMIL NADU",
    "pincode": "641108",
    "office_type": "BO",
    "delivery": true,
    "division": "Coimbatore Division",
    "region": "Western Region Coimbatore",
    "circle": "Tamilnadu Circle",
    "latitude": 11.0820399,
    "longitude": 76.8486033
  },
  {
    "place_name": "Jakkirnaickenpalayam BO",
    "district": "COIMBATORE",
    "state": "TAMIL NADU",
    "pincode": "641109",
    "office_type": "BO",
    "delivery": true,
    "division": "Coimbatore Division",
    "region": "Western Region Coimbatore",
    "circle": "Tamilnadu Circle",
    "latitude": 10.9807583,
    "longitude": 76.7917216
  },
  {
    "place_name": "A.Gollahalli B.O",
    "district": "DHARMAPURI",
    "state": "TAMIL NADU",
    "pincode": "636704",
    "office_type": "BO",
    "delivery": true,
    "division": "Dharmapuri Division",
    "region": "Western Region Coimbatore",
    "circle": "Tamilnadu Circle",
    "latitude": 12.1274185,
    "longitude": 78.1580215
  },
  {
    "place_name": "Kuppur B.O",
    "district": "DHARMAPURI",
    "state": "TAMIL NADU",
    "pincode": "636704",
    "office_type": "BO",
    "delivery": true,
    "division": "Dharmapuri Division",
    "region": "Western Region Coimbatore",
    "circle": "Tamilnadu Circle",
    "latitude": 12.1725536,
    "longitude": 78.1948193
  },
  {
    "place_name": "Ungaranahalli B.O",
    "district": "DHARMAPURI",
    "state": "TAMIL NADU",
    "pincode": "636705",
    "office_type": "BO",
    "delivery": true,
    "division": "Dharmapuri Division",
    "region": "Western Region Coimbatore",
    "circle": "Tamilnadu Circle",
    "latitude": 12.12,
    "longitude": 78.2
  },
  {
    "place_name": "Venkatenahalli B.O",
    "district": "DHARMAPURI",
    "state": "TAMIL NADU",
    "pincode": "636705",
    "office_type": "BO",
    "delivery": true,
    "division": "Dharmapuri Division",
    "region": "Western Region Coimbatore",
    "circle": "Tamilnadu Circle",
    "latitude": 12.12,
    "longitude": 78.2
  },
  {
    "place_name": "Thathampatti B.O",
    "district": "KRISHNAGIRI",
    "state": "TAMIL NADU",
    "pincode": "635201",
    "office_type": "BO",
    "delivery": true,
    "division": "Dharmapuri Division",
    "region": "Western Region Coimbatore",
    "circle": "Tamilnadu Circle",
    "latitude": 12.1274185,
    "longitude": 78.1580215
  },
  {
    "place_name": "Anjehalli B.O",
    "district": "DHARMAPURI",
    "state": "TAMIL NADU",
    "pincode": "636813",
    "office_type": "BO",
    "delivery": true,
    "division": "Dharmapuri Division",
    "region": "Western Region Coimbatore",
    "circle": "Tamilnadu Circle",
    "latitude": 12.132576,
    "longitude": 77.895568
  },
  {
    "place_name": "Noolahalli B.O",
    "district": "DHARMAPURI",
    "state": "TAMIL NADU",
    "pincode": "636813",
    "office_type": "BO",
    "delivery": true,
    "division": "Dharmapuri Division",
    "region": "Western Region Coimbatore",
    "circle": "Tamilnadu Circle",
    "latitude": 12.132577,
    "longitude": 77.895567
  },
  {
    "place_name": "Rajagollahalli B.O",
    "district": "DHARMAPURI",
    "state": "TAMIL NADU",
    "pincode": "636813",
    "office_type": "BO",
    "delivery": true,
    "division": "Dharmapuri Division",
    "region": "Western Region Coimbatore",
    "circle": "Tamilnadu Circle",
    "latitude": 12.13,
    "longitude": 78.12
  },
  {
    "place_name": "Thippireddihalli B.O",
    "district": "DHARMAPURI",
    "state": "TAMIL NADU",
    "pincode": "635301",
    "office_type": "BO",
    "delivery": true,
    "division": "Dharmapuri Division",
    "region": "Western Region Coimbatore",
    "circle": "Tamilnadu Circle",
    "latitude": 11.9135993,
    "longitude": 78.3657182
  },
  {
    "place_name": "Kurubarahalli B.O",
    "district": "DHARMAPURI",
    "state": "TAMIL NADU",
    "pincode": "635302",
    "office_type": "BO",
    "delivery": true,
    "division": "Dharmapuri Division",
    "region": "Western Region Coimbatore",
    "circle": "Tamilnadu Circle",
    "latitude": 12.0336,
    "longitude": 78.29775
  },
  {
    "place_name": "Kethureddipatti B.O",
    "district": "DHARMAPURI",
    "state": "TAMIL NADU",
    "pincode": "635302",
    "office_type": "BO",
    "delivery": true,
    "division": "Dharmapuri Division",
    "region": "Western Region Coimbatore",
    "circle": "Tamilnadu Circle",
    "latitude": 11.91,
    "longitude": 78.365
  },
  {
    "place_name": "Hanumantheertham B.O",
    "district": "KRISHNAGIRI",
    "state": "TAMIL NADU",
    "pincode": "636902",
    "office_type": "BO",
    "delivery": true,
    "division": "Dharmapuri Division",
    "region": "Western Region Coimbatore",
    "circle": "Tamilnadu Circle",
    "latitude": 11.87,
    "longitude": 78.38
  },
  {
    "place_name": "Katteri B.O",
    "district": "KRISHNAGIRI",
    "state": "TAMIL NADU",
    "pincode": "636902",
    "office_type": "BO",
    "delivery": true,
    "division": "Dharmapuri Division",
    "region": "Western Region Coimbatore",
    "circle": "Tamilnadu Circle",
    "latitude": 11.87,
    "longitude": 78.38
  },
  {
    "place_name": "Doddampatti B.O",
    "district": "DHARMAPURI",
    "state": "TAMIL NADU",
    "pincode": "636903",
    "office_type": "BO",
    "delivery": true,
    "division": "Dharmapuri Division",
    "region": "Western Region Coimbatore",
    "circle": "Tamilnadu Circle",
    "latitude": 12.0336,
    "longitude": 78.48825
  },
  {
    "place_name": "Ittiyampatti B.O",
    "district": "DHARMAPURI",
    "state": "TAMIL NADU",
    "pincode": "636903",
    "office_type": "BO",
    "delivery": true,
    "division": "Dharmapuri Division",
    "region": "Western Region Coimbatore",
    "circle": "Tamilnadu Circle",
    "latitude": 12.051352,
    "longitude": 78.480323
  },
  {
    "place_name": "Makkanur B.O",
    "district": "DHARMAPURI",
    "state": "TAMIL NADU",
    "pincode": "636803",
    "office_type": "BO",
    "delivery": true,
    "division": "Dharmapuri Division",
    "region": "Western Region Coimbatore",
    "circle": "Tamilnadu Circle",
    "latitude": 12.04839,
    "longitude": 78.48297
  },
  {
    "place_name": "Somenahalli B.O",
    "district": "DHARMAPURI",
    "state": "TAMIL NADU",
    "pincode": "636803",
    "office_type": "BO",
    "delivery": true,
    "division": "Dharmapuri Division",
    "region": "Western Region Coimbatore",
    "circle": "Tamilnadu Circle",
    "latitude": 12.132578,
    "longitude": 77.895566
  },
  {
    "place_name": "Ranimookanur B.O",
    "district": "DHARMAPURI",
    "state": "TAMIL NADU",
    "pincode": "635303",
    "office_type": "BO",
    "delivery": true,
    "division": "Dharmapuri Division",
    "region": "Western Region Coimbatore",
    "circle": "Tamilnadu Circle",
    "latitude": 12.10915,
    "longitude": 78.2945
  },
  {
    "place_name": "Kelavalli B.O",
    "district": "DHARMAPURI",
    "state": "TAMIL NADU",
    "pincode": "635202",
    "office_type": "BO",
    "delivery": true,
    "division": "Dharmapuri Division",
    "region": "Western Region Coimbatore",
    "circle": "Tamilnadu Circle",
    "latitude": 12.2094599,
    "longitude": 78.3109337
  },
  {
    "place_name": "Thippampatti B.O",
    "district": "DHARMAPURI",
    "state": "TAMIL NADU",
    "pincode": "635202",
    "office_type": "BO",
    "delivery": true,
    "division": "Dharmapuri Division",
    "region": "Western Region Coimbatore",
    "circle": "Tamilnadu Circle",
    "latitude": 12.0151353,
    "longitude": 78.480322
  },
  {
    "place_name": "Vagurappampatti B.O",
    "district": "DHARMAPURI",
    "state": "TAMIL NADU",
    "pincode": "635202",
    "office_type": "BO",
    "delivery": true,
    "division": "Dharmapuri Division",
    "region": "Western Region Coimbatore",
    "circle": "Tamilnadu Circle",
    "latitude": 12.18465,
    "longitude": 78.3494
  },
  {
    "place_name": "Vedarampatti B.O",
    "district": "DHARMAPURI",
    "state": "TAMIL NADU",
    "pincode": "635202",
    "office_type": "BO",
    "delivery": true,
    "division": "Dharmapuri Division",
    "region": "Western Region Coimbatore",
    "circle": "Tamilnadu Circle",
    "latitude": 12.051353,
    "longitude": 78.48
  },
  {
    "place_name": "Vellalapatti B.O",
    "district": "DHARMAPURI",
    "state": "TAMIL NADU",
    "pincode": "635202",
    "office_type": "BO",
    "delivery": true,
    "division": "Dharmapuri Division",
    "region": "Western Region Coimbatore",
    "circle": "Tamilnadu Circle",
    "latitude": 12.051353,
    "longitude": 78.480322
  },
  {
    "place_name": "Boodanahalli B.O",
    "district": "DHARMAPURI",
    "state": "TAMIL NADU",
    "pincode": "636804",
    "office_type": "BO",
    "delivery": true,
    "division": "Dharmapuri Division",
    "region": "Western Region Coimbatore",
    "circle": "Tamilnadu Circle",
    "latitude": 12.1274185,
    "longitude": 78.1580215
  },
  {
    "place_name": "Narthampatti B.O",
    "district": "DHARMAPURI",
    "state": "TAMIL NADU",
    "pincode": "636804",
    "office_type": "BO",
    "delivery": true,
    "division": "Dharmapuri Division",
    "region": "Western Region Coimbatore",
    "circle": "Tamilnadu Circle",
    "latitude": 12.01544,
    "longitude": 78.175
  },
  {
    "place_name": "Alapuram B.O",
    "district": "DHARMAPURI",
    "state": "TAMIL NADU",
    "pincode": "636904",
    "office_type": "BO",
    "delivery": true,
    "division": "Dharmapuri Division",
    "region": "Western Region Coimbatore",
    "circle": "Tamilnadu Circle",
    "latitude": 11.9181891,
    "longitude": 78.3645706
  },
  {
    "place_name": "Jammanahalli B.O",
    "district": "DHARMAPURI",
    "state": "TAMIL NADU",
    "pincode": "636904",
    "office_type": "BO",
    "delivery": true,
    "division": "Dharmapuri Division",
    "region": "Western Region Coimbatore",
    "circle": "Tamilnadu Circle",
    "latitude": 11.9927,
    "longitude": 78.3591
  },
  {
    "place_name": "Gobichettipalayam B.O",
    "district": "DHARMAPURI",
    "state": "TAMIL NADU",
    "pincode": "635305",
    "office_type": "BO",
    "delivery": true,
    "division": "Dharmapuri Division",
    "region": "Western Region Coimbatore",
    "circle": "Tamilnadu Circle",
    "latitude": 12.051358,
    "longitude": 78.480317
  },
  {
    "place_name": "Keragodahalli B.O",
    "district": "DHARMAPURI",
    "state": "TAMIL NADU",
    "pincode": "635305",
    "office_type": "BO",
    "delivery": true,
    "division": "Dharmapuri Division",
    "region": "Western Region Coimbatore",
    "circle": "Tamilnadu Circle",
    "latitude": 12.051355,
    "longitude": 78.48032
  },
  {
    "place_name": "Sandapatti B.O",
    "district": "DHARMAPURI",
    "state": "TAMIL NADU",
    "pincode": "635305",
    "office_type": "BO",
    "delivery": true,
    "division": "Dharmapuri Division",
    "region": "Western Region Coimbatore",
    "circle": "Tamilnadu Circle",
    "latitude": 12.051351,
    "longitude": 78.480324
  },
  {
    "place_name": "Ichampatti B.O",
    "district": "DHARMAPURI",
    "state": "TAMIL NADU",
    "pincode": "636807",
    "office_type": "BO",
    "delivery": true,
    "division": "Dharmapuri Division",
    "region": "Western Region Coimbatore",
    "circle": "Tamilnadu Circle",
    "latitude": 12.127416,
    "longitude": 78.158023
  },
  {
    "place_name": "Pagalahalli B.O",
    "district": "DHARMAPURI",
    "state": "TAMIL NADU",
    "pincode": "636807",
    "office_type": "BO",
    "delivery": true,
    "division": "Dharmapuri Division",
    "region": "Western Region Coimbatore",
    "circle": "Tamilnadu Circle",
    "latitude": 12.05565,
    "longitude": 78.0814
  },
  {
    "place_name": "Jertalav B.O",
    "district": "DHARMAPURI",
    "state": "TAMIL NADU",
    "pincode": "636808",
    "office_type": "BO",
    "delivery": true,
    "division": "Dharmapuri Division",
    "region": "Western Region Coimbatore",
    "circle": "Tamilnadu Circle",
    "latitude": 12.31685,
    "longitude": 78.01035
  },
  {
    "place_name": "Sunnampatti B.O",
    "district": "DHARMAPURI",
    "state": "TAMIL NADU",
    "pincode": "636808",
    "office_type": "BO",
    "delivery": true,
    "division": "Dharmapuri Division",
    "region": "Western Region Coimbatore",
    "circle": "Tamilnadu Circle",
    "latitude": 12.305409,
    "longitude": 78.070385
  },
  {
    "place_name": "Kokkarapatti B.O",
    "district": "DHARMAPURI",
    "state": "TAMIL NADU",
    "pincode": "636905",
    "office_type": "BO",
    "delivery": true,
    "division": "Dharmapuri Division",
    "region": "Western Region Coimbatore",
    "circle": "Tamilnadu Circle",
    "latitude": 11.98325,
    "longitude": 78.41075
  },
  {
    "place_name": "Kombur B.O",
    "district": "DHARMAPURI",
    "state": "TAMIL NADU",
    "pincode": "636905",
    "office_type": "BO",
    "delivery": true,
    "division": "Dharmapuri Division",
    "region": "Western Region Coimbatore",
    "circle": "Tamilnadu Circle",
    "latitude": 11.913598,
    "longitude": 78.3657192
  },
  {
    "place_name": "Mullikadu B.O",
    "district": "DHARMAPURI",
    "state": "TAMIL NADU",
    "pincode": "636905",
    "office_type": "BO",
    "delivery": true,
    "division": "Dharmapuri Division",
    "region": "Western Region Coimbatore",
    "circle": "Tamilnadu Circle",
    "latitude": 11.9135983,
    "longitude": 78.3494
  },
  {
    "place_name": "Pappambadi B.O",
    "district": "DHARMAPURI",
    "state": "TAMIL NADU",
    "pincode": "636905",
    "office_type": "BO",
    "delivery": true,
    "division": "Dharmapuri Division",
    "region": "Western Region Coimbatore",
    "circle": "Tamilnadu Circle",
    "latitude": 11.9135983,
    "longitude": 78.31
  },
  {
    "place_name": "Padi B.O",
    "district": "DHARMAPURI",
    "state": "TAMIL NADU",
    "pincode": "636809",
    "office_type": "BO",
    "delivery": true,
    "division": "Dharmapuri Division",
    "region": "Western Region Coimbatore",
    "circle": "Tamilnadu Circle",
    "latitude": 12.132571,
    "longitude": 77.895573
  },
  {
    "place_name": "Palavadi B.O",
    "district": "DHARMAPURI",
    "state": "TAMIL NADU",
    "pincode": "636809",
    "office_type": "BO",
    "delivery": true,
    "division": "Dharmapuri Division",
    "region": "Western Region Coimbatore",
    "circle": "Tamilnadu Circle",
    "latitude": 12.132575,
    "longitude": 77.895569
  },
  {
    "place_name": "Pikkili B.O",
    "district": "DHARMAPURI",
    "state": "TAMIL NADU",
    "pincode": "636809",
    "office_type": "BO",
    "delivery": true,
    "division": "Dharmapuri Division",
    "region": "Western Region Coimbatore",
    "circle": "Tamilnadu Circle",
    "latitude": 12.132574,
    "longitude": 77.89557
  },
  {
    "place_name": "Ajjanahalli B.O",
    "district": "DHARMAPURI",
    "state": "TAMIL NADU",
    "pincode": "636810",
    "office_type": "BO",
    "delivery": true,
    "division": "Dharmapuri Division",
    "region": "Western Region Coimbatore",
    "circle": "Tamilnadu Circle",
    "latitude": 12.0324591,
    "longitude": 77.8146794
  },
  {
    "place_name": "Koothapadi B.O",
    "district": "DHARMAPURI",
    "state": "TAMIL NADU",
    "pincode": "636810",
    "office_type": "BO",
    "delivery": true,
    "division": "Dharmapuri Division",
    "region": "Western Region Coimbatore",
    "circle": "Tamilnadu Circle",
    "latitude": 12.132577,
    "longitude": 77.895567
  },
  {
    "place_name": "Manjarahalli B.O",
    "district": "DHARMAPURI",
    "state": "TAMIL NADU",
    "pincode": "636810",
    "office_type": "BO",
    "delivery": true,
    "division": "Dharmapuri Division",
    "region": "Western Region Coimbatore",
    "circle": "Tamilnadu Circle",
    "latitude": 12.132579,
    "longitude": 77.895565
  },
  {
    "place_name": "Kannipatti B.O",
    "district": "DHARMAPURI",
    "state": "TAMIL NADU",
    "pincode": "635205",
    "office_type": "BO",
    "delivery": true,
    "division": "Dharmapuri Division",
    "region": "Western Region Coimbatore",
    "circle": "Tamilnadu Circle",
    "latitude": 12.1274165,
    "longitude": 78.1580235
  },
  {
    "place_name": "Kottumaranahalli B.O",
    "district": "DHARMAPURI",
    "state": "TAMIL NADU",
    "pincode": "635205",
    "office_type": "BO",
    "delivery": true,
    "division": "Dharmapuri Division",
    "region": "Western Region Coimbatore",
    "circle": "Tamilnadu Circle",
    "latitude": 12.23505,
    "longitude": 78.1815
  },
  {
    "place_name": "Mallikuttai B.O",
    "district": "DHARMAPURI",
    "state": "TAMIL NADU",
    "pincode": "635205",
    "office_type": "BO",
    "delivery": true,
    "division": "Dharmapuri Division",
    "region": "Western Region Coimbatore",
    "circle": "Tamilnadu Circle",
    "latitude": 12.1664026,
    "longitude": 78.1668996
  },
  {
    "place_name": "Chinnampalli B.O",
    "district": "DHARMAPURI",
    "state": "TAMIL NADU",
    "pincode": "636811",
    "office_type": "BO",
    "delivery": true,
    "division": "Dharmapuri Division",
    "region": "Western Region Coimbatore",
    "circle": "Tamilnadu Circle",
    "latitude": 11.98091,
    "longitude": 77.91995
  },
  {
    "place_name": "Gudalur B.O",
    "district": "DHARMAPURI",
    "state": "TAMIL NADU",
    "pincode": "636906",
    "office_type": "BO",
    "delivery": true,
    "division": "Dharmapuri Division",
    "region": "Western Region Coimbatore",
    "circle": "Tamilnadu Circle",
    "latitude": 12.051348,
    "longitude": 78.480327
  },
  {
    "place_name": "Sittilingi B.O",
    "district": "DHARMAPURI",
    "state": "TAMIL NADU",
    "pincode": "636906",
    "office_type": "BO",
    "delivery": true,
    "division": "Dharmapuri Division",
    "region": "Western Region Coimbatore",
    "circle": "Tamilnadu Circle",
    "latitude": 12.051351,
    "longitude": 78.480324
  },
  {
    "place_name": "Velanur B.O",
    "district": "DHARMAPURI",
    "state": "TAMIL NADU",
    "pincode": "636906",
    "office_type": "BO",
    "delivery": true,
    "division": "Dharmapuri Division",
    "region": "Western Region Coimbatore",
    "circle": "Tamilnadu Circle",
    "latitude": 12.051348,
    "longitude": 78.480327
  },
  {
    "place_name": "Chinnapallam BO",
    "district": "ERODE",
    "state": "TAMIL NADU",
    "pincode": "638311",
    "office_type": "BO",
    "delivery": true,
    "division": "Erode Division",
    "region": "Western Region Coimbatore",
    "circle": "Tamilnadu Circle",
    "latitude": 11.680526,
    "longitude": 77.765942
  },
  {
    "place_name": "Kesarimangalam BO",
    "district": "ERODE",
    "state": "TAMIL NADU",
    "pincode": "638311",
    "office_type": "BO",
    "delivery": true,
    "division": "Erode Division",
    "region": "Western Region Coimbatore",
    "circle": "Tamilnadu Circle",
    "latitude": 11.544069,
    "longitude": 77.715852
  },
  {
    "place_name": "Alampalayam BO",
    "district": "ERODE",
    "state": "TAMIL NADU",
    "pincode": "638501",
    "office_type": "BO",
    "delivery": true,
    "division": "Erode Division",
    "region": "Western Region Coimbatore",
    "circle": "Tamilnadu Circle",
    "latitude": 11.238545,
    "longitude": 77.453227
  },
  {
    "place_name": "BargurAnthiyur BO",
    "district": "ERODE",
    "state": "TAMIL NADU",
    "pincode": "638501",
    "office_type": "BO",
    "delivery": true,
    "division": "Erode Division",
    "region": "Western Region Coimbatore",
    "circle": "Tamilnadu Circle",
    "latitude": 11.811442,
    "longitude": 77.543919
  },
  {
    "place_name": "Ennamangalam BO",
    "district": "ERODE",
    "state": "TAMIL NADU",
    "pincode": "638501",
    "office_type": "BO",
    "delivery": true,
    "division": "Erode Division",
    "region": "Western Region Coimbatore",
    "circle": "Tamilnadu Circle",
    "latitude": 11.644996,
    "longitude": 77.593324
  },
  {
    "place_name": "Gettisamudram Colony BO",
    "district": "ERODE",
    "state": "TAMIL NADU",
    "pincode": "638501",
    "office_type": "BO",
    "delivery": true,
    "division": "Erode Division",
    "region": "Western Region Coimbatore",
    "circle": "Tamilnadu Circle",
    "latitude": 11.622706,
    "longitude": 77.579366
  },
  {
    "place_name": "Komarayanur BO",
    "district": "ERODE",
    "state": "TAMIL NADU",
    "pincode": "638504",
    "office_type": "BO",
    "delivery": true,
    "division": "Erode Division",
    "region": "Western Region Coimbatore",
    "circle": "Tamilnadu Circle",
    "latitude": 11.729922,
    "longitude": 77.693512
  },
  {
    "place_name": "Punnam BO",
    "district": "ERODE",
    "state": "TAMIL NADU",
    "pincode": "638312",
    "office_type": "BO",
    "delivery": true,
    "division": "Erode Division",
    "region": "Western Region Coimbatore",
    "circle": "Tamilnadu Circle",
    "latitude": 11.504502,
    "longitude": 77.622948
  },
  {
    "place_name": "Thaneerpandalpalayam BO",
    "district": "ERODE",
    "state": "TAMIL NADU",
    "pincode": "638116",
    "office_type": "BO",
    "delivery": true,
    "division": "Erode Division",
    "region": "Western Region Coimbatore",
    "circle": "Tamilnadu Circle",
    "latitude": 11.383571,
    "longitude": 77.58686
  },
  {
    "place_name": "Mullampatti BO",
    "district": "ERODE",
    "state": "TAMIL NADU",
    "pincode": "638107",
    "office_type": "BO",
    "delivery": true,
    "division": "Erode Division",
    "region": "Western Region Coimbatore",
    "circle": "Tamilnadu Circle",
    "latitude": 11.342633,
    "longitude": 77.605704
  },
  {
    "place_name": "Vilarasampatti BO",
    "district": "ERODE",
    "state": "TAMIL NADU",
    "pincode": "638107",
    "office_type": "BO",
    "delivery": true,
    "division": "Erode Division",
    "region": "Western Region Coimbatore",
    "circle": "Tamilnadu Circle",
    "latitude": 11.337139,
    "longitude": 77.665442
  },
  {
    "place_name": "Kannadipalayam BO",
    "district": "ERODE",
    "state": "TAMIL NADU",
    "pincode": "638314",
    "office_type": "BO",
    "delivery": true,
    "division": "Erode Division",
    "region": "Western Region Coimbatore",
    "circle": "Tamilnadu Circle",
    "latitude": 11.525864,
    "longitude": 77.648621
  },
  {
    "place_name": "Mukasipudur BO",
    "district": "ERODE",
    "state": "TAMIL NADU",
    "pincode": "638314",
    "office_type": "BO",
    "delivery": true,
    "division": "Erode Division",
    "region": "Western Region Coimbatore",
    "circle": "Tamilnadu Circle",
    "latitude": 11.595103,
    "longitude": 77.65801
  },
  {
    "place_name": "Periyavettuvapalayam BO",
    "district": "ERODE",
    "state": "TAMIL NADU",
    "pincode": "638052",
    "office_type": "BO",
    "delivery": true,
    "division": "Erode Division",
    "region": "Western Region Coimbatore",
    "circle": "Tamilnadu Circle",
    "latitude": 11.25611,
    "longitude": 77.562974
  },
  {
    "place_name": "Pichandampalayam BO",
    "district": "ERODE",
    "state": "TAMIL NADU",
    "pincode": "638052",
    "office_type": "BO",
    "delivery": true,
    "division": "Erode Division",
    "region": "Western Region Coimbatore",
    "circle": "Tamilnadu Circle",
    "latitude": 11.298682,
    "longitude": 77.618592
  },
  {
    "place_name": "Perundalaiyur BO",
    "district": "ERODE",
    "state": "TAMIL NADU",
    "pincode": "638315",
    "office_type": "BO",
    "delivery": true,
    "division": "Erode Division",
    "region": "Western Region Coimbatore",
    "circle": "Tamilnadu Circle",
    "latitude": 11.461471,
    "longitude": 77.556924
  },
  {
    "place_name": "Sinthagoundenpalayam BO",
    "district": "ERODE",
    "state": "TAMIL NADU",
    "pincode": "638315",
    "office_type": "BO",
    "delivery": true,
    "division": "Erode Division",
    "region": "Western Region Coimbatore",
    "circle": "Tamilnadu Circle",
    "latitude": 11.534255,
    "longitude": 77.596063
  },
  {
    "place_name": "Vellalapalayam BO",
    "district": "ERODE",
    "state": "TAMIL NADU",
    "pincode": "638315",
    "office_type": "BO",
    "delivery": true,
    "division": "Erode Division",
    "region": "Western Region Coimbatore",
    "circle": "Tamilnadu Circle",
    "latitude": 11.500609,
    "longitude": 77.55967
  },
  {
    "place_name": "Nallampatti BO",
    "district": "ERODE",
    "state": "TAMIL NADU",
    "pincode": "638057",
    "office_type": "BO",
    "delivery": true,
    "division": "Erode Division",
    "region": "Western Region Coimbatore",
    "circle": "Tamilnadu Circle",
    "latitude": 11.355104,
    "longitude": 77.533948
  },
  {
    "place_name": "Palakarai BO",
    "district": "ERODE",
    "state": "TAMIL NADU",
    "pincode": "638057",
    "office_type": "BO",
    "delivery": true,
    "division": "Erode Division",
    "region": "Western Region Coimbatore",
    "circle": "Tamilnadu Circle",
    "latitude": 11.333818,
    "longitude": 77.550428
  },
  {
    "place_name": "Pattakaranpalayam BO",
    "district": "ERODE",
    "state": "TAMIL NADU",
    "pincode": "638057",
    "office_type": "BO",
    "delivery": true,
    "division": "Erode Division",
    "region": "Western Region Coimbatore",
    "circle": "Tamilnadu Circle",
    "latitude": 11.285753,
    "longitude": 77.525709
  },
  {
    "place_name": "Sirukalanji BO",
    "district": "ERODE",
    "state": "TAMIL NADU",
    "pincode": "638751",
    "office_type": "BO",
    "delivery": true,
    "division": "Erode Division",
    "region": "Western Region Coimbatore",
    "circle": "Tamilnadu Circle",
    "latitude": 11.165209,
    "longitude": 77.490791
  },
  {
    "place_name": "Nadupatti BO",
    "district": "TIRUPPUR",
    "state": "TAMIL NADU",
    "pincode": "638056",
    "office_type": "BO",
    "delivery": true,
    "division": "Erode Division",
    "region": "Western Region Coimbatore",
    "circle": "Tamilnadu Circle",
    "latitude": 11.219386,
    "longitude": 77.486962
  },
  {
    "place_name": "Kandikattuvalasu BO",
    "district": "ERODE",
    "state": "TAMIL NADU",
    "pincode": "638115",
    "office_type": "BO",
    "delivery": true,
    "division": "Erode Division",
    "region": "Western Region Coimbatore",
    "circle": "Tamilnadu Circle",
    "latitude": 11.189394,
    "longitude": 77.7309835
  },
  {
    "place_name": "Nathagoundenpalayam BO",
    "district": "ERODE",
    "state": "TAMIL NADU",
    "pincode": "638115",
    "office_type": "BO",
    "delivery": true,
    "division": "Erode Division",
    "region": "Western Region Coimbatore",
    "circle": "Tamilnadu Circle",
    "latitude": 11.2758213,
    "longitude": 77.7388002
  },
  {
    "place_name": "Solipalayam BO",
    "district": "ERODE",
    "state": "TAMIL NADU",
    "pincode": "638115",
    "office_type": "BO",
    "delivery": true,
    "division": "Erode Division",
    "region": "Western Region Coimbatore",
    "circle": "Tamilnadu Circle",
    "latitude": 11.2427237,
    "longitude": 77.7135655
  },
  {
    "place_name": "Thuyyampundurai BO",
    "district": "ERODE",
    "state": "TAMIL NADU",
    "pincode": "638115",
    "office_type": "BO",
    "delivery": true,
    "division": "Erode Division",
    "region": "Western Region Coimbatore",
    "circle": "Tamilnadu Circle",
    "latitude": 11.230364,
    "longitude": 77.7053257
  },
  {
    "place_name": "Pappampalayam BO",
    "district": "NAMAKKAL",
    "state": "TAMIL NADU",
    "pincode": "638007",
    "office_type": "BO",
    "delivery": true,
    "division": "Erode Division",
    "region": "Western Region Coimbatore",
    "circle": "Tamilnadu Circle",
    "latitude": 11.3358251,
    "longitude": 77.7754171
  },
  {
    "place_name": "Ayyampalayam BO",
    "district": "ERODE",
    "state": "TAMIL NADU",
    "pincode": "638151",
    "office_type": "BO",
    "delivery": true,
    "division": "Erode Division",
    "region": "Western Region Coimbatore",
    "circle": "Tamilnadu Circle",
    "latitude": 11.0490757,
    "longitude": 77.8510692
  },
  {
    "place_name": "Komarayeevalasu BO",
    "district": "ERODE",
    "state": "TAMIL NADU",
    "pincode": "638104",
    "office_type": "BO",
    "delivery": true,
    "division": "Erode Division",
    "region": "Western Region Coimbatore",
    "circle": "Tamilnadu Circle",
    "latitude": 11.2557699,
    "longitude": 77.763004
  },
  {
    "place_name": "Kolanalli BO",
    "district": "ERODE",
    "state": "TAMIL NADU",
    "pincode": "638154",
    "office_type": "BO",
    "delivery": true,
    "division": "Erode Division",
    "region": "Western Region Coimbatore",
    "circle": "Tamilnadu Circle",
    "latitude": 11.175117,
    "longitude": 77.85938
  },
  {
    "place_name": "Vellottamparappu BO",
    "district": "ERODE",
    "state": "TAMIL NADU",
    "pincode": "638154",
    "office_type": "BO",
    "delivery": true,
    "division": "Erode Division",
    "region": "Western Region Coimbatore",
    "circle": "Tamilnadu Circle",
    "latitude": 11.187477,
    "longitude": 77.841527
  },
  {
    "place_name": "Kagam BO",
    "district": "ERODE",
    "state": "TAMIL NADU",
    "pincode": "638109",
    "office_type": "BO",
    "delivery": true,
    "division": "Erode Division",
    "region": "Western Region Coimbatore",
    "circle": "Tamilnadu Circle",
    "latitude": 11.1485293,
    "longitude": 77.7852639
  },
  {
    "place_name": "Thandampalayam BO",
    "district": "ERODE",
    "state": "TAMIL NADU",
    "pincode": "638109",
    "office_type": "BO",
    "delivery": true,
    "division": "Erode Division",
    "region": "Western Region Coimbatore",
    "circle": "Tamilnadu Circle",
    "latitude": 11.0960819,
    "longitude": 77.7349051
  },
  {
    "place_name": "Vazhaithottam BO",
    "district": "ERODE",
    "state": "TAMIL NADU",
    "pincode": "638109",
    "office_type": "BO",
    "delivery": true,
    "division": "Erode Division",
    "region": "Western Region Coimbatore",
    "circle": "Tamilnadu Circle",
    "latitude": 11.0867884,
    "longitude": 77.7768561
  },
  {
    "place_name": "Vilakethi BO",
    "district": "ERODE",
    "state": "TAMIL NADU",
    "pincode": "638109",
    "office_type": "BO",
    "delivery": true,
    "division": "Erode Division",
    "region": "Western Region Coimbatore",
    "circle": "Tamilnadu Circle",
    "latitude": 11.1370613,
    "longitude": 77.765356
  },
  {
    "place_name": "Kasipalayam BO",
    "district": "ERODE",
    "state": "TAMIL NADU",
    "pincode": "638009",
    "office_type": "BO",
    "delivery": false,
    "division": "Erode Division",
    "region": "Western Region Coimbatore",
    "circle": "Tamilnadu Circle",
    "latitude": 11.318635,
    "longitude": 77.70921
  },
  {
    "place_name": "Pungambadi BO",
    "district": "ERODE",
    "state": "TAMIL NADU",
    "pincode": "638112",
    "office_type": "BO",
    "delivery": true,
    "division": "Erode Division",
    "region": "Western Region Coimbatore",
    "circle": "Tamilnadu Circle",
    "latitude": 11.2710754,
    "longitude": 77.6494576
  },
  {
    "place_name": "Kuppandampalayam BO",
    "district": "ERODE",
    "state": "TAMIL NADU",
    "pincode": "638502",
    "office_type": "BO",
    "delivery": true,
    "division": "Erode Division",
    "region": "Western Region Coimbatore",
    "circle": "Tamilnadu Circle",
    "latitude": 11.533573,
    "longitude": 77.520848
  },
  {
    "place_name": "Savandapur BO",
    "district": "ERODE",
    "state": "TAMIL NADU",
    "pincode": "638502",
    "office_type": "BO",
    "delivery": true,
    "division": "Erode Division",
    "region": "Western Region Coimbatore",
    "circle": "Tamilnadu Circle",
    "latitude": 11.521687,
    "longitude": 77.508302
  },
  {
    "place_name": "Kalkadambur BO",
    "district": "ERODE",
    "state": "TAMIL NADU",
    "pincode": "638503",
    "office_type": "BO",
    "delivery": true,
    "division": "Erode Division",
    "region": "Western Region Coimbatore",
    "circle": "Tamilnadu Circle",
    "latitude": 11.625686,
    "longitude": 77.32838
  },
  {
    "place_name": "Karalayam BO",
    "district": "ERODE",
    "state": "TAMIL NADU",
    "pincode": "638503",
    "office_type": "BO",
    "delivery": true,
    "division": "Erode Division",
    "region": "Western Region Coimbatore",
    "circle": "Tamilnadu Circle",
    "latitude": 11.652847,
    "longitude": 77.253777
  },
  {
    "place_name": "Kondapanaickenpalayam BO",
    "district": "ERODE",
    "state": "TAMIL NADU",
    "pincode": "638503",
    "office_type": "BO",
    "delivery": true,
    "division": "Erode Division",
    "region": "Western Region Coimbatore",
    "circle": "Tamilnadu Circle",
    "latitude": 11.533701,
    "longitude": 77.277013
  },
  {
    "place_name": "Sokkumaripalayam BO",
    "district": "ERODE",
    "state": "TAMIL NADU",
    "pincode": "638110",
    "office_type": "BO",
    "delivery": true,
    "division": "Erode Division",
    "region": "Western Region Coimbatore",
    "circle": "Tamilnadu Circle",
    "latitude": 11.359743,
    "longitude": 77.405094
  },
  {
    "place_name": "Nanjagoundenpalayam BO",
    "district": "ERODE",
    "state": "TAMIL NADU",
    "pincode": "638476",
    "office_type": "BO",
    "delivery": true,
    "division": "Erode Division",
    "region": "Western Region Coimbatore",
    "circle": "Tamilnadu Circle",
    "latitude": 11.566181,
    "longitude": 77.43
  },
  {
    "place_name": "Kanakkampalayam BO",
    "district": "ERODE",
    "state": "TAMIL NADU",
    "pincode": "638505",
    "office_type": "BO",
    "delivery": true,
    "division": "Erode Division",
    "region": "Western Region Coimbatore",
    "circle": "Tamilnadu Circle",
    "latitude": 11.524721,
    "longitude": 77.44547
  },
  {
    "place_name": "KondayampalayamBhavani BO",
    "district": "ERODE",
    "state": "TAMIL NADU",
    "pincode": "638505",
    "office_type": "BO",
    "delivery": false,
    "division": "Erode Division",
    "region": "Western Region Coimbatore",
    "circle": "Tamilnadu Circle",
    "latitude": 11.518911,
    "longitude": 77.43816
  },
  {
    "place_name": "Perumugaipudur BO",
    "district": "ERODE",
    "state": "TAMIL NADU",
    "pincode": "638505",
    "office_type": "BO",
    "delivery": true,
    "division": "Erode Division",
    "region": "Western Region Coimbatore",
    "circle": "Tamilnadu Circle",
    "latitude": 11.571111,
    "longitude": 77.463775
  },
  {
    "place_name": "Kalingiam BO",
    "district": "ERODE",
    "state": "TAMIL NADU",
    "pincode": "638453",
    "office_type": "BO",
    "delivery": true,
    "division": "Erode Division",
    "region": "Western Region Coimbatore",
    "circle": "Tamilnadu Circle",
    "latitude": 11.539826,
    "longitude": 77.42576
  },
  {
    "place_name": "Arasur BO",
    "district": "ERODE",
    "state": "TAMIL NADU",
    "pincode": "638454",
    "office_type": "BO",
    "delivery": true,
    "division": "Erode Division",
    "region": "Western Region Coimbatore",
    "circle": "Tamilnadu Circle",
    "latitude": 11.455706,
    "longitude": 77.276359
  },
  {
    "place_name": "Ayyampalayam BO",
    "district": "ERODE",
    "state": "TAMIL NADU",
    "pincode": "638455",
    "office_type": "BO",
    "delivery": true,
    "division": "Erode Division",
    "region": "Western Region Coimbatore",
    "circle": "Tamilnadu Circle",
    "latitude": 11.437327,
    "longitude": 77.545323
  },
  {
    "place_name": "Talguni BO",
    "district": "ERODE",
    "state": "TAMIL NADU",
    "pincode": "638456",
    "office_type": "BO",
    "delivery": true,
    "division": "Erode Division",
    "region": "Western Region Coimbatore",
    "circle": "Tamilnadu Circle",
    "latitude": 11.376018,
    "longitude": 77.410892
  },
  {
    "place_name": "Kavuthampalayam BO",
    "district": "TIRUPPUR",
    "state": "TAMIL NADU",
    "pincode": "638103",
    "office_type": "BO",
    "delivery": true,
    "division": "Erode Division",
    "region": "Western Region Coimbatore",
    "circle": "Tamilnadu Circle",
    "latitude": 11.236999,
    "longitude": 77.4308
  },
  {
    "place_name": "Vallipuram BO",
    "district": "TIRUPPUR",
    "state": "TAMIL NADU",
    "pincode": "638103",
    "office_type": "BO",
    "delivery": true,
    "division": "Erode Division",
    "region": "Western Region Coimbatore",
    "circle": "Tamilnadu Circle",
    "latitude": 11.090674,
    "longitude": 77.798228
  },
  {
    "place_name": "Elathur Chettipalayam BO",
    "district": "ERODE",
    "state": "TAMIL NADU",
    "pincode": "638458",
    "office_type": "BO",
    "delivery": true,
    "division": "Erode Division",
    "region": "Western Region Coimbatore",
    "circle": "Tamilnadu Circle",
    "latitude": 11.395691,
    "longitude": 77.300266
  },
  {
    "place_name": "Arakkankottai BO",
    "district": "ERODE",
    "state": "TAMIL NADU",
    "pincode": "638506",
    "office_type": "BO",
    "delivery": true,
    "division": "Erode Division",
    "region": "Western Region Coimbatore",
    "circle": "Tamilnadu Circle",
    "latitude": 11.498577,
    "longitude": 77.347899
  },
  {
    "place_name": "Pullappanaickenpalayam BO",
    "district": "ERODE",
    "state": "TAMIL NADU",
    "pincode": "638506",
    "office_type": "BO",
    "delivery": true,
    "division": "Erode Division",
    "region": "Western Region Coimbatore",
    "circle": "Tamilnadu Circle",
    "latitude": 11.496062,
    "longitude": 77.327531
  },
  {
    "place_name": "Kuthambi BO",
    "district": "ERODE",
    "state": "TAMIL NADU",
    "pincode": "638055",
    "office_type": "BO",
    "delivery": true,
    "division": "Erode Division",
    "region": "Western Region Coimbatore",
    "circle": "Tamilnadu Circle",
    "latitude": 11.347561,
    "longitude": 77.49311
  },
  {
    "place_name": "Pappampalayam BO",
    "district": "ERODE",
    "state": "TAMIL NADU",
    "pincode": "638055",
    "office_type": "BO",
    "delivery": true,
    "division": "Erode Division",
    "region": "Western Region Coimbatore",
    "circle": "Tamilnadu Circle",
    "latitude": 11.30267,
    "longitude": 77.485127
  },
  {
    "place_name": "AnjanurVemandampalayam BO",
    "district": "ERODE",
    "state": "TAMIL NADU",
    "pincode": "638462",
    "office_type": "BO",
    "delivery": true,
    "division": "Erode Division",
    "region": "Western Region Coimbatore",
    "circle": "Tamilnadu Circle",
    "latitude": 11.345927,
    "longitude": 77.263765
  },
  {
    "place_name": "Irugalur BO",
    "district": "ERODE",
    "state": "TAMIL NADU",
    "pincode": "638462",
    "office_type": "BO",
    "delivery": true,
    "division": "Erode Division",
    "region": "Western Region Coimbatore",
    "circle": "Tamilnadu Circle",
    "latitude": 11.373484,
    "longitude": 77.272692
  },
  {
    "place_name": "Madepalli B.O",
    "district": "KRISHNAGIRI",
    "state": "TAMIL NADU",
    "pincode": "635104",
    "office_type": "BO",
    "delivery": true,
    "division": "Krishnagiri Division",
    "region": "Western Region Coimbatore",
    "circle": "Tamilnadu Circle",
    "latitude": 12.5186203,
    "longitude": 78.2137275
  },
  {
    "place_name": "Oppadavadi B.O",
    "district": "KRISHNAGIRI",
    "state": "TAMIL NADU",
    "pincode": "635104",
    "office_type": "BO",
    "delivery": true,
    "division": "Krishnagiri Division",
    "region": "Western Region Coimbatore",
    "circle": "Tamilnadu Circle",
    "latitude": 12.5309879,
    "longitude": 78.2034533
  },
  {
    "place_name": "Nandimangalam B.O",
    "district": "KRISHNAGIRI",
    "state": "TAMIL NADU",
    "pincode": "635105",
    "office_type": "BO",
    "delivery": true,
    "division": "Krishnagiri Division",
    "region": "Western Region Coimbatore",
    "circle": "Tamilnadu Circle",
    "latitude": 12.8207,
    "longitude": 78.02152
  },
  {
    "place_name": "Errasigalahalli B.O",
    "district": "DHARMAPURI",
    "state": "TAMIL NADU",
    "pincode": "635106",
    "office_type": "BO",
    "delivery": true,
    "division": "Krishnagiri Division",
    "region": "Western Region Coimbatore",
    "circle": "Tamilnadu Circle",
    "latitude": 12.5186263,
    "longitude": 78.2137215
  },
  {
    "place_name": "Panakamutulu B.O",
    "district": "KRISHNAGIRI",
    "state": "TAMIL NADU",
    "pincode": "635106",
    "office_type": "BO",
    "delivery": true,
    "division": "Krishnagiri Division",
    "region": "Western Region Coimbatore",
    "circle": "Tamilnadu Circle",
    "latitude": 12.5186233,
    "longitude": 78.2137245
  },
  {
    "place_name": "Bikkanapalli B.O",
    "district": "KRISHNAGIRI",
    "state": "TAMIL NADU",
    "pincode": "635107",
    "office_type": "BO",
    "delivery": true,
    "division": "Krishnagiri Division",
    "region": "Western Region Coimbatore",
    "circle": "Tamilnadu Circle",
    "latitude": 12.6804102,
    "longitude": 78.0751654
  },
  {
    "place_name": "Devarulimangalam B.O",
    "district": "KRISHNAGIRI",
    "state": "TAMIL NADU",
    "pincode": "635107",
    "office_type": "BO",
    "delivery": true,
    "division": "Krishnagiri Division",
    "region": "Western Region Coimbatore",
    "circle": "Tamilnadu Circle",
    "latitude": 12.5498,
    "longitude": 77.8328
  },
  {
    "place_name": "Kundukottai B.O",
    "district": "KRISHNAGIRI",
    "state": "TAMIL NADU",
    "pincode": "635107",
    "office_type": "BO",
    "delivery": true,
    "division": "Krishnagiri Division",
    "region": "Western Region Coimbatore",
    "circle": "Tamilnadu Circle",
    "latitude": 12.5498,
    "longitude": 77.8328
  },
  {
    "place_name": "Balanayanapalli B.O",
    "district": "KRISHNAGIRI",
    "state": "TAMIL NADU",
    "pincode": "635108",
    "office_type": "BO",
    "delivery": true,
    "division": "Krishnagiri Division",
    "region": "Western Region Coimbatore",
    "circle": "Tamilnadu Circle",
    "latitude": 12.5186263,
    "longitude": 78.2137215
  },
  {
    "place_name": "Anandur B.O",
    "district": "KRISHNAGIRI",
    "state": "TAMIL NADU",
    "pincode": "635304",
    "office_type": "BO",
    "delivery": true,
    "division": "Krishnagiri Division",
    "region": "Western Region Coimbatore",
    "circle": "Tamilnadu Circle",
    "latitude": 12.2193,
    "longitude": 78.4689
  },
  {
    "place_name": "Sulakarai B.O",
    "district": "KRISHNAGIRI",
    "state": "TAMIL NADU",
    "pincode": "635304",
    "office_type": "BO",
    "delivery": true,
    "division": "Krishnagiri Division",
    "region": "Western Region Coimbatore",
    "circle": "Tamilnadu Circle",
    "latitude": 12.2193,
    "longitude": 78.4689
  },
  {
    "place_name": "Devarmukkulam B.O",
    "district": "DHARMAPURI",
    "state": "TAMIL NADU",
    "pincode": "635111",
    "office_type": "BO",
    "delivery": true,
    "division": "Krishnagiri Division",
    "region": "Western Region Coimbatore",
    "circle": "Tamilnadu Circle",
    "latitude": 12.3106,
    "longitude": 12.3106
  },
  {
    "place_name": "Kadhiripuram B.O",
    "district": "KRISHNAGIRI",
    "state": "TAMIL NADU",
    "pincode": "635112",
    "office_type": "BO",
    "delivery": true,
    "division": "Krishnagiri Division",
    "region": "Western Region Coimbatore",
    "circle": "Tamilnadu Circle",
    "latitude": 12.41445,
    "longitude": 78.2396
  },
  {
    "place_name": "Malaiyandahalli B.O",
    "district": "KRISHNAGIRI",
    "state": "TAMIL NADU",
    "pincode": "635112",
    "office_type": "BO",
    "delivery": true,
    "division": "Krishnagiri Division",
    "region": "Western Region Coimbatore",
    "circle": "Tamilnadu Circle",
    "latitude": 12.5186263,
    "longitude": 78.2137215
  },
  {
    "place_name": "Mottur B.O",
    "district": "KRISHNAGIRI",
    "state": "TAMIL NADU",
    "pincode": "635112",
    "office_type": "BO",
    "delivery": true,
    "division": "Krishnagiri Division",
    "region": "Western Region Coimbatore",
    "circle": "Tamilnadu Circle",
    "latitude": 12.5186173,
    "longitude": 78.2137305
  },
  {
    "place_name": "Nedungal B.O",
    "district": "KRISHNAGIRI",
    "state": "TAMIL NADU",
    "pincode": "635112",
    "office_type": "BO",
    "delivery": true,
    "division": "Krishnagiri Division",
    "region": "Western Region Coimbatore",
    "circle": "Tamilnadu Circle",
    "latitude": 12.5186193,
    "longitude": 78.2137285
  },
  {
    "place_name": "Bairamangalam B.O",
    "district": "KRISHNAGIRI",
    "state": "TAMIL NADU",
    "pincode": "635113",
    "office_type": "BO",
    "delivery": true,
    "division": "Krishnagiri Division",
    "region": "Western Region Coimbatore",
    "circle": "Tamilnadu Circle",
    "latitude": 12.5907,
    "longitude": 77.82955
  },
  {
    "place_name": "Jakkeri B.O",
    "district": "KRISHNAGIRI",
    "state": "TAMIL NADU",
    "pincode": "635113",
    "office_type": "BO",
    "delivery": true,
    "division": "Krishnagiri Division",
    "region": "Western Region Coimbatore",
    "circle": "Tamilnadu Circle",
    "latitude": 12.5907,
    "longitude": 77.82955
  },
  {
    "place_name": "Karupalli B.O",
    "district": "KRISHNAGIRI",
    "state": "TAMIL NADU",
    "pincode": "635113",
    "office_type": "BO",
    "delivery": true,
    "division": "Krishnagiri Division",
    "region": "Western Region Coimbatore",
    "circle": "Tamilnadu Circle",
    "latitude": 12.774751,
    "longitude": 77.8853082
  },
  {
    "place_name": "Pothinayanapalli B.O",
    "district": "KRISHNAGIRI",
    "state": "TAMIL NADU",
    "pincode": "635002",
    "office_type": "BO",
    "delivery": true,
    "division": "Krishnagiri Division",
    "region": "Western Region Coimbatore",
    "circle": "Tamilnadu Circle",
    "latitude": 12.5186346,
    "longitude": 78.2137125
  },
  {
    "place_name": "Kalvehalli B.O",
    "district": "KRISHNAGIRI",
    "state": "TAMIL NADU",
    "pincode": "635101",
    "office_type": "BO",
    "delivery": true,
    "division": "Krishnagiri Division",
    "region": "Western Region Coimbatore",
    "circle": "Tamilnadu Circle",
    "latitude": 12.5186213,
    "longitude": 78.2137265
  },
  {
    "place_name": "Sundekuppam B.O",
    "district": "KRISHNAGIRI",
    "state": "TAMIL NADU",
    "pincode": "635101",
    "office_type": "BO",
    "delivery": true,
    "division": "Krishnagiri Division",
    "region": "Western Region Coimbatore",
    "circle": "Tamilnadu Circle",
    "latitude": 12.5186223,
    "longitude": 78.2137255
  },
  {
    "place_name": "Aikondamkothapalli B.O",
    "district": "KRISHNAGIRI",
    "state": "TAMIL NADU",
    "pincode": "635203",
    "office_type": "BO",
    "delivery": true,
    "division": "Krishnagiri Division",
    "region": "Western Region Coimbatore",
    "circle": "Tamilnadu Circle",
    "latitude": 12.5309959,
    "longitude": 78.2034453
  },
  {
    "place_name": "Nakkalpatti B.O",
    "district": "KRISHNAGIRI",
    "state": "TAMIL NADU",
    "pincode": "635203",
    "office_type": "BO",
    "delivery": true,
    "division": "Krishnagiri Division",
    "region": "Western Region Coimbatore",
    "circle": "Tamilnadu Circle",
    "latitude": 12.5309889,
    "longitude": 78.2034523
  },
  {
    "place_name": "Sivampatti B.O",
    "district": "KRISHNAGIRI",
    "state": "TAMIL NADU",
    "pincode": "635203",
    "office_type": "BO",
    "delivery": true,
    "division": "Krishnagiri Division",
    "region": "Western Region Coimbatore",
    "circle": "Tamilnadu Circle",
    "latitude": 12.5309879,
    "longitude": 78.2034533
  },
  {
    "place_name": "Avathavadi B.O",
    "district": "KRISHNAGIRI",
    "state": "TAMIL NADU",
    "pincode": "635204",
    "office_type": "BO",
    "delivery": true,
    "division": "Krishnagiri Division",
    "region": "Western Region Coimbatore",
    "circle": "Tamilnadu Circle",
    "latitude": 12.27173,
    "longitude": 78.63435
  },
  {
    "place_name": "Marichettihalli B.O",
    "district": "KRISHNAGIRI",
    "state": "TAMIL NADU",
    "pincode": "635204",
    "office_type": "BO",
    "delivery": true,
    "division": "Krishnagiri Division",
    "region": "Western Region Coimbatore",
    "circle": "Tamilnadu Circle",
    "latitude": 12.5309929,
    "longitude": 78.2034483
  },
  {
    "place_name": "Thatrahalli B.O",
    "district": "KRISHNAGIRI",
    "state": "TAMIL NADU",
    "pincode": "635123",
    "office_type": "BO",
    "delivery": true,
    "division": "Krishnagiri Division",
    "region": "Western Region Coimbatore",
    "circle": "Tamilnadu Circle",
    "latitude": 12.3399447,
    "longitude": 78.2784942
  },
  {
    "place_name": "Vadamangalam B.O",
    "district": "KRISHNAGIRI",
    "state": "TAMIL NADU",
    "pincode": "635123",
    "office_type": "BO",
    "delivery": true,
    "division": "Krishnagiri Division",
    "region": "Western Region Coimbatore",
    "circle": "Tamilnadu Circle",
    "latitude": 12.5309899,
    "longitude": 78.2034513
  },
  {
    "place_name": "Puliampatti B.O",
    "district": "KRISHNAGIRI",
    "state": "TAMIL NADU",
    "pincode": "635206",
    "office_type": "BO",
    "delivery": true,
    "division": "Krishnagiri Division",
    "region": "Western Region Coimbatore",
    "circle": "Tamilnadu Circle",
    "latitude": 12.5309889,
    "longitude": 78.2034523
  },
  {
    "place_name": "Beerpalli B.O",
    "district": "KRISHNAGIRI",
    "state": "TAMIL NADU",
    "pincode": "635115",
    "office_type": "BO",
    "delivery": true,
    "division": "Krishnagiri Division",
    "region": "Western Region Coimbatore",
    "circle": "Tamilnadu Circle",
    "latitude": 13.03379,
    "longitude": 80.18074
  },
  {
    "place_name": "Billanakuppam B.O",
    "district": "KRISHNAGIRI",
    "state": "TAMIL NADU",
    "pincode": "635115",
    "office_type": "BO",
    "delivery": true,
    "division": "Krishnagiri Division",
    "region": "Western Region Coimbatore",
    "circle": "Tamilnadu Circle",
    "latitude": 13.03379,
    "longitude": 80.18074
  },
  {
    "place_name": "Bimandapalli B.O",
    "district": "KRISHNAGIRI",
    "state": "TAMIL NADU",
    "pincode": "635115",
    "office_type": "BO",
    "delivery": true,
    "division": "Krishnagiri Division",
    "region": "Western Region Coimbatore",
    "circle": "Tamilnadu Circle",
    "latitude": 13.03379,
    "longitude": 80.18074
  },
  {
    "place_name": "Baliganur B.O",
    "district": "KRISHNAGIRI",
    "state": "TAMIL NADU",
    "pincode": "635116",
    "office_type": "BO",
    "delivery": true,
    "division": "Krishnagiri Division",
    "region": "Western Region Coimbatore",
    "circle": "Tamilnadu Circle",
    "latitude": 12.51205,
    "longitude": 78.0265
  },
  {
    "place_name": "Andiyur B.O",
    "district": "KRISHNAGIRI",
    "state": "TAMIL NADU",
    "pincode": "635307",
    "office_type": "BO",
    "delivery": true,
    "division": "Krishnagiri Division",
    "region": "Western Region Coimbatore",
    "circle": "Tamilnadu Circle",
    "latitude": 12.25075,
    "longitude": 78.63313
  },
  {
    "place_name": "Maganurpatti B.O",
    "district": "KRISHNAGIRI",
    "state": "TAMIL NADU",
    "pincode": "635307",
    "office_type": "BO",
    "delivery": true,
    "division": "Krishnagiri Division",
    "region": "Western Region Coimbatore",
    "circle": "Tamilnadu Circle",
    "latitude": 12.3318295,
    "longitude": 78.5807997
  },
  {
    "place_name": "Mittapalli B.O",
    "district": "KRISHNAGIRI",
    "state": "TAMIL NADU",
    "pincode": "635307",
    "office_type": "BO",
    "delivery": true,
    "division": "Krishnagiri Division",
    "region": "Western Region Coimbatore",
    "circle": "Tamilnadu Circle",
    "latitude": 12.25075,
    "longitude": 78.63313
  },
  {
    "place_name": "Nadupatti B.O",
    "district": "KRISHNAGIRI",
    "state": "TAMIL NADU",
    "pincode": "635307",
    "office_type": "BO",
    "delivery": true,
    "division": "Krishnagiri Division",
    "region": "Western Region Coimbatore",
    "circle": "Tamilnadu Circle",
    "latitude": 12.5309869,
    "longitude": 78.2034543
  },
  {
    "place_name": "Binnamangalam B.O",
    "district": "KRISHNAGIRI",
    "state": "TAMIL NADU",
    "pincode": "635118",
    "office_type": "BO",
    "delivery": true,
    "division": "Krishnagiri Division",
    "region": "Western Region Coimbatore",
    "circle": "Tamilnadu Circle",
    "latitude": 12.5498,
    "longitude": 77.66064
  },
  {
    "place_name": "Senamavu B.O",
    "district": "KRISHNAGIRI",
    "state": "TAMIL NADU",
    "pincode": "635119",
    "office_type": "BO",
    "delivery": true,
    "division": "Krishnagiri Division",
    "region": "Western Region Coimbatore",
    "circle": "Tamilnadu Circle",
    "latitude": 12.733035,
    "longitude": 77.830152
  },
  {
    "place_name": "Thuppuganapalli B.O",
    "district": "KRISHNAGIRI",
    "state": "TAMIL NADU",
    "pincode": "635119",
    "office_type": "BO",
    "delivery": true,
    "division": "Krishnagiri Division",
    "region": "Western Region Coimbatore",
    "circle": "Tamilnadu Circle",
    "latitude": 12.60645,
    "longitude": 77.94255
  },
  {
    "place_name": "Mannadapatti B.O",
    "district": "KRISHNAGIRI",
    "state": "TAMIL NADU",
    "pincode": "635207",
    "office_type": "BO",
    "delivery": true,
    "division": "Krishnagiri Division",
    "region": "Western Region Coimbatore",
    "circle": "Tamilnadu Circle",
    "latitude": 12.26025,
    "longitude": 78.48825
  },
  {
    "place_name": "Kammampalli B.O",
    "district": "KRISHNAGIRI",
    "state": "TAMIL NADU",
    "pincode": "635120",
    "office_type": "BO",
    "delivery": true,
    "division": "Krishnagiri Division",
    "region": "Western Region Coimbatore",
    "circle": "Tamilnadu Circle",
    "latitude": 12.5186223,
    "longitude": 78.2137255
  },
  {
    "place_name": "Maharajakadai B.O",
    "district": "KRISHNAGIRI",
    "state": "TAMIL NADU",
    "pincode": "635120",
    "office_type": "BO",
    "delivery": true,
    "division": "Krishnagiri Division",
    "region": "Western Region Coimbatore",
    "circle": "Tamilnadu Circle",
    "latitude": 12.5328568,
    "longitude": 78.2187851
  },
  {
    "place_name": "Kottur B.O",
    "district": "KRISHNAGIRI",
    "state": "TAMIL NADU",
    "pincode": "635121",
    "office_type": "BO",
    "delivery": true,
    "division": "Krishnagiri Division",
    "region": "Western Region Coimbatore",
    "circle": "Tamilnadu Circle",
    "latitude": 12.7229,
    "longitude": 78.16554
  },
  {
    "place_name": "Neralagiri B.O",
    "district": "KRISHNAGIRI",
    "state": "TAMIL NADU",
    "pincode": "635121",
    "office_type": "BO",
    "delivery": true,
    "division": "Krishnagiri Division",
    "region": "Western Region Coimbatore",
    "circle": "Tamilnadu Circle",
    "latitude": 12.5186,
    "longitude": 78.2137
  },
  {
    "place_name": "Sanyasikaradu B.O",
    "district": "NAMAKKAL",
    "state": "TAMIL NADU",
    "pincode": "637002",
    "office_type": "BO",
    "delivery": true,
    "division": "Namakkal Division",
    "region": "Western Region Coimbatore",
    "circle": "Tamilnadu Circle",
    "latitude": 11.184854,
    "longitude": 78.169308
  },
  {
    "place_name": "Reddipudur B.O",
    "district": "NAMAKKAL",
    "state": "TAMIL NADU",
    "pincode": "637014",
    "office_type": "BO",
    "delivery": true,
    "division": "Namakkal Division",
    "region": "Western Region Coimbatore",
    "circle": "Tamilnadu Circle",
    "latitude": 11.350641,
    "longitude": 78.151989
  },
  {
    "place_name": "Ariyur B.O",
    "district": "NAMAKKAL",
    "state": "TAMIL NADU",
    "pincode": "637015",
    "office_type": "BO",
    "delivery": true,
    "division": "Namakkal Division",
    "region": "Western Region Coimbatore",
    "circle": "Tamilnadu Circle",
    "latitude": 11.100702,
    "longitude": 78.132763
  },
  {
    "place_name": "Oruvandur B.O",
    "district": "NAMAKKAL",
    "state": "TAMIL NADU",
    "pincode": "637015",
    "office_type": "BO",
    "delivery": true,
    "division": "Namakkal Division",
    "region": "Western Region Coimbatore",
    "circle": "Tamilnadu Circle",
    "latitude": 11.04577,
    "longitude": 78.157482
  },
  {
    "place_name": "Vallipuram B.O",
    "district": "NAMAKKAL",
    "state": "TAMIL NADU",
    "pincode": "637003",
    "office_type": "BO",
    "delivery": true,
    "division": "Namakkal Division",
    "region": "Western Region Coimbatore",
    "circle": "Tamilnadu Circle",
    "latitude": 11.218805,
    "longitude": 78.116283
  },
  {
    "place_name": "Dhathathiripuram B.O",
    "district": "NAMAKKAL",
    "state": "TAMIL NADU",
    "pincode": "637018",
    "office_type": "BO",
    "delivery": true,
    "division": "Namakkal Division",
    "region": "Western Region Coimbatore",
    "circle": "Tamilnadu Circle",
    "latitude": 11.347894,
    "longitude": 78.124523
  },
  {
    "place_name": "Navanipallipatti B.O",
    "district": "NAMAKKAL",
    "state": "TAMIL NADU",
    "pincode": "637018",
    "office_type": "BO",
    "delivery": true,
    "division": "Namakkal Division",
    "region": "Western Region Coimbatore",
    "circle": "Tamilnadu Circle",
    "latitude": 11.369867,
    "longitude": 78.130016
  },
  {
    "place_name": "Veppampattiypudur B.O",
    "district": "NAMAKKAL",
    "state": "TAMIL NADU",
    "pincode": "637018",
    "office_type": "BO",
    "delivery": true,
    "division": "Namakkal Division",
    "region": "Western Region Coimbatore",
    "circle": "Tamilnadu Circle",
    "latitude": 11.380853,
    "longitude": 78.080578
  },
  {
    "place_name": "Kolathupalayam B.O",
    "district": "NAMAKKAL",
    "state": "TAMIL NADU",
    "pincode": "637019",
    "office_type": "BO",
    "delivery": true,
    "division": "Namakkal Division",
    "region": "Western Region Coimbatore",
    "circle": "Tamilnadu Circle",
    "latitude": 11.342401,
    "longitude": 78.121776
  },
  {
    "place_name": "Minnampalli B.O",
    "district": "NAMAKKAL",
    "state": "TAMIL NADU",
    "pincode": "637019",
    "office_type": "BO",
    "delivery": true,
    "division": "Namakkal Division",
    "region": "Western Region Coimbatore",
    "circle": "Tamilnadu Circle",
    "latitude": 11.323175,
    "longitude": 78.179455
  },
  {
    "place_name": "S.Uduppam B.O",
    "district": "NAMAKKAL",
    "state": "TAMIL NADU",
    "pincode": "637019",
    "office_type": "BO",
    "delivery": true,
    "division": "Namakkal Division",
    "region": "Western Region Coimbatore",
    "circle": "Tamilnadu Circle",
    "latitude": 11.334161,
    "longitude": 78.135509
  },
  {
    "place_name": "Bailnadu B.O",
    "district": "NAMAKKAL",
    "state": "TAMIL NADU",
    "pincode": "637411",
    "office_type": "BO",
    "delivery": true,
    "division": "Namakkal Division",
    "region": "Western Region Coimbatore",
    "circle": "Tamilnadu Circle",
    "latitude": 11.3940833,
    "longitude": 78.3280783
  },
  {
    "place_name": "Devanurnadu B.O",
    "district": "NAMAKKAL",
    "state": "TAMIL NADU",
    "pincode": "637411",
    "office_type": "BO",
    "delivery": true,
    "division": "Namakkal Division",
    "region": "Western Region Coimbatore",
    "circle": "Tamilnadu Circle",
    "latitude": 11.2234029,
    "longitude": 78.3864774
  },
  {
    "place_name": "Melkalingampatti B.O",
    "district": "NAMAKKAL",
    "state": "TAMIL NADU",
    "pincode": "637411",
    "office_type": "BO",
    "delivery": true,
    "division": "Namakkal Division",
    "region": "Western Region Coimbatore",
    "circle": "Tamilnadu Circle",
    "latitude": 11.2804671,
    "longitude": 78.3759978
  },
  {
    "place_name": "Navakkadu B.O",
    "district": "NAMAKKAL",
    "state": "TAMIL NADU",
    "pincode": "637411",
    "office_type": "BO",
    "delivery": true,
    "division": "Namakkal Division",
    "region": "Western Region Coimbatore",
    "circle": "Tamilnadu Circle",
    "latitude": 11.3856033,
    "longitude": 78.33904
  },
  {
    "place_name": "Perakkarainadu B.O",
    "district": "NAMAKKAL",
    "state": "TAMIL NADU",
    "pincode": "637411",
    "office_type": "BO",
    "delivery": true,
    "division": "Namakkal Division",
    "region": "Western Region Coimbatore",
    "circle": "Tamilnadu Circle",
    "latitude": 11.3919183,
    "longitude": 78.3148666
  },
  {
    "place_name": "Periyakovilur B.O",
    "district": "NAMAKKAL",
    "state": "TAMIL NADU",
    "pincode": "637411",
    "office_type": "BO",
    "delivery": true,
    "division": "Namakkal Division",
    "region": "Western Region Coimbatore",
    "circle": "Tamilnadu Circle",
    "latitude": 11.2614027,
    "longitude": 78.3847907
  },
  {
    "place_name": "Thuvarapallam B.O",
    "district": "NAMAKKAL",
    "state": "TAMIL NADU",
    "pincode": "637411",
    "office_type": "BO",
    "delivery": true,
    "division": "Namakkal Division",
    "region": "Western Region Coimbatore",
    "circle": "Tamilnadu Circle",
    "latitude": 11.3444949,
    "longitude": 78.3833266
  },
  {
    "place_name": "Veeraganurpatti B.O",
    "district": "NAMAKKAL",
    "state": "TAMIL NADU",
    "pincode": "637411",
    "office_type": "BO",
    "delivery": true,
    "division": "Namakkal Division",
    "region": "Western Region Coimbatore",
    "circle": "Tamilnadu Circle",
    "latitude": 11.2217928,
    "longitude": 78.3088096
  },
  {
    "place_name": "Gandhipuram B.O",
    "district": "NAMAKKAL",
    "state": "TAMIL NADU",
    "pincode": "637409",
    "office_type": "BO",
    "delivery": false,
    "division": "Namakkal Division",
    "region": "Western Region Coimbatore",
    "circle": "Tamilnadu Circle",
    "latitude": 11.293585,
    "longitude": 78.2362749
  },
  {
    "place_name": "Ramanadapuram B.O",
    "district": "NAMAKKAL",
    "state": "TAMIL NADU",
    "pincode": "637409",
    "office_type": "BO",
    "delivery": true,
    "division": "Namakkal Division",
    "region": "Western Region Coimbatore",
    "circle": "Tamilnadu Circle",
    "latitude": 11.2953633,
    "longitude": 78.2602316
  },
  {
    "place_name": "Pavithirampudur B.O",
    "district": "NAMAKKAL",
    "state": "TAMIL NADU",
    "pincode": "637021",
    "office_type": "BO",
    "delivery": true,
    "division": "Namakkal Division",
    "region": "Western Region Coimbatore",
    "circle": "Tamilnadu Circle",
    "latitude": 11.153754,
    "longitude": 78.376369
  },
  {
    "place_name": "Bommanpatti B.O",
    "district": "NAMAKKAL",
    "state": "TAMIL NADU",
    "pincode": "637212",
    "office_type": "BO",
    "delivery": true,
    "division": "Namakkal Division",
    "region": "Western Region Coimbatore",
    "circle": "Tamilnadu Circle",
    "latitude": 11.299323,
    "longitude": 78.104458
  },
  {
    "place_name": "Karichchipalayam B.O",
    "district": "NAMAKKAL",
    "state": "TAMIL NADU",
    "pincode": "637201",
    "office_type": "BO",
    "delivery": true,
    "division": "Namakkal Division",
    "region": "Western Region Coimbatore",
    "circle": "Tamilnadu Circle",
    "latitude": 11.302236,
    "longitude": 77.977407
  },
  {
    "place_name": "Molippalli B.O",
    "district": "NAMAKKAL",
    "state": "TAMIL NADU",
    "pincode": "637201",
    "office_type": "BO",
    "delivery": true,
    "division": "Namakkal Division",
    "region": "Western Region Coimbatore",
    "circle": "Tamilnadu Circle",
    "latitude": 11.320394,
    "longitude": 77.963521
  },
  {
    "place_name": "Koothampoondi B.O",
    "district": "NAMAKKAL",
    "state": "TAMIL NADU",
    "pincode": "637202",
    "office_type": "BO",
    "delivery": true,
    "division": "Namakkal Division",
    "region": "Western Region Coimbatore",
    "circle": "Tamilnadu Circle",
    "latitude": 11.307742,
    "longitude": 78.005859
  },
  {
    "place_name": "Ramapuram B.O",
    "district": "NAMAKKAL",
    "state": "TAMIL NADU",
    "pincode": "637202",
    "office_type": "BO",
    "delivery": true,
    "division": "Namakkal Division",
    "region": "Western Region Coimbatore",
    "circle": "Tamilnadu Circle",
    "latitude": 11.439234,
    "longitude": 78.003799
  },
  {
    "place_name": "Alachampalayam B.O",
    "district": "SALEM",
    "state": "TAMIL NADU",
    "pincode": "637101",
    "office_type": "BO",
    "delivery": true,
    "division": "Namakkal Division",
    "region": "Western Region Coimbatore",
    "circle": "Tamilnadu Circle",
    "latitude": 11.580887,
    "longitude": 77.819262
  },
  {
    "place_name": "Chittoor B.O",
    "district": "SALEM",
    "state": "TAMIL NADU",
    "pincode": "637101",
    "office_type": "BO",
    "delivery": true,
    "division": "Namakkal Division",
    "region": "Western Region Coimbatore",
    "circle": "Tamilnadu Circle",
    "latitude": 11.642389,
    "longitude": 77.823315
  },
  {
    "place_name": "Kurumbalamahadevi B.O",
    "district": "NAMAKKAL",
    "state": "TAMIL NADU",
    "pincode": "637213",
    "office_type": "BO",
    "delivery": true,
    "division": "Namakkal Division",
    "region": "Western Region Coimbatore",
    "circle": "Tamilnadu Circle",
    "latitude": 11.2039653,
    "longitude": 77.8698707
  },
  {
    "place_name": "Kallankattuvalasu B.O",
    "district": "NAMAKKAL",
    "state": "TAMIL NADU",
    "pincode": "638183",
    "office_type": "BO",
    "delivery": true,
    "division": "Namakkal Division",
    "region": "Western Region Coimbatore",
    "circle": "Tamilnadu Circle",
    "latitude": 11.4295578,
    "longitude": 77.7249723
  },
  {
    "place_name": "Erumaipatti B.O",
    "district": "SALEM",
    "state": "TAMIL NADU",
    "pincode": "637102",
    "office_type": "BO",
    "delivery": false,
    "division": "Namakkal Division",
    "region": "Western Region Coimbatore",
    "circle": "Tamilnadu Circle",
    "latitude": 11.562944,
    "longitude": 77.9167556
  },
  {
    "place_name": "K.Vadugapatti B.O",
    "district": "SALEM",
    "state": "TAMIL NADU",
    "pincode": "637102",
    "office_type": "BO",
    "delivery": true,
    "division": "Namakkal Division",
    "region": "Western Region Coimbatore",
    "circle": "Tamilnadu Circle",
    "latitude": 11.5947926,
    "longitude": 77.9480141
  },
  {
    "place_name": "Animoor B.O",
    "district": "NAMAKKAL",
    "state": "TAMIL NADU",
    "pincode": "637214",
    "office_type": "BO",
    "delivery": true,
    "division": "Namakkal Division",
    "region": "Western Region Coimbatore",
    "circle": "Tamilnadu Circle",
    "latitude": 11.3384399,
    "longitude": 77.8716483
  },
  {
    "place_name": "Kuppandapalayam B.O",
    "district": "NAMAKKAL",
    "state": "TAMIL NADU",
    "pincode": "637205",
    "office_type": "BO",
    "delivery": true,
    "division": "Namakkal Division",
    "region": "Western Region Coimbatore",
    "circle": "Tamilnadu Circle",
    "latitude": 11.39461,
    "longitude": 77.9450983
  },
  {
    "place_name": "Unjanai B.O",
    "district": "NAMAKKAL",
    "state": "TAMIL NADU",
    "pincode": "637205",
    "office_type": "BO",
    "delivery": true,
    "division": "Namakkal Division",
    "region": "Western Region Coimbatore",
    "circle": "Tamilnadu Circle",
    "latitude": 11.3983,
    "longitude": 77.86915
  },
  {
    "place_name": "Vattur B.O",
    "district": "NAMAKKAL",
    "state": "TAMIL NADU",
    "pincode": "637205",
    "office_type": "BO",
    "delivery": true,
    "division": "Namakkal Division",
    "region": "Western Region Coimbatore",
    "circle": "Tamilnadu Circle",
    "latitude": 11.4215,
    "longitude": 77.9576566
  },
  {
    "place_name": "Irugalur B.O",
    "district": "SALEM",
    "state": "TAMIL NADU",
    "pincode": "637103",
    "office_type": "BO",
    "delivery": true,
    "division": "Namakkal Division",
    "region": "Western Region Coimbatore",
    "circle": "Tamilnadu Circle",
    "latitude": 11.5336275,
    "longitude": 77.9581528
  },
  {
    "place_name": "Karumanur B.O",
    "district": "NAMAKKAL",
    "state": "TAMIL NADU",
    "pincode": "637503",
    "office_type": "BO",
    "delivery": true,
    "division": "Namakkal Division",
    "region": "Western Region Coimbatore",
    "circle": "Tamilnadu Circle",
    "latitude": 11.4658731,
    "longitude": 78.000213
  },
  {
    "place_name": "N.Seerapalli B.O",
    "district": "NAMAKKAL",
    "state": "TAMIL NADU",
    "pincode": "637206",
    "office_type": "BO",
    "delivery": false,
    "division": "Namakkal Division",
    "region": "Western Region Coimbatore",
    "circle": "Tamilnadu Circle",
    "latitude": 11.207351,
    "longitude": 77.964654
  },
  {
    "place_name": "Alampalayam B.O",
    "district": "NAMAKKAL",
    "state": "TAMIL NADU",
    "pincode": "638008",
    "office_type": "BO",
    "delivery": true,
    "division": "Namakkal Division",
    "region": "Western Region Coimbatore",
    "circle": "Tamilnadu Circle",
    "latitude": 11.36694,
    "longitude": 77.7685616
  },
  {
    "place_name": "Elandakuttai B.O",
    "district": "NAMAKKAL",
    "state": "TAMIL NADU",
    "pincode": "638008",
    "office_type": "BO",
    "delivery": true,
    "division": "Namakkal Division",
    "region": "Western Region Coimbatore",
    "circle": "Tamilnadu Circle",
    "latitude": 11.4056133,
    "longitude": 77.7751716
  },
  {
    "place_name": "SamayaSangiliAgragaram B.O",
    "district": "NAMAKKAL",
    "state": "TAMIL NADU",
    "pincode": "638008",
    "office_type": "BO",
    "delivery": true,
    "division": "Namakkal Division",
    "region": "Western Region Coimbatore",
    "circle": "Tamilnadu Circle",
    "latitude": 11.380972,
    "longitude": 77.716567
  },
  {
    "place_name": "M.Rasampalayam B.O",
    "district": "NAMAKKAL",
    "state": "TAMIL NADU",
    "pincode": "637207",
    "office_type": "BO",
    "delivery": true,
    "division": "Namakkal Division",
    "region": "Western Region Coimbatore",
    "circle": "Tamilnadu Circle",
    "latitude": 11.215806,
    "longitude": 78.106248
  },
  {
    "place_name": "Thindamangalam B.O",
    "district": "NAMAKKAL",
    "state": "TAMIL NADU",
    "pincode": "637207",
    "office_type": "BO",
    "delivery": true,
    "division": "Namakkal Division",
    "region": "Western Region Coimbatore",
    "circle": "Tamilnadu Circle",
    "latitude": 11.259752,
    "longitude": 78.084276
  },
  {
    "place_name": "Vengarai B.O",
    "district": "NAMAKKAL",
    "state": "TAMIL NADU",
    "pincode": "637208",
    "office_type": "BO",
    "delivery": true,
    "division": "Namakkal Division",
    "region": "Western Region Coimbatore",
    "circle": "Tamilnadu Circle",
    "latitude": 11.138902,
    "longitude": 77.930467
  },
  {
    "place_name": "Thirumangalam B.O",
    "district": "NAMAKKAL",
    "state": "TAMIL NADU",
    "pincode": "637302",
    "office_type": "BO",
    "delivery": true,
    "division": "Namakkal Division",
    "region": "Western Region Coimbatore",
    "circle": "Tamilnadu Circle",
    "latitude": 11.4329133,
    "longitude": 77.9374783
  },
  {
    "place_name": "Kuppanur B.O",
    "district": "SALEM",
    "state": "TAMIL NADU",
    "pincode": "637301",
    "office_type": "BO",
    "delivery": false,
    "division": "Namakkal Division",
    "region": "Western Region Coimbatore",
    "circle": "Tamilnadu Circle",
    "latitude": 11.4962783,
    "longitude": 77.8651883
  },
  {
    "place_name": "Mavelipalayam B.O",
    "district": "SALEM",
    "state": "TAMIL NADU",
    "pincode": "637301",
    "office_type": "BO",
    "delivery": true,
    "division": "Namakkal Division",
    "region": "Western Region Coimbatore",
    "circle": "Tamilnadu Circle",
    "latitude": 11.47865,
    "longitude": 77.9016383
  },
  {
    "place_name": "Chinnathambipalayam B.O",
    "district": "NAMAKKAL",
    "state": "TAMIL NADU",
    "pincode": "637209",
    "office_type": "BO",
    "delivery": true,
    "division": "Namakkal Division",
    "region": "Western Region Coimbatore",
    "circle": "Tamilnadu Circle",
    "latitude": 11.4176375,
    "longitude": 77.9353935
  },
  {
    "place_name": "Devanankurichi B.O",
    "district": "NAMAKKAL",
    "state": "TAMIL NADU",
    "pincode": "637209",
    "office_type": "BO",
    "delivery": true,
    "division": "Namakkal Division",
    "region": "Western Region Coimbatore",
    "circle": "Tamilnadu Circle",
    "latitude": 11.3894554,
    "longitude": 77.8570253
  },
  {
    "place_name": "Sirumolasi B.O",
    "district": "NAMAKKAL",
    "state": "TAMIL NADU",
    "pincode": "637209",
    "office_type": "BO",
    "delivery": true,
    "division": "Namakkal Division",
    "region": "Western Region Coimbatore",
    "circle": "Tamilnadu Circle",
    "latitude": 11.330365,
    "longitude": 77.884413
  },
  {
    "place_name": "Goundampalayam B.O",
    "district": "NAMAKKAL",
    "state": "TAMIL NADU",
    "pincode": "637210",
    "office_type": "BO",
    "delivery": true,
    "division": "Namakkal Division",
    "region": "Western Region Coimbatore",
    "circle": "Tamilnadu Circle",
    "latitude": 11.302766,
    "longitude": 77.797157
  },
  {
    "place_name": "Karuveppampatti B.O",
    "district": "NAMAKKAL",
    "state": "TAMIL NADU",
    "pincode": "637304",
    "office_type": "BO",
    "delivery": true,
    "division": "Namakkal Division",
    "region": "Western Region Coimbatore",
    "circle": "Tamilnadu Circle",
    "latitude": 11.398941,
    "longitude": 77.8746864
  },
  {
    "place_name": "Modamangalam B.O",
    "district": "NAMAKKAL",
    "state": "TAMIL NADU",
    "pincode": "637304",
    "office_type": "BO",
    "delivery": false,
    "division": "Namakkal Division",
    "region": "Western Region Coimbatore",
    "circle": "Tamilnadu Circle",
    "latitude": 11.425188,
    "longitude": 77.825655
  },
  {
    "place_name": "Vengipalayam B.O",
    "district": "SALEM",
    "state": "TAMIL NADU",
    "pincode": "637304",
    "office_type": "BO",
    "delivery": true,
    "division": "Namakkal Division",
    "region": "Western Region Coimbatore",
    "circle": "Tamilnadu Circle",
    "latitude": 11.423516,
    "longitude": 77.84244
  },
  {
    "place_name": "Kaveripatti B.O",
    "district": "SALEM",
    "state": "TAMIL NADU",
    "pincode": "637104",
    "office_type": "BO",
    "delivery": true,
    "division": "Namakkal Division",
    "region": "Western Region Coimbatore",
    "circle": "Tamilnadu Circle",
    "latitude": 11.5417542,
    "longitude": 77.7321471
  },
  {
    "place_name": "Mettangadu B.O",
    "district": "SALEM",
    "state": "TAMIL NADU",
    "pincode": "637104",
    "office_type": "BO",
    "delivery": true,
    "division": "Namakkal Division",
    "region": "Western Region Coimbatore",
    "circle": "Tamilnadu Circle",
    "latitude": 11.5606087,
    "longitude": 77.7494086
  },
  {
    "place_name": "Pullagoundampatti B.O",
    "district": "SALEM",
    "state": "TAMIL NADU",
    "pincode": "637104",
    "office_type": "BO",
    "delivery": true,
    "division": "Namakkal Division",
    "region": "Western Region Coimbatore",
    "circle": "Tamilnadu Circle",
    "latitude": 11.53193,
    "longitude": 77.688326
  },
  {
    "place_name": "Vembaneri B.O",
    "district": "SALEM",
    "state": "TAMIL NADU",
    "pincode": "637105",
    "office_type": "BO",
    "delivery": true,
    "division": "Namakkal Division",
    "region": "Western Region Coimbatore",
    "circle": "Tamilnadu Circle",
    "latitude": 11.685739,
    "longitude": 77.897067
  },
  {
    "place_name": "Nanjai Edaiyar B.O",
    "district": "NAMAKKAL",
    "state": "TAMIL NADU",
    "pincode": "638182",
    "office_type": "BO",
    "delivery": true,
    "division": "Namakkal Division",
    "region": "Western Region Coimbatore",
    "circle": "Tamilnadu Circle",
    "latitude": 11.125436,
    "longitude": 78.072848
  },
  {
    "place_name": "Hulical B.O",
    "district": "THE NILGIRIS",
    "state": "TAMIL NADU",
    "pincode": "643102",
    "office_type": "BO",
    "delivery": true,
    "division": "Nilgiris Division",
    "region": "Western Region Coimbatore",
    "circle": "Tamilnadu Circle",
    "latitude": 11.319774,
    "longitude": 76.773169
  },
  {
    "place_name": "Karumbalam B.O",
    "district": "THE NILGIRIS",
    "state": "TAMIL NADU",
    "pincode": "643102",
    "office_type": "BO",
    "delivery": true,
    "division": "Nilgiris Division",
    "region": "Western Region Coimbatore",
    "circle": "Tamilnadu Circle",
    "latitude": 11.332287,
    "longitude": 76.758041
  },
  {
    "place_name": "Vannarpet B.O",
    "district": "THE NILGIRIS",
    "state": "TAMIL NADU",
    "pincode": "643102",
    "office_type": "BO",
    "delivery": false,
    "division": "Nilgiris Division",
    "region": "Western Region Coimbatore",
    "circle": "Tamilnadu Circle",
    "latitude": 11.3536206,
    "longitude": 76.7909862
  },
  {
    "place_name": "T.Manihatti B.O",
    "district": "THE NILGIRIS",
    "state": "TAMIL NADU",
    "pincode": "643214",
    "office_type": "BO",
    "delivery": true,
    "division": "Nilgiris Division",
    "region": "Western Region Coimbatore",
    "circle": "Tamilnadu Circle",
    "latitude": 11.424951,
    "longitude": 76.78739
  },
  {
    "place_name": "Kadinamalai B.O",
    "district": "THE NILGIRIS",
    "state": "TAMIL NADU",
    "pincode": "643216",
    "office_type": "BO",
    "delivery": true,
    "division": "Nilgiris Division",
    "region": "Western Region Coimbatore",
    "circle": "Tamilnadu Circle",
    "latitude": 11.43,
    "longitude": 77
  },
  {
    "place_name": "Gundada B.O",
    "district": "THE NILGIRIS",
    "state": "TAMIL NADU",
    "pincode": "643217",
    "office_type": "BO",
    "delivery": true,
    "division": "Nilgiris Division",
    "region": "Western Region Coimbatore",
    "circle": "Tamilnadu Circle",
    "latitude": 11.442762,
    "longitude": 76.835337
  },
  {
    "place_name": "Nedugula B.O",
    "district": "THE NILGIRIS",
    "state": "TAMIL NADU",
    "pincode": "643217",
    "office_type": "BO",
    "delivery": true,
    "division": "Nilgiris Division",
    "region": "Western Region Coimbatore",
    "circle": "Tamilnadu Circle",
    "latitude": 11.476884,
    "longitude": 76.890472
  },
  {
    "place_name": "Kinnakorai B.O",
    "district": "THE NILGIRIS",
    "state": "TAMIL NADU",
    "pincode": "643219",
    "office_type": "BO",
    "delivery": true,
    "division": "Nilgiris Division",
    "region": "Western Region Coimbatore",
    "circle": "Tamilnadu Circle",
    "latitude": 11.218872,
    "longitude": 76.66329
  },
  {
    "place_name": "Manjoor B.O",
    "district": "THE NILGIRIS",
    "state": "TAMIL NADU",
    "pincode": "643219",
    "office_type": "BO",
    "delivery": false,
    "division": "Nilgiris Division",
    "region": "Western Region Coimbatore",
    "circle": "Tamilnadu Circle",
    "latitude": 11.271724,
    "longitude": 76.644723
  },
  {
    "place_name": "Araihatty B.O",
    "district": "THE NILGIRIS",
    "state": "TAMIL NADU",
    "pincode": "643221",
    "office_type": "BO",
    "delivery": true,
    "division": "Nilgiris Division",
    "region": "Western Region Coimbatore",
    "circle": "Tamilnadu Circle",
    "latitude": 11.292057,
    "longitude": 76.718516
  },
  {
    "place_name": "Pilloormattam B.O",
    "district": "THE NILGIRIS",
    "state": "TAMIL NADU",
    "pincode": "643238",
    "office_type": "BO",
    "delivery": true,
    "division": "Nilgiris Division",
    "region": "Western Region Coimbatore",
    "circle": "Tamilnadu Circle",
    "latitude": 11.296282,
    "longitude": 76.776044
  },
  {
    "place_name": "Bickatti B.O",
    "district": "THE NILGIRIS",
    "state": "TAMIL NADU",
    "pincode": "643209",
    "office_type": "BO",
    "delivery": true,
    "division": "Nilgiris Division",
    "region": "Western Region Coimbatore",
    "circle": "Tamilnadu Circle",
    "latitude": 11.465428,
    "longitude": 76.685666
  },
  {
    "place_name": "Mulligoor B.O",
    "district": "THE NILGIRIS",
    "state": "TAMIL NADU",
    "pincode": "643209",
    "office_type": "BO",
    "delivery": true,
    "division": "Nilgiris Division",
    "region": "Western Region Coimbatore",
    "circle": "Tamilnadu Circle",
    "latitude": 11.280251,
    "longitude": 76.618888
  },
  {
    "place_name": "Kuruthukuli B.O",
    "district": "THE NILGIRIS",
    "state": "TAMIL NADU",
    "pincode": "643004",
    "office_type": "BO",
    "delivery": true,
    "division": "Nilgiris Division",
    "region": "Western Region Coimbatore",
    "circle": "Tamilnadu Circle",
    "latitude": 11.38919,
    "longitude": 76.643076
  },
  {
    "place_name": "Sree Madurai B.O",
    "district": "THE NILGIRIS",
    "state": "TAMIL NADU",
    "pincode": "643212",
    "office_type": "BO",
    "delivery": true,
    "division": "Nilgiris Division",
    "region": "Western Region Coimbatore",
    "circle": "Tamilnadu Circle",
    "latitude": 11.55,
    "longitude": 76.5
  },
  {
    "place_name": "Cherumulli B.O",
    "district": "THE NILGIRIS",
    "state": "TAMIL NADU",
    "pincode": "643211",
    "office_type": "BO",
    "delivery": true,
    "division": "Nilgiris Division",
    "region": "Western Region Coimbatore",
    "circle": "Tamilnadu Circle",
    "latitude": 11.439208,
    "longitude": 76.796762
  },
  {
    "place_name": "Nadugani B.O",
    "district": "THE NILGIRIS",
    "state": "TAMIL NADU",
    "pincode": "643211",
    "office_type": "BO",
    "delivery": true,
    "division": "Nilgiris Division",
    "region": "Western Region Coimbatore",
    "circle": "Tamilnadu Circle",
    "latitude": 11.471813,
    "longitude": 76.410686
  },
  {
    "place_name": "Kalhatti B.O",
    "district": "THE NILGIRIS",
    "state": "TAMIL NADU",
    "pincode": "643005",
    "office_type": "BO",
    "delivery": true,
    "division": "Nilgiris Division",
    "region": "Western Region Coimbatore",
    "circle": "Tamilnadu Circle",
    "latitude": 11.484025,
    "longitude": 76.687097
  },
  {
    "place_name": "T R Bazaar B.O",
    "district": "THE NILGIRIS",
    "state": "TAMIL NADU",
    "pincode": "643224",
    "office_type": "BO",
    "delivery": true,
    "division": "Nilgiris Division",
    "region": "Western Region Coimbatore",
    "circle": "Tamilnadu Circle",
    "latitude": 11.464667,
    "longitude": 76.558095
  },
  {
    "place_name": "Pykaradam B.O",
    "district": "THE NILGIRIS",
    "state": "TAMIL NADU",
    "pincode": "643237",
    "office_type": "BO",
    "delivery": true,
    "division": "Nilgiris Division",
    "region": "Western Region Coimbatore",
    "circle": "Tamilnadu Circle",
    "latitude": 11.462455,
    "longitude": 76.603278
  },
  {
    "place_name": "Iduhatti B.O",
    "district": "THE NILGIRIS",
    "state": "TAMIL NADU",
    "pincode": "643002",
    "office_type": "BO",
    "delivery": true,
    "division": "Nilgiris Division",
    "region": "Western Region Coimbatore",
    "circle": "Tamilnadu Circle",
    "latitude": 11.459063,
    "longitude": 76.779821
  },
  {
    "place_name": "Thummanatti B.O",
    "district": "THE NILGIRIS",
    "state": "TAMIL NADU",
    "pincode": "643002",
    "office_type": "BO",
    "delivery": true,
    "division": "Nilgiris Division",
    "region": "Western Region Coimbatore",
    "circle": "Tamilnadu Circle",
    "latitude": 11.427082,
    "longitude": 76.755973
  },
  {
    "place_name": "Kadamparai Power House B.O",
    "district": "COIMBATORE",
    "state": "TAMIL NADU",
    "pincode": "642101",
    "office_type": "BO",
    "delivery": true,
    "division": "Pollachi Division",
    "region": "Western Region Coimbatore",
    "circle": "Tamilnadu Circle",
    "latitude": 0,
    "longitude": 0
  },
  {
    "place_name": "Minparai B.O",
    "district": "COIMBATORE",
    "state": "TAMIL NADU",
    "pincode": "642101",
    "office_type": "BO",
    "delivery": true,
    "division": "Pollachi Division",
    "region": "Western Region Coimbatore",
    "circle": "Tamilnadu Circle",
    "latitude": 0,
    "longitude": 0
  },
  {
    "place_name": "Periya Kallar B.O",
    "district": "COIMBATORE",
    "state": "TAMIL NADU",
    "pincode": "642106",
    "office_type": "BO",
    "delivery": true,
    "division": "Pollachi Division",
    "region": "Western Region Coimbatore",
    "circle": "Tamilnadu Circle",
    "latitude": 10.61255,
    "longitude": 76.9465
  },
  {
    "place_name": "Dasanaicken Palayam B.O",
    "district": "COIMBATORE",
    "state": "TAMIL NADU",
    "pincode": "642202",
    "office_type": "BO",
    "delivery": true,
    "division": "Pollachi Division",
    "region": "Western Region Coimbatore",
    "circle": "Tamilnadu Circle",
    "latitude": 0,
    "longitude": 0
  },
  {
    "place_name": "Vagatholuvu B.O",
    "district": "TIRUPPUR",
    "state": "TAMIL NADU",
    "pincode": "642202",
    "office_type": "BO",
    "delivery": true,
    "division": "Pollachi Division",
    "region": "Western Region Coimbatore",
    "circle": "Tamilnadu Circle",
    "latitude": 0,
    "longitude": 0
  },
  {
    "place_name": "Vellamalai B.O",
    "district": "COIMBATORE",
    "state": "TAMIL NADU",
    "pincode": "642130",
    "office_type": "BO",
    "delivery": true,
    "division": "Pollachi Division",
    "region": "Western Region Coimbatore",
    "circle": "Tamilnadu Circle",
    "latitude": 10.6572837,
    "longitude": 77.0106593
  },
  {
    "place_name": "Arasampalayam B.O",
    "district": "COIMBATORE",
    "state": "TAMIL NADU",
    "pincode": "642109",
    "office_type": "BO",
    "delivery": true,
    "division": "Pollachi Division",
    "region": "Western Region Coimbatore",
    "circle": "Tamilnadu Circle",
    "latitude": 0,
    "longitude": 0
  },
  {
    "place_name": "Kothavadi B.O",
    "district": "COIMBATORE",
    "state": "TAMIL NADU",
    "pincode": "642109",
    "office_type": "BO",
    "delivery": true,
    "division": "Pollachi Division",
    "region": "Western Region Coimbatore",
    "circle": "Tamilnadu Circle",
    "latitude": 0,
    "longitude": 0
  },
  {
    "place_name": "Sulakkal B.O",
    "district": "COIMBATORE",
    "state": "TAMIL NADU",
    "pincode": "642110",
    "office_type": "BO",
    "delivery": true,
    "division": "Pollachi Division",
    "region": "Western Region Coimbatore",
    "circle": "Tamilnadu Circle",
    "latitude": 0,
    "longitude": 0
  },
  {
    "place_name": "Achipatti B.O",
    "district": "COIMBATORE",
    "state": "TAMIL NADU",
    "pincode": "642002",
    "office_type": "BO",
    "delivery": true,
    "division": "Pollachi Division",
    "region": "Western Region Coimbatore",
    "circle": "Tamilnadu Circle",
    "latitude": 0,
    "longitude": 0
  },
  {
    "place_name": "R.Ponnapuram B.O",
    "district": "COIMBATORE",
    "state": "TAMIL NADU",
    "pincode": "642002",
    "office_type": "BO",
    "delivery": true,
    "division": "Pollachi Division",
    "region": "Western Region Coimbatore",
    "circle": "Tamilnadu Circle",
    "latitude": 0,
    "longitude": 0
  },
  {
    "place_name": "Nallamudi B.O",
    "district": "COIMBATORE",
    "state": "TAMIL NADU",
    "pincode": "642117",
    "office_type": "BO",
    "delivery": true,
    "division": "Pollachi Division",
    "region": "Western Region Coimbatore",
    "circle": "Tamilnadu Circle",
    "latitude": 0,
    "longitude": 0
  },
  {
    "place_name": "Vadugapalayam B.O",
    "district": "COIMBATORE",
    "state": "TAMIL NADU",
    "pincode": "642001",
    "office_type": "BO",
    "delivery": false,
    "division": "Pollachi Division",
    "region": "Western Region Coimbatore",
    "circle": "Tamilnadu Circle",
    "latitude": 10.6711,
    "longitude": 76.9945
  },
  {
    "place_name": "Chinna Negamam B.O",
    "district": "COIMBATORE",
    "state": "TAMIL NADU",
    "pincode": "642120",
    "office_type": "BO",
    "delivery": false,
    "division": "Pollachi Division",
    "region": "Western Region Coimbatore",
    "circle": "Tamilnadu Circle",
    "latitude": 10.7339,
    "longitude": 77.1187
  },
  {
    "place_name": "Kondegoundenpalayam B.O",
    "district": "COIMBATORE",
    "state": "TAMIL NADU",
    "pincode": "642120",
    "office_type": "BO",
    "delivery": false,
    "division": "Pollachi Division",
    "region": "Western Region Coimbatore",
    "circle": "Tamilnadu Circle",
    "latitude": 10.7236,
    "longitude": 77.1088
  },
  {
    "place_name": "Ramachandrapuram B.O",
    "district": "TIRUPPUR",
    "state": "TAMIL NADU",
    "pincode": "642120",
    "office_type": "BO",
    "delivery": true,
    "division": "Pollachi Division",
    "region": "Western Region Coimbatore",
    "circle": "Tamilnadu Circle",
    "latitude": 0,
    "longitude": 0
  },
  {
    "place_name": "Zamin Kottampatti B.O",
    "district": "COIMBATORE",
    "state": "TAMIL NADU",
    "pincode": "642123",
    "office_type": "BO",
    "delivery": false,
    "division": "Pollachi Division",
    "region": "Western Region Coimbatore",
    "circle": "Tamilnadu Circle",
    "latitude": 10.591,
    "longitude": 77.014
  },
  {
    "place_name": "Pethanaickanur B.O",
    "district": "COIMBATORE",
    "state": "TAMIL NADU",
    "pincode": "642134",
    "office_type": "BO",
    "delivery": true,
    "division": "Pollachi Division",
    "region": "Western Region Coimbatore",
    "circle": "Tamilnadu Circle",
    "latitude": 0,
    "longitude": 0
  },
  {
    "place_name": "Akkamalai B.O",
    "district": "COIMBATORE",
    "state": "TAMIL NADU",
    "pincode": "642127",
    "office_type": "BO",
    "delivery": true,
    "division": "Pollachi Division",
    "region": "Western Region Coimbatore",
    "circle": "Tamilnadu Circle",
    "latitude": 0,
    "longitude": 0
  },
  {
    "place_name": "Korangumudi B.O",
    "district": "COIMBATORE",
    "state": "TAMIL NADU",
    "pincode": "642127",
    "office_type": "BO",
    "delivery": true,
    "division": "Pollachi Division",
    "region": "Western Region Coimbatore",
    "circle": "Tamilnadu Circle",
    "latitude": 0,
    "longitude": 0
  },
  {
    "place_name": "Pannimade B.O",
    "district": "COIMBATORE",
    "state": "TAMIL NADU",
    "pincode": "642127",
    "office_type": "BO",
    "delivery": true,
    "division": "Pollachi Division",
    "region": "Western Region Coimbatore",
    "circle": "Tamilnadu Circle",
    "latitude": 0,
    "longitude": 0
  },
  {
    "place_name": "Sirukundra B.O",
    "district": "COIMBATORE",
    "state": "TAMIL NADU",
    "pincode": "642127",
    "office_type": "BO",
    "delivery": true,
    "division": "Pollachi Division",
    "region": "Western Region Coimbatore",
    "circle": "Tamilnadu Circle",
    "latitude": 0,
    "longitude": 0
  },
  {
    "place_name": "Mount Stuart B.O",
    "district": "COIMBATORE",
    "state": "TAMIL NADU",
    "pincode": "642105",
    "office_type": "BO",
    "delivery": true,
    "division": "Pollachi Division",
    "region": "Western Region Coimbatore",
    "circle": "Tamilnadu Circle",
    "latitude": 0,
    "longitude": 0
  },
  {
    "place_name": "Devambadi B.O",
    "district": "COIMBATORE",
    "state": "TAMIL NADU",
    "pincode": "642005",
    "office_type": "BO",
    "delivery": true,
    "division": "Pollachi Division",
    "region": "Western Region Coimbatore",
    "circle": "Tamilnadu Circle",
    "latitude": 0,
    "longitude": 0
  },
  {
    "place_name": "Nalluthukuli B.O",
    "district": "COIMBATORE",
    "state": "TAMIL NADU",
    "pincode": "642005",
    "office_type": "BO",
    "delivery": true,
    "division": "Pollachi Division",
    "region": "Western Region Coimbatore",
    "circle": "Tamilnadu Circle",
    "latitude": 0,
    "longitude": 0
  },
  {
    "place_name": "Thimmanguthu B.O",
    "district": "COIMBATORE",
    "state": "TAMIL NADU",
    "pincode": "642005",
    "office_type": "BO",
    "delivery": true,
    "division": "Pollachi Division",
    "region": "Western Region Coimbatore",
    "circle": "Tamilnadu Circle",
    "latitude": 0,
    "longitude": 0
  },
  {
    "place_name": "Reddiarur B.O",
    "district": "COIMBATORE",
    "state": "TAMIL NADU",
    "pincode": "642007",
    "office_type": "BO",
    "delivery": true,
    "division": "Pollachi Division",
    "region": "Western Region Coimbatore",
    "circle": "Tamilnadu Circle",
    "latitude": 0,
    "longitude": 0
  },
  {
    "place_name": "Andigoundanur B.O",
    "district": "TIRUPPUR",
    "state": "TAMIL NADU",
    "pincode": "642154",
    "office_type": "BO",
    "delivery": true,
    "division": "Pollachi Division",
    "region": "Western Region Coimbatore",
    "circle": "Tamilnadu Circle",
    "latitude": 0,
    "longitude": 0
  },
  {
    "place_name": "Bodipatti B.O",
    "district": "TIRUPPUR",
    "state": "TAMIL NADU",
    "pincode": "642154",
    "office_type": "BO",
    "delivery": true,
    "division": "Pollachi Division",
    "region": "Western Region Coimbatore",
    "circle": "Tamilnadu Circle",
    "latitude": 0,
    "longitude": 0
  },
  {
    "place_name": "Elayamuthur B.O",
    "district": "TIRUPPUR",
    "state": "TAMIL NADU",
    "pincode": "642154",
    "office_type": "BO",
    "delivery": true,
    "division": "Pollachi Division",
    "region": "Western Region Coimbatore",
    "circle": "Tamilnadu Circle",
    "latitude": 0,
    "longitude": 0
  },
  {
    "place_name": "Lakshmapuram B.O",
    "district": "COIMBATORE",
    "state": "TAMIL NADU",
    "pincode": "642107",
    "office_type": "BO",
    "delivery": true,
    "division": "Pollachi Division",
    "region": "Western Region Coimbatore",
    "circle": "Tamilnadu Circle",
    "latitude": 0,
    "longitude": 0
  },
  {
    "place_name": "Thippampatti B.O",
    "district": "COIMBATORE",
    "state": "TAMIL NADU",
    "pincode": "642107",
    "office_type": "BO",
    "delivery": true,
    "division": "Pollachi Division",
    "region": "Western Region Coimbatore",
    "circle": "Tamilnadu Circle",
    "latitude": 0,
    "longitude": 0
  },
  {
    "place_name": "Kondampatti B.O",
    "district": "TIRUPPUR",
    "state": "TAMIL NADU",
    "pincode": "642201",
    "office_type": "BO",
    "delivery": true,
    "division": "Pollachi Division",
    "region": "Western Region Coimbatore",
    "circle": "Tamilnadu Circle",
    "latitude": 0,
    "longitude": 0
  },
  {
    "place_name": "Kottamangalam B.O",
    "district": "TIRUPPUR",
    "state": "TAMIL NADU",
    "pincode": "642201",
    "office_type": "BO",
    "delivery": true,
    "division": "Pollachi Division",
    "region": "Western Region Coimbatore",
    "circle": "Tamilnadu Circle",
    "latitude": 0,
    "longitude": 0
  },