[
  {
    "place_name": "Bhimpore BO",
    "district": "DAMAN",
    "state": "THE DADRA AND NAGAR HAVELI AND DAMAN AND DIU",
    "pincode": "396210",
    "office_type": "BO",
    "delivery": true,
    "division": "Valsad Division",
    "region": "Vadodara Region",
    "circle": "Gujarat Circle",
    "latitude": 20.447361,
    "longitude": 72.857456
  },
  {
    "place_name": "Dunetha BO",
    "district": "DAMAN",
    "state": "THE DADRA AND NAGAR HAVELI AND DAMAN AND DIU",
    "pincode": "396210",
    "office_type": "BO",
    "delivery": true,
    "division": "Valsad Division",
    "region": "Vadodara Region",
    "circle": "Gujarat Circle",
    "latitude": 20.426776,
    "longitude": 72.847007
  },
  {
    "place_name": "Kadaiya BO",
    "district": "DAMAN",
    "state": "THE DADRA AND NAGAR HAVELI AND DAMAN AND DIU",
    "pincode": "396210",
    "office_type": "BO",
    "delivery": true,
    "division": "Valsad Division",
    "region": "Vadodara Region",
    "circle": "Gujarat Circle",
    "latitude": 20.464007,
    "longitude": 72.85483
  },
  {
    "place_name": "Varkund BO",
    "district": "DAMAN",
    "state": "THE DADRA AND NAGAR HAVELI AND DAMAN AND DIU",
    "pincode": "396210",
    "office_type": "BO",
    "delivery": true,
    "division": "Valsad Division",
    "region": "Vadodara Region",
    "circle": "Gujarat Circle",
    "latitude": 20.402643,
    "longitude": 72.861763
  },
  {
    "place_name": "Chinchpada BO",
    "district": "DADRA AND NAGAR HAVELI",
    "state": "THE DADRA AND NAGAR HAVELI AND DAMAN AND DIU",
    "pincode": "396240",
    "office_type": "BO",
    "delivery": true,
    "division": "Valsad Division",
    "region": "Vadodara Region",
    "circle": "Gujarat Circle",
    "latitude": 20.212599,
    "longitude": 72.995041
  },
  {
    "place_name": "Rakholi BO",
    "district": "DADRA AND NAGAR HAVELI",
    "state": "THE DADRA AND NAGAR HAVELI AND DAMAN AND DIU",
    "pincode": "396240",
    "office_type": "BO",
    "delivery": true,
    "division": "Valsad Division",
    "region": "Vadodara Region",
    "circle": "Gujarat Circle",
    "latitude": 20.233752,
    "longitude": 73.012486
  },
  {
    "place_name": "Athal BO",
    "district": "DADRA AND NAGAR HAVELI",
    "state": "THE DADRA AND NAGAR HAVELI AND DAMAN AND DIU",
    "pincode": "396235",
    "office_type": "BO",
    "delivery": true,
    "division": "Valsad Division",
    "region": "Vadodara Region",
    "circle": "Gujarat Circle",
    "latitude": 20.274408,
    "longitude": 72.943104
  },
  {
    "place_name": "Amboli BO",
    "district": "DADRA AND NAGAR HAVELI",
    "state": "THE DADRA AND NAGAR HAVELI AND DAMAN AND DIU",
    "pincode": "396230",
    "office_type": "BO",
    "delivery": true,
    "division": "Valsad Division",
    "region": "Vadodara Region",
    "circle": "Gujarat Circle",
    "latitude": 20.14149,
    "longitude": 73.029639
  },
  {
    "place_name": "Mota Randha BO",
    "district": "DADRA AND NAGAR HAVELI",
    "state": "THE DADRA AND NAGAR HAVELI AND DAMAN AND DIU",
    "pincode": "396230",
    "office_type": "BO",
    "delivery": true,
    "division": "Valsad Division",
    "region": "Vadodara Region",
    "circle": "Gujarat Circle",
    "latitude": 20.305188,
    "longitude": 73.129785
  },
  {
    "place_name": "Rudana BO",
    "district": "DADRA AND NAGAR HAVELI",
    "state": "THE DADRA AND NAGAR HAVELI AND DAMAN AND DIU",
    "pincode": "396230",
    "office_type": "BO",
    "delivery": true,
    "division": "Valsad Division",
    "region": "Vadodara Region",
    "circle": "Gujarat Circle",
    "latitude": 20.125866,
    "longitude": 73.072993
  },
  {
    "place_name": "Velugam BO",
    "district": "DADRA AND NAGAR HAVELI",
    "state": "THE DADRA AND NAGAR HAVELI AND DAMAN AND DIU",
    "pincode": "396230",
    "office_type": "BO",
    "delivery": true,
    "division": "Valsad Division",
    "region": "Vadodara Region",
    "circle": "Gujarat Circle",
    "latitude": 20.128633,
    "longitude": 72.976242
  },
  {
    "place_name": "Wanakbara SO",
    "district": "DIU",
    "state": "THE DADRA AND NAGAR HAVELI AND DAMAN AND DIU",
    "pincode": "362570",
    "office_type": "PO",
    "delivery": true,
    "division": "Junagadh Division",
    "region": "Rajkot Region",
    "circle": "Gujarat Circle",
    "latitude": 20.717441,
    "longitude": 70.87443
  },
  {
    "place_name": "Dadra SO",
    "district": "DADRA AND NAGAR HAVELI",
    "state": "THE DADRA AND NAGAR HAVELI AND DAMAN AND DIU",
    "pincode": "396193",
    "office_type": "PO",
    "delivery": true,
    "division": "Valsad Division",
    "region": "Vadodara Region",
    "circle": "Gujarat Circle",
    "latitude": 20.321086,
    "longitude": 72.966342
  },
  {
    "place_name": "Daman IE SO",
    "district": "DAMAN",
    "state": "THE DADRA AND NAGAR HAVELI AND DAMAN AND DIU",
    "pincode": "396215",
    "office_type": "PO",
    "delivery": true,
    "division": "Valsad Division",
    "region": "Vadodara Region",
    "circle": "Gujarat Circle",
    "latitude": 20.405837,
    "longitude": 72.876499
  },
  {
    "place_name": "Bucharvada BO",
    "district": "DIU",
    "state": "THE DADRA AND NAGAR HAVELI AND DAMAN AND DIU",
    "pincode": "362570",
    "office_type": "BO",
    "delivery": true,
    "division": "Junagadh Division",
    "region": "Rajkot Region",
    "circle": "Gujarat Circle",
    "latitude": 20.7291717,
    "longitude": 70.9177572
  },
  {
    "place_name": "Dabhel BO",
    "district": "DAMAN",
    "state": "THE DADRA AND NAGAR HAVELI AND DAMAN AND DIU",
    "pincode": "396215",
    "office_type": "BO",
    "delivery": true,
    "division": "Valsad Division",
    "region": "Vadodara Region",
    "circle": "Gujarat Circle",
    "latitude": 20.40115,
    "longitude": 72.892162
  },
  {
    "place_name": "Nani Vankad BO",
    "district": "DAMAN",
    "state": "THE DADRA AND NAGAR HAVELI AND DAMAN AND DIU",
    "pincode": "396210",
    "office_type": "BO",
    "delivery": true,
    "division": "Valsad Division",
    "region": "Vadodara Region",
    "circle": "Gujarat Circle",
    "latitude": 20.44269,
    "longitude": 72.882563
  },
  {
    "place_name": "Chikhli BO",
    "district": "DADRA AND NAGAR HAVELI",
    "state": "THE DADRA AND NAGAR HAVELI AND DAMAN AND DIU",
    "pincode": "396240",
    "office_type": "BO",
    "delivery": true,
    "division": "Valsad Division",
    "region": "Vadodara Region",
    "circle": "Gujarat Circle",
    "latitude": 20.181393,
    "longitude": 72.999191
  },
  {
    "place_name": "Surangi BO",
    "district": "DADRA AND NAGAR HAVELI",
    "state": "THE DADRA AND NAGAR HAVELI AND DAMAN AND DIU",
    "pincode": "396240",
    "office_type": "BO",
    "delivery": true,
    "division": "Valsad Division",
    "region": "Vadodara Region",
    "circle": "Gujarat Circle",
    "latitude": 20.151462,
    "longitude": 73.01101
  },
  {
    "place_name": "Mandoni BO",
    "district": "DADRA AND NAGAR HAVELI",
    "state": "THE DADRA AND NAGAR HAVELI AND DAMAN AND DIU",
    "pincode": "396230",
    "office_type": "BO",
    "delivery": true,
    "division": "Valsad Division",
    "region": "Vadodara Region",
    "circle": "Gujarat Circle",
    "latitude": 20.1071,
    "longitude": 73.128517
  },
  {
    "place_name": "Parzai BO",
    "district": "DADRA AND NAGAR HAVELI",
    "state": "THE DADRA AND NAGAR HAVELI AND DAMAN AND DIU",
    "pincode": "396230",
    "office_type": "BO",
    "delivery": true,
    "division": "Valsad Division",
    "region": "Vadodara Region",
    "circle": "Gujarat Circle",
    "latitude": 20.089941,
    "longitude": 73.032143
  },
  {
    "place_name": "Daman SO",
    "district": "DAMAN",
    "state": "THE DADRA AND NAGAR HAVELI AND DAMAN AND DIU",
    "pincode": "396210",
    "office_type": "PO",
    "delivery": true,
    "division": "Valsad Division",
    "region": "Vadodara Region",
    "circle": "Gujarat Circle",
    "latitude": 20.417222,
    "longitude": 72.837453
  },
  {
    "place_name": "Saily BO",
    "district": "DADRA AND NAGAR HAVELI",
    "state": "THE DADRA AND NAGAR HAVELI AND DAMAN AND DIU",
    "pincode": "396240",
    "office_type": "BO",
    "delivery": true,
    "division": "Valsad Division",
    "region": "Vadodara Region",
    "circle": "Gujarat Circle",
    "latitude": 20.232966,
    "longitude": 73.054984
  },
  {
    "place_name": "Vasona BO",
    "district": "DADRA AND NAGAR HAVELI",
    "state": "THE DADRA AND NAGAR HAVELI AND DAMAN AND DIU",
    "pincode": "396240",
    "office_type": "BO",
    "delivery": true,
    "division": "Valsad Division",
    "region": "Vadodara Region",
    "circle": "Gujarat Circle",
    "latitude": 20.225527,
    "longitude": 73.011871
  },
  {
    "place_name": "Amli BO",
    "district": "DADRA AND NAGAR HAVELI",
    "state": "THE DADRA AND NAGAR HAVELI AND DAMAN AND DIU",
    "pincode": "396230",
    "office_type": "BO",
    "delivery": true,
    "division": "Valsad Division",
    "region": "Vadodara Region",
    "circle": "Gujarat Circle",
    "latitude": 20.287347,
    "longitude": 73.000677
  },
  {
    "place_name": "Chisda BO",
    "district": "DADRA AND NAGAR HAVELI",
    "state": "THE DADRA AND NAGAR HAVELI AND DAMAN AND DIU",
    "pincode": "396230",
    "office_type": "BO",
    "delivery": true,
    "division": "Valsad Division",
    "region": "Vadodara Region",
    "circle": "Gujarat Circle",
    "latitude": 20.136617,
    "longitude": 73.088629
  },
  {
    "place_name": "Dudhani BO",
    "district": "DADRA AND NAGAR HAVELI",
    "state": "THE DADRA AND NAGAR HAVELI AND DAMAN AND DIU",
    "pincode": "396230",
    "office_type": "BO",
    "delivery": true,
    "division": "Valsad Division",
    "region": "Vadodara Region",
    "circle": "Gujarat Circle",
    "latitude": 20.174326,
    "longitude": 73.156972
  },
  {
    "place_name": "Karachgam BO",
    "district": "DADRA AND NAGAR HAVELI",
    "state": "THE DADRA AND NAGAR HAVELI AND DAMAN AND DIU",
    "pincode": "396230",
    "office_type": "BO",
    "delivery": true,
    "division": "Valsad Division",
    "region": "Vadodara Region",
    "circle": "Gujarat Circle",
    "latitude": 20.118259,
    "longitude": 73.007828
  },
  {
    "place_name": "Khutli BO",
    "district": "DADRA AND NAGAR HAVELI",
    "state": "THE DADRA AND NAGAR HAVELI AND DAMAN AND DIU",
    "pincode": "396230",
    "office_type": "BO",
    "delivery": true,
    "division": "Valsad Division",
    "region": "Vadodara Region",
    "circle": "Gujarat Circle",
    "latitude": 20.13252,
    "longitude": 73.084968
  },
  {
    "place_name": "Naroli SO",
    "district": "DADRA AND NAGAR HAVELI",
    "state": "THE DADRA AND NAGAR HAVELI AND DAMAN AND DIU",
    "pincode": "396235",
    "office_type": "PO",
    "delivery": true,
    "division": "Valsad Division",
    "region": "Vadodara Region",
    "circle": "Gujarat Circle",
    "latitude": 20.274408,
    "longitude": 72.943104
  },
  {
    "place_name": "Kachigam BO",
    "district": "DAMAN",
    "state": "THE DADRA AND NAGAR HAVELI AND DAMAN AND DIU",
    "pincode": "396215",
    "office_type": "BO",
    "delivery": true,
    "division": "Valsad Division",
    "region": "Vadodara Region",
    "circle": "Gujarat Circle",
    "latitude": 20.405635,
    "longitude": 72.877843
  },
  {
    "place_name": "Dholar BO",
    "district": "DAMAN",
    "state": "THE DADRA AND NAGAR HAVELI AND DAMAN AND DIU",
    "pincode": "396220",
    "office_type": "BO",
    "delivery": true,
    "division": "Valsad Division",
    "region": "Vadodara Region",
    "circle": "Gujarat Circle",
    "latitude": 20.3937,
    "longitude": 72.831314
  },
  {
    "place_name": "Kharadpada BO",
    "district": "DADRA AND NAGAR HAVELI",
    "state": "THE DADRA AND NAGAR HAVELI AND DAMAN AND DIU",
    "pincode": "396235",
    "office_type": "BO",
    "delivery": true,
    "division": "Valsad Division",
    "region": "Vadodara Region",
    "circle": "Gujarat Circle",
    "latitude": 20.258594,
    "longitude": 72.947717
  },
  {
    "place_name": "Karchond BO",
    "district": "DADRA AND NAGAR HAVELI",
    "state": "THE DADRA AND NAGAR HAVELI AND DAMAN AND DIU",
    "pincode": "396230",
    "office_type": "BO",
    "delivery": true,
    "division": "Valsad Division",
    "region": "Vadodara Region",
    "circle": "Gujarat Circle",
    "latitude": 20.131094,
    "longitude": 73.158852
  },
  {
    "place_name": "Masat BO",
    "district": "DADRA AND NAGAR HAVELI",
    "state": "THE DADRA AND NAGAR HAVELI AND DAMAN AND DIU",
    "pincode": "396230",
    "office_type": "BO",
    "delivery": true,
    "division": "Valsad Division",
    "region": "Vadodara Region",
    "circle": "Gujarat Circle",
    "latitude": 20.244003,
    "longitude": 73.011588
  },
  {
    "place_name": "Samarvarni BO",
    "district": "DADRA AND NAGAR HAVELI",
    "state": "THE DADRA AND NAGAR HAVELI AND DAMAN AND DIU",
    "pincode": "396230",
    "office_type": "BO",
    "delivery": true,
    "division": "Valsad Division",
    "region": "Vadodara Region",
    "circle": "Gujarat Circle",
    "latitude": 20.2584,
    "longitude": 73.013962
  },
  {
    "place_name": "Moti Daman SO",
    "district": "DAMAN",
    "state": "THE DADRA AND NAGAR HAVELI AND DAMAN AND DIU",
    "pincode": "396220",
    "office_type": "PO",
    "delivery": true,
    "division": "Valsad Division",
    "region": "Vadodara Region",
    "circle": "Gujarat Circle",
    "latitude": 20.406199,
    "longitude": 72.834721
  },
  {
    "place_name": "Marvad BO",
    "district": "DAMAN",
    "state": "THE DADRA AND NAGAR HAVELI AND DAMAN AND DIU",
    "pincode": "396210",
    "office_type": "BO",
    "delivery": true,
    "division": "Valsad Division",
    "region": "Vadodara Region",
    "circle": "Gujarat Circle",
    "latitude": 20.438533,
    "longitude": 72.837383
  },
  {
    "place_name": "Dapada BO",
    "district": "DADRA AND NAGAR HAVELI",
    "state": "THE DADRA AND NAGAR HAVELI AND DAMAN AND DIU",
    "pincode": "396240",
    "office_type": "BO",
    "delivery": true,
    "division": "Valsad Division",
    "region": "Vadodara Region",
    "circle": "Gujarat Circle",
    "latitude": 20.186289,
    "longitude": 73.019615
  },
  {
    "place_name": "Magarwada BO",
    "district": "DAMAN",
    "state": "THE DADRA AND NAGAR HAVELI AND DAMAN AND DIU",
    "pincode": "396220",
    "office_type": "BO",
    "delivery": true,
    "division": "Valsad Division",
    "region": "Vadodara Region",
    "circle": "Gujarat Circle",
    "latitude": 20.40381,
    "longitude": 72.846074
  },
  {
    "place_name": "Athola BO",
    "district": "DADRA AND NAGAR HAVELI",
    "state": "THE DADRA AND NAGAR HAVELI AND DAMAN AND DIU",
    "pincode": "396230",
    "office_type": "BO",
    "delivery": true,
    "division": "Valsad Division",
    "region": "Vadodara Region",
    "circle": "Gujarat Circle",
    "latitude": 20.275261,
    "longitude": 73.04359
  },
  {
    "place_name": "Bedpa BO",
    "district": "DADRA AND NAGAR HAVELI",
    "state": "THE DADRA AND NAGAR HAVELI AND DAMAN AND DIU",
    "pincode": "396230",
    "office_type": "BO",
    "delivery": true,
    "division": "Valsad Division",
    "region": "Vadodara Region",
    "circle": "Gujarat Circle",
    "latitude": 20.085913,
    "longitude": 73.200561
  },
  {
    "place_name": "Khadoli BO",
    "district": "DADRA AND NAGAR HAVELI",
    "state": "THE DADRA AND NAGAR HAVELI AND DAMAN AND DIU",
    "pincode": "396230",
    "office_type": "BO",
    "delivery": true,
    "division": "Valsad Division",
    "region": "Vadodara Region",
    "circle": "Gujarat Circle",
    "latitude": 20.165586,
    "longitude": 73.029579
  },
  {
    "place_name": "Khanvel BO",
    "district": "DADRA AND NAGAR HAVELI",
    "state": "THE DADRA AND NAGAR HAVELI AND DAMAN AND DIU",
    "pincode": "396230",
    "office_type": "BO",
    "delivery": true,
    "division": "Valsad Division",
    "region": "Vadodara Region",
    "circle": "Gujarat Circle",
    "latitude": 20.126292,
    "longitude": 73.062664
  },
  {
    "place_name": "Kherdi BO",
    "district": "DADRA AND NAGAR HAVELI",
    "state": "THE DADRA AND NAGAR HAVELI AND DAMAN AND DIU",
    "pincode": "396230",
    "office_type": "BO",
    "delivery": true,
    "division": "Valsad Division",
    "region": "Vadodara Region",
    "circle": "Gujarat Circle",
    "latitude": 20.10429,
    "longitude": 73.021164
  },
  {
    "place_name": "Selti BO",
    "district": "DADRA AND NAGAR HAVELI",
    "state": "THE DADRA AND NAGAR HAVELI AND DAMAN AND DIU",
    "pincode": "396230",
    "office_type": "BO",
    "delivery": true,
    "division": "Valsad Division",
    "region": "Vadodara Region",
    "circle": "Gujarat Circle",
    "latitude": 20.114696,
    "longitude": 73.095174
  },
  {
    "place_name": "Sili BO",
    "district": "DADRA AND NAGAR HAVELI",
    "state": "THE DADRA AND NAGAR HAVELI AND DAMAN AND DIU",
    "pincode": "396230",
    "office_type": "BO",
    "delivery": true,
    "division": "Valsad Division",
    "region": "Vadodara Region",
    "circle": "Gujarat Circle",
    "latitude": 20.313679,
    "longitude": 73.067635
  },
  {
    "place_name": "Umarkui BO",
    "district": "DADRA AND NAGAR HAVELI",
    "state": "THE DADRA AND NAGAR HAVELI AND DAMAN AND DIU",
    "pincode": "396230",
    "office_type": "BO",
    "delivery": true,
    "division": "Valsad Division",
    "region": "Vadodara Region",
    "circle": "Gujarat Circle",
    "latitude": 20.256775,
    "longitude": 73.090805
  },
  {
    "place_name": "Diu SO",
    "district": "DIU",
    "state": "THE DADRA AND NAGAR HAVELI AND DAMAN AND DIU",
    "pincode": "362520",
    "office_type": "PO",
    "delivery": true,
    "division": "Junagadh Division",
    "region": "Rajkot Region",
    "circle": "Gujarat Circle",
    "latitude": 20.713943,
    "longitude": 70.975823
  },
  {
    "place_name": "Ghoghla SO",
    "district": "DIU",
    "state": "THE DADRA AND NAGAR HAVELI AND DAMAN AND DIU",
    "pincode": "362540",
    "office_type": "PO",
    "delivery": true,
    "division": "Junagadh Division",
    "region": "Rajkot Region",
    "circle": "Gujarat Circle",
    "latitude": 20.729103,
    "longitude": 70.990904
  },
  {
    "place_name": "Diu Bazar ND TSO",
    "district": "DIU",
    "state": "THE DADRA AND NAGAR HAVELI AND DAMAN AND DIU",
    "pincode": "362520",
    "office_type": "PO",
    "delivery": false,
    "division": "Junagadh Division",
    "region": "Rajkot Region",
    "circle": "Gujarat Circle",
    "latitude": 0,
    "longitude": 0
  },
  {
    "place_name": "Silvassa SO",
    "district": "DADRA AND NAGAR HAVELI",
    "state": "THE DADRA AND NAGAR HAVELI AND DAMAN AND DIU",
    "pincode": "396230",
    "office_type": "PO",
    "delivery": true,
    "division": "Valsad Division",
    "region": "Vadodara Region",
    "circle": "Gujarat Circle",
    "latitude": 20.273047,
    "longitude": 73.003378
  }
]