[
  {
    "place_name": "Amgachia BO",
    "district": "24 PARAGANAS SOUTH",
    "state": "WEST BENGAL",
    "pincode": "700104",
    "office_type": "BO",
    "delivery": true,
    "division": "Baruipur Division",
    "region": "Kolkata Region",
    "circle": "West Bengal Circle",
    "latitude": 22.434096,
    "longitude": 88.301411
  },
  {
    "place_name": "Nahazari BO",
    "district": "24 PARAGANAS SOUTH",
    "state": "WEST BENGAL",
    "pincode": "700104",
    "office_type": "BO",
    "delivery": true,
    "division": "Baruipur Division",
    "region": "Kolkata Region",
    "circle": "West Bengal Circle",
    "latitude": 22.434601,
    "longitude": 88.248552
  },
  {
    "place_name": "Adhata BO",
    "district": "24 PARAGANAS NORTH",
    "state": "WEST BENGAL",
    "pincode": "743221",
    "office_type": "BO",
    "delivery": true,
    "division": "Barasat Division",
    "region": "Kolkata Region",
    "circle": "West Bengal Circle",
    "latitude": 22.8689589,
    "longitude": 88.5328316
  },
  {
    "place_name": "Boyra BO",
    "district": "24 PARAGANAS NORTH",
    "state": "WEST BENGAL",
    "pincode": "743232",
    "office_type": "BO",
    "delivery": true,
    "division": "Barasat Division",
    "region": "Kolkata Region",
    "circle": "West Bengal Circle",
    "latitude": 23.215295,
    "longitude": 88.977285
  },
  {
    "place_name": "Balisa Chowmatha BO",
    "district": "24 PARAGANAS NORTH",
    "state": "WEST BENGAL",
    "pincode": "743702",
    "office_type": "BO",
    "delivery": true,
    "division": "Barasat Division",
    "region": "Kolkata Region",
    "circle": "West Bengal Circle",
    "latitude": 22.4657208,
    "longitude": 88.6144936
  },
  {
    "place_name": "Kalupur BO",
    "district": "24 PARAGANAS NORTH",
    "state": "WEST BENGAL",
    "pincode": "743235",
    "office_type": "BO",
    "delivery": true,
    "division": "Barasat Division",
    "region": "Kolkata Region",
    "circle": "West Bengal Circle",
    "latitude": 23.0264765,
    "longitude": 88.8022842
  },
  {
    "place_name": "Nakpul BO",
    "district": "24 PARAGANAS NORTH",
    "state": "WEST BENGAL",
    "pincode": "743235",
    "office_type": "BO",
    "delivery": true,
    "division": "Barasat Division",
    "region": "Kolkata Region",
    "circle": "West Bengal Circle",
    "latitude": 23.1187149,
    "longitude": 88.7952375
  },
  {
    "place_name": "Panchita BO",
    "district": "24 PARAGANAS NORTH",
    "state": "WEST BENGAL",
    "pincode": "743235",
    "office_type": "BO",
    "delivery": true,
    "division": "Barasat Division",
    "region": "Kolkata Region",
    "circle": "West Bengal Circle",
    "latitude": 23.1070394,
    "longitude": 88.8238996
  },
  {
    "place_name": "Joypul BO",
    "district": "24 PARAGANAS NORTH",
    "state": "WEST BENGAL",
    "pincode": "743234",
    "office_type": "BO",
    "delivery": true,
    "division": "Barasat Division",
    "region": "Kolkata Region",
    "circle": "West Bengal Circle",
    "latitude": 22.7773544,
    "longitude": 88.568611
  },
  {
    "place_name": "Laxmipul BO",
    "district": "24 PARAGANAS NORTH",
    "state": "WEST BENGAL",
    "pincode": "743234",
    "office_type": "BO",
    "delivery": true,
    "division": "Barasat Division",
    "region": "Kolkata Region",
    "circle": "West Bengal Circle",
    "latitude": 22.7909399,
    "longitude": 88.5878062
  },
  {
    "place_name": "Talsa BO",
    "district": "24 PARAGANAS NORTH",
    "state": "WEST BENGAL",
    "pincode": "743234",
    "office_type": "BO",
    "delivery": true,
    "division": "Barasat Division",
    "region": "Kolkata Region",
    "circle": "West Bengal Circle",
    "latitude": 22.8055981,
    "longitude": 88.5399634
  },
  {
    "place_name": "Baikara BO",
    "district": "24 PARAGANAS NORTH",
    "state": "WEST BENGAL",
    "pincode": "743245",
    "office_type": "BO",
    "delivery": true,
    "division": "Barasat Division",
    "region": "Kolkata Region",
    "circle": "West Bengal Circle",
    "latitude": 22.9516743,
    "longitude": 88.7566152
  },
  {
    "place_name": "Chhekathi BO",
    "district": "24 PARAGANAS NORTH",
    "state": "WEST BENGAL",
    "pincode": "743245",
    "office_type": "BO",
    "delivery": true,
    "division": "Barasat Division",
    "region": "Kolkata Region",
    "circle": "West Bengal Circle",
    "latitude": 22.9993904,
    "longitude": 88.8077211
  },
  {
    "place_name": "Dogachhia Monmohanpur BO",
    "district": "24 PARAGANAS NORTH",
    "state": "WEST BENGAL",
    "pincode": "743245",
    "office_type": "BO",
    "delivery": true,
    "division": "Barasat Division",
    "region": "Kolkata Region",
    "circle": "West Bengal Circle",
    "latitude": 22.9996416,
    "longitude": 88.7966537
  },
  {
    "place_name": "Kahankia BO",
    "district": "24 PARAGANAS NORTH",
    "state": "WEST BENGAL",
    "pincode": "743245",
    "office_type": "BO",
    "delivery": true,
    "division": "Barasat Division",
    "region": "Kolkata Region",
    "circle": "West Bengal Circle",
    "latitude": 22.9388117,
    "longitude": 88.8479161
  },
  {
    "place_name": "Natungram BO",
    "district": "24 PARAGANAS NORTH",
    "state": "WEST BENGAL",
    "pincode": "743235",
    "office_type": "BO",
    "delivery": true,
    "division": "Barasat Division",
    "region": "Kolkata Region",
    "circle": "West Bengal Circle",
    "latitude": 23.0540922,
    "longitude": 88.8220306
  },
  {
    "place_name": "Bohara BO",
    "district": "24 PARAGANAS NORTH",
    "state": "WEST BENGAL",
    "pincode": "743294",
    "office_type": "BO",
    "delivery": true,
    "division": "Barasat Division",
    "region": "Kolkata Region",
    "circle": "West Bengal Circle",
    "latitude": 22.7413932,
    "longitude": 88.5444475
  },
  {
    "place_name": "Kanchdaha BO",
    "district": "24 PARAGANAS NORTH",
    "state": "WEST BENGAL",
    "pincode": "743247",
    "office_type": "BO",
    "delivery": true,
    "division": "Barasat Division",
    "region": "Kolkata Region",
    "circle": "West Bengal Circle",
    "latitude": 22.8835865,
    "longitude": 88.8081232
  },
  {
    "place_name": "Chandpur BO",
    "district": "24 PARAGANAS NORTH",
    "state": "WEST BENGAL",
    "pincode": "743424",
    "office_type": "BO",
    "delivery": true,
    "division": "Barasat Division",
    "region": "Kolkata Region",
    "circle": "West Bengal Circle",
    "latitude": 22.6658834,
    "longitude": 88.6665397
  },
  {
    "place_name": "Hadipur BO",
    "district": "24 PARAGANAS NORTH",
    "state": "WEST BENGAL",
    "pincode": "743424",
    "office_type": "BO",
    "delivery": true,
    "division": "Barasat Division",
    "region": "Kolkata Region",
    "circle": "West Bengal Circle",
    "latitude": 22.6731842,
    "longitude": 88.6851596
  },
  {
    "place_name": "Baidyapur BO",
    "district": "24 PARAGANAS NORTH",
    "state": "WEST BENGAL",
    "pincode": "743423",
    "office_type": "BO",
    "delivery": true,
    "division": "Barasat Division",
    "region": "Kolkata Region",
    "circle": "West Bengal Circle",
    "latitude": 22.6986835,
    "longitude": 88.5987961
  },
  {
    "place_name": "Golabari Bazar BO",
    "district": "24 PARAGANAS NORTH",
    "state": "WEST BENGAL",
    "pincode": "743423",
    "office_type": "BO",
    "delivery": true,
    "division": "Barasat Division",
    "region": "Kolkata Region",
    "circle": "West Bengal Circle",
    "latitude": 22.7044077,
    "longitude": 88.5722344
  },
  {
    "place_name": "Parulia BO",
    "district": "24 PARAGANAS NORTH",
    "state": "WEST BENGAL",
    "pincode": "743423",
    "office_type": "BO",
    "delivery": true,
    "division": "Barasat Division",
    "region": "Kolkata Region",
    "circle": "West Bengal Circle",
    "latitude": 22.6691024,
    "longitude": 88.6229288
  },
  {
    "place_name": "Fazilpur BO",
    "district": "24 PARAGANAS NORTH",
    "state": "WEST BENGAL",
    "pincode": "743423",
    "office_type": "BO",
    "delivery": true,
    "division": "Barasat Division",
    "region": "Kolkata Region",
    "circle": "West Bengal Circle",
    "latitude": 22.733081,
    "longitude": 88.5778019
  },
  {
    "place_name": "Bagangram BO",
    "district": "24 PARAGANAS NORTH",
    "state": "WEST BENGAL",
    "pincode": "743251",
    "office_type": "BO",
    "delivery": true,
    "division": "Barasat Division",
    "region": "Kolkata Region",
    "circle": "West Bengal Circle",
    "latitude": 23.118892,
    "longitude": 88.8680294
  },
  {
    "place_name": "Ghatpatila BO",
    "district": "24 PARAGANAS NORTH",
    "state": "WEST BENGAL",
    "pincode": "743251",
    "office_type": "BO",
    "delivery": true,
    "division": "Barasat Division",
    "region": "Kolkata Region",
    "circle": "West Bengal Circle",
    "latitude": 23.1962207,
    "longitude": 88.8046865
  },
  {
    "place_name": "Kaniara BO",
    "district": "24 PARAGANAS NORTH",
    "state": "WEST BENGAL",
    "pincode": "743251",
    "office_type": "BO",
    "delivery": true,
    "division": "Barasat Division",
    "region": "Kolkata Region",
    "circle": "West Bengal Circle",
    "latitude": 23.1612932,
    "longitude": 88.8054084
  },
  {
    "place_name": "Gobardanga Ichapur BO",
    "district": "24 PARAGANAS NORTH",
    "state": "WEST BENGAL",
    "pincode": "743252",
    "office_type": "BO",
    "delivery": true,
    "division": "Barasat Division",
    "region": "Kolkata Region",
    "circle": "West Bengal Circle",
    "latitude": 22.8979519,
    "longitude": 88.7421831
  },
  {
    "place_name": "Sarkarpara Kuthipara BO",
    "district": "24 PARAGANAS NORTH",
    "state": "WEST BENGAL",
    "pincode": "743252",
    "office_type": "BO",
    "delivery": false,
    "division": "Barasat Division",
    "region": "Kolkata Region",
    "circle": "West Bengal Circle",
    "latitude": 22.8652834,
    "longitude": 88.7637376
  },
  {
    "place_name": "Bairampur BO",
    "district": "24 PARAGANAS NORTH",
    "state": "WEST BENGAL",
    "pincode": "743262",
    "office_type": "BO",
    "delivery": true,
    "division": "Barasat Division",
    "region": "Kolkata Region",
    "circle": "West Bengal Circle",
    "latitude": 23.0526603,
    "longitude": 88.7229325
  },
  {
    "place_name": "Barrackpore Sripally BO",
    "district": "24 PARAGANAS NORTH",
    "state": "WEST BENGAL",
    "pincode": "743262",
    "office_type": "BO",
    "delivery": true,
    "division": "Barasat Division",
    "region": "Kolkata Region",
    "circle": "West Bengal Circle",
    "latitude": 23.0773935,
    "longitude": 88.7737798
  },
  {
    "place_name": "Satberia BO",
    "district": "24 PARAGANAS NORTH",
    "state": "WEST BENGAL",
    "pincode": "743262",
    "office_type": "BO",
    "delivery": true,
    "division": "Barasat Division",
    "region": "Kolkata Region",
    "circle": "West Bengal Circle",
    "latitude": 23.0473647,
    "longitude": 88.7920618
  },
  {
    "place_name": "Akrampur BO",
    "district": "24 PARAGANAS NORTH",
    "state": "WEST BENGAL",
    "pincode": "743263",
    "office_type": "BO",
    "delivery": true,
    "division": "Barasat Division",
    "region": "Kolkata Region",
    "circle": "West Bengal Circle",
    "latitude": 22.8289365,
    "longitude": 88.6677789
  },
  {
    "place_name": "Bergoom BO",
    "district": "24 PARAGANAS NORTH",
    "state": "WEST BENGAL",
    "pincode": "743263",
    "office_type": "BO",
    "delivery": true,
    "division": "Barasat Division",
    "region": "Kolkata Region",
    "circle": "West Bengal Circle",
    "latitude": 22.8666457,
    "longitude": 88.7086343
  },
  {
    "place_name": "Berbari BO",
    "district": "24 PARAGANAS NORTH",
    "state": "WEST BENGAL",
    "pincode": "743270",
    "office_type": "BO",
    "delivery": true,
    "division": "Barasat Division",
    "region": "Kolkata Region",
    "circle": "West Bengal Circle",
    "latitude": 23.2084154,
    "longitude": 88.8431038
  },
  {
    "place_name": "Kumarkhola BO",
    "district": "24 PARAGANAS NORTH",
    "state": "WEST BENGAL",
    "pincode": "743270",
    "office_type": "BO",
    "delivery": true,
    "division": "Barasat Division",
    "region": "Kolkata Region",
    "circle": "West Bengal Circle",
    "latitude": 23.1817893,
    "longitude": 88.8344407
  },
  {
    "place_name": "Kankpul BO",
    "district": "24 PARAGANAS NORTH",
    "state": "WEST BENGAL",
    "pincode": "743272",
    "office_type": "BO",
    "delivery": true,
    "division": "Barasat Division",
    "region": "Kolkata Region",
    "circle": "West Bengal Circle",
    "latitude": 22.8494193,
    "longitude": 88.6258399
  },
  {
    "place_name": "Amudia BO",
    "district": "24 PARAGANAS NORTH",
    "state": "WEST BENGAL",
    "pincode": "743273",
    "office_type": "BO",
    "delivery": true,
    "division": "Barasat Division",
    "region": "Kolkata Region",
    "circle": "West Bengal Circle",
    "latitude": 22.810879,
    "longitude": 88.9515352
  },
  {
    "place_name": "East Bishnupur BO",
    "district": "24 PARAGANAS NORTH",
    "state": "WEST BENGAL",
    "pincode": "743273",
    "office_type": "BO",
    "delivery": true,
    "division": "Barasat Division",
    "region": "Kolkata Region",
    "circle": "West Bengal Circle",
    "latitude": 22.9079715,
    "longitude": 88.7810513
  },
  {
    "place_name": "Panchpota BO",
    "district": "24 PARAGANAS NORTH",
    "state": "WEST BENGAL",
    "pincode": "743273",
    "office_type": "BO",
    "delivery": true,
    "division": "Barasat Division",
    "region": "Kolkata Region",
    "circle": "West Bengal Circle",
    "latitude": 22.9166007,
    "longitude": 88.8542032
  },
  {
    "place_name": "Saguna BO",
    "district": "24 PARAGANAS NORTH",
    "state": "WEST BENGAL",
    "pincode": "743273",
    "office_type": "BO",
    "delivery": true,
    "division": "Barasat Division",
    "region": "Kolkata Region",
    "circle": "West Bengal Circle",
    "latitude": 22.8914144,
    "longitude": 88.8634986
  },
  {
    "place_name": "Atghara BO",
    "district": "24 PARAGANAS NORTH",
    "state": "WEST BENGAL",
    "pincode": "743438",
    "office_type": "BO",
    "delivery": true,
    "division": "Barasat Division",
    "region": "Kolkata Region",
    "circle": "West Bengal Circle",
    "latitude": 22.7969475,
    "longitude": 88.7758572
  },
  {
    "place_name": "Jangalpur BO",
    "district": "24 PARAGANAS NORTH",
    "state": "WEST BENGAL",
    "pincode": "743438",
    "office_type": "BO",
    "delivery": true,
    "division": "Barasat Division",
    "region": "Kolkata Region",
    "circle": "West Bengal Circle",
    "latitude": 22.7668735,
    "longitude": 88.7422049
  },
  {
    "place_name": "Kamdevkati BO",
    "district": "24 PARAGANAS NORTH",
    "state": "WEST BENGAL",
    "pincode": "743438",
    "office_type": "BO",
    "delivery": true,
    "division": "Barasat Division",
    "region": "Kolkata Region",
    "circle": "West Bengal Circle",
    "latitude": 22.8097753,
    "longitude": 88.7363576
  },
  {
    "place_name": "Taldharia Kapasia BO",
    "district": "24 PARAGANAS NORTH",
    "state": "WEST BENGAL",
    "pincode": "700130",
    "office_type": "BO",
    "delivery": true,
    "division": "Barasat Division",
    "region": "Kolkata Region",
    "circle": "West Bengal Circle",
    "latitude": 22.7126298,
    "longitude": 88.4351992
  },
  {
    "place_name": "East Udayrajpur BO",
    "district": "24 PARAGANAS NORTH",
    "state": "WEST BENGAL",
    "pincode": "700129",
    "office_type": "BO",
    "delivery": true,
    "division": "Barasat Division",
    "region": "Kolkata Region",
    "circle": "West Bengal Circle",
    "latitude": 22.6979269,
    "longitude": 88.4722389
  },
  {
    "place_name": "Uludanga BO",
    "district": "24 PARAGANAS NORTH",
    "state": "WEST BENGAL",
    "pincode": "743289",
    "office_type": "BO",
    "delivery": true,
    "division": "Barasat Division",
    "region": "Kolkata Region",
    "circle": "West Bengal Circle",
    "latitude": 22.8572342,
    "longitude": 88.7365294
  },
  {
    "place_name": "Ram Shankarpur BO",
    "district": "24 PARAGANAS NORTH",
    "state": "WEST BENGAL",
    "pincode": "743290",
    "office_type": "BO",
    "delivery": true,
    "division": "Barasat Division",
    "region": "Kolkata Region",
    "circle": "West Bengal Circle",
    "latitude": 22.9917374,
    "longitude": 88.7385743
  },
  {
    "place_name": "Mirhati BO",
    "district": "24 PARAGANAS NORTH",
    "state": "WEST BENGAL",
    "pincode": "700125",
    "office_type": "BO",
    "delivery": true,
    "division": "Barasat Division",
    "region": "Kolkata Region",
    "circle": "West Bengal Circle",
    "latitude": 22.7750044,
    "longitude": 88.4952672
  },
  {
    "place_name": "Sonekpur BO",
    "district": "24 PARAGANAS NORTH",
    "state": "WEST BENGAL",
    "pincode": "743701",
    "office_type": "BO",
    "delivery": true,
    "division": "Barasat Division",
    "region": "Kolkata Region",
    "circle": "West Bengal Circle",
    "latitude": 23.0535142,
    "longitude": 88.7446188
  },
  {
    "place_name": "Akandakeshari BO",
    "district": "24 PARAGANAS NORTH",
    "state": "WEST BENGAL",
    "pincode": "700135",
    "office_type": "BO",
    "delivery": true,
    "division": "Barasat Division",
    "region": "Kolkata Region",
    "circle": "West Bengal Circle",
    "latitude": 22.5564336,
    "longitude": 88.5154332
  },
  {
    "place_name": "Machibhanga BO",
    "district": "24 PARAGANAS SOUTH",
    "state": "WEST BENGAL",
    "pincode": "700135",
    "office_type": "BO",
    "delivery": true,
    "division": "Barasat Division",
    "region": "Kolkata Region",
    "circle": "West Bengal Circle",
    "latitude": 22.6061441,
    "longitude": 88.577065
  },
  {
    "place_name": "Paikan BO",
    "district": "24 PARAGANAS SOUTH",
    "state": "WEST BENGAL",
    "pincode": "700135",
    "office_type": "BO",
    "delivery": true,
    "division": "Barasat Division",
    "region": "Kolkata Region",
    "circle": "West Bengal Circle",
    "latitude": 22.5278822,
    "longitude": 88.5400639
  },
  {
    "place_name": "Chikanpara BO",
    "district": "24 PARAGANAS NORTH",
    "state": "WEST BENGAL",
    "pincode": "743287",
    "office_type": "BO",
    "delivery": true,
    "division": "Barasat Division",
    "region": "Kolkata Region",
    "circle": "West Bengal Circle",
    "latitude": 22.9339166,
    "longitude": 88.7710424
  },
  {
    "place_name": "Andharmanik BO",
    "district": "24 PARAGANAS NORTH",
    "state": "WEST BENGAL",
    "pincode": "743401",
    "office_type": "BO",
    "delivery": true,
    "division": "Barasat Division",
    "region": "Kolkata Region",
    "circle": "West Bengal Circle",
    "latitude": 22.7621548,
    "longitude": 88.7846395
  },
  {
    "place_name": "Bena BO",
    "district": "24 PARAGANAS NORTH",
    "state": "WEST BENGAL",
    "pincode": "743401",
    "office_type": "BO",
    "delivery": true,
    "division": "Barasat Division",
    "region": "Kolkata Region",
    "circle": "West Bengal Circle",
    "latitude": 22.808966,
    "longitude": 88.7902709
  },
  {
    "place_name": "Kathur BO",
    "district": "24 PARAGANAS NORTH",
    "state": "WEST BENGAL",
    "pincode": "743422",
    "office_type": "BO",
    "delivery": true,
    "division": "Barasat Division",
    "region": "Kolkata Region",
    "circle": "West Bengal Circle",
    "latitude": 22.6057527,
    "longitude": 88.8636446
  },
  {
    "place_name": "Pifa BO",
    "district": "24 PARAGANAS NORTH",
    "state": "WEST BENGAL",
    "pincode": "743422",
    "office_type": "BO",
    "delivery": true,
    "division": "Barasat Division",
    "region": "Kolkata Region",
    "circle": "West Bengal Circle",
    "latitude": 22.6007211,
    "longitude": 88.838067
  },
  {
    "place_name": "Abadkuliadanga BO",
    "district": "24 PARAGANAS NORTH",
    "state": "WEST BENGAL",
    "pincode": "743456",
    "office_type": "BO",
    "delivery": true,
    "division": "Barasat Division",
    "region": "Kolkata Region",
    "circle": "West Bengal Circle",
    "latitude": 22.5622761,
    "longitude": 88.8694951
  },
  {
    "place_name": "Murarisaha BO",
    "district": "24 PARAGANAS NORTH",
    "state": "WEST BENGAL",
    "pincode": "743456",
    "office_type": "BO",
    "delivery": true,
    "division": "Barasat Division",
    "region": "Kolkata Region",
    "circle": "West Bengal Circle",
    "latitude": 22.573922,
    "longitude": 88.8426494
  },
  {
    "place_name": "Nimichi BO",
    "district": "24 PARAGANAS NORTH",
    "state": "WEST BENGAL",
    "pincode": "743456",
    "office_type": "BO",
    "delivery": true,
    "division": "Barasat Division",
    "region": "Kolkata Region",
    "circle": "West Bengal Circle",
    "latitude": 22.5429263,
    "longitude": 88.7963939
  },
  {
    "place_name": "Gouribhoj BO",
    "district": "24 PARAGANAS NORTH",
    "state": "WEST BENGAL",
    "pincode": "743445",
    "office_type": "BO",
    "delivery": true,
    "division": "Barasat Division",
    "region": "Kolkata Region",
    "circle": "West Bengal Circle",
    "latitude": 22.6328729,
    "longitude": 88.7543852
  },
  {
    "place_name": "Kharupala BO",
    "district": "24 PARAGANAS NORTH",
    "state": "WEST BENGAL",
    "pincode": "743425",
    "office_type": "BO",
    "delivery": true,
    "division": "Barasat Division",
    "region": "Kolkata Region",
    "circle": "West Bengal Circle",
    "latitude": 22.6312318,
    "longitude": 88.6250484
  },
  {
    "place_name": "Khasbalanda BO",
    "district": "24 PARAGANAS NORTH",
    "state": "WEST BENGAL",
    "pincode": "743425",
    "office_type": "BO",
    "delivery": true,
    "division": "Barasat Division",
    "region": "Kolkata Region",
    "circle": "West Bengal Circle",
    "latitude": 22.5963692,
    "longitude": 88.685035
  },
  {
    "place_name": "Kumarjole BO",
    "district": "24 PARAGANAS NORTH",
    "state": "WEST BENGAL",
    "pincode": "743425",
    "office_type": "BO",
    "delivery": true,
    "division": "Barasat Division",
    "region": "Kolkata Region",
    "circle": "West Bengal Circle",
    "latitude": 22.54615,
    "longitude": 88.6871683
  },
  {
    "place_name": "Ichhapur Abad BO",
    "district": "24 PARAGANAS NORTH",
    "state": "WEST BENGAL",
    "pincode": "743426",
    "office_type": "BO",
    "delivery": true,
    "division": "Barasat Division",
    "region": "Kolkata Region",
    "circle": "West Bengal Circle",
    "latitude": 22.574205,
    "longitude": 88.9162564
  },
  {
    "place_name": "Rameswarpur BO",
    "district": "24 PARAGANAS NORTH",
    "state": "WEST BENGAL",
    "pincode": "743426",
    "office_type": "BO",
    "delivery": true,
    "division": "Barasat Division",
    "region": "Kolkata Region",
    "circle": "West Bengal Circle",
    "latitude": 22.5482725,
    "longitude": 88.9464283
  },
  {
    "place_name": "Lebukhali BO",
    "district": "24 PARAGANAS NORTH",
    "state": "WEST BENGAL",
    "pincode": "743439",
    "office_type": "BO",
    "delivery": true,
    "division": "Barasat Division",
    "region": "Kolkata Region",
    "circle": "West Bengal Circle",
    "latitude": 22.3751166,
    "longitude": 88.9533563
  },
  {
    "place_name": "Kanaikati BO",
    "district": "24 PARAGANAS NORTH",
    "state": "WEST BENGAL",
    "pincode": "743439",
    "office_type": "BO",
    "delivery": true,
    "division": "Barasat Division",
    "region": "Kolkata Region",
    "circle": "West Bengal Circle",
    "latitude": 22.297877,
    "longitude": 88.991636
  },
  {
    "place_name": "Patghara BO",
    "district": "24 PARAGANAS NORTH",
    "state": "WEST BENGAL",
    "pincode": "743439",
    "office_type": "BO",
    "delivery": true,
    "division": "Barasat Division",
    "region": "Kolkata Region",
    "circle": "West Bengal Circle",
    "latitude": 22.2647548,
    "longitude": 88.9696754
  },
  {
    "place_name": "Bankra Dabar BO",
    "district": "24 PARAGANAS NORTH",
    "state": "WEST BENGAL",
    "pincode": "743435",
    "office_type": "BO",
    "delivery": true,
    "division": "Barasat Division",
    "region": "Kolkata Region",
    "circle": "West Bengal Circle",
    "latitude": 22.4364358,
    "longitude": 88.9714152
  },
  {
    "place_name": "Bishpur BO",
    "district": "24 PARAGANAS NORTH",
    "state": "WEST BENGAL",
    "pincode": "743435",
    "office_type": "BO",
    "delivery": true,
    "division": "Barasat Division",
    "region": "Kolkata Region",
    "circle": "West Bengal Circle",
    "latitude": 22.4673831,
    "longitude": 88.9365976
  },
  {
    "place_name": "Aturia BO",
    "district": "24 PARAGANAS NORTH",
    "state": "WEST BENGAL",
    "pincode": "743427",
    "office_type": "BO",
    "delivery": true,
    "division": "Barasat Division",
    "region": "Kolkata Region",
    "circle": "West Bengal Circle",
    "latitude": 22.7531161,
    "longitude": 88.8646933
  },
  {
    "place_name": "Bhaduria BO",
    "district": "24 PARAGANAS NORTH",
    "state": "WEST BENGAL",
    "pincode": "743427",
    "office_type": "BO",
    "delivery": true,
    "division": "Barasat Division",
    "region": "Kolkata Region",
    "circle": "West Bengal Circle",
    "latitude": 22.7400193,
    "longitude": 88.8977271
  },
  {
    "place_name": "Bhojpara BO",
    "district": "24 PARAGANAS NORTH",
    "state": "WEST BENGAL",
    "pincode": "743427",
    "office_type": "BO",
    "delivery": true,
    "division": "Barasat Division",
    "region": "Kolkata Region",
    "circle": "West Bengal Circle",
    "latitude": 22.7542671,
    "longitude": 88.8469153
  },
  {
    "place_name": "Gandharbapur BO",
    "district": "24 PARAGANAS NORTH",
    "state": "WEST BENGAL",
    "pincode": "743427",
    "office_type": "BO",
    "delivery": true,
    "division": "Barasat Division",
    "region": "Kolkata Region",
    "circle": "West Bengal Circle",
    "latitude": 22.7473017,
    "longitude": 88.8772994
  },
  {
    "place_name": "Kaijuri BO",
    "district": "24 PARAGANAS NORTH",
    "state": "WEST BENGAL",
    "pincode": "743427",
    "office_type": "BO",
    "delivery": true,
    "division": "Barasat Division",
    "region": "Kolkata Region",
    "circle": "West Bengal Circle",
    "latitude": 22.769571,
    "longitude": 88.9042582
  },
  {
    "place_name": "Model Belghoria BO",
    "district": "24 PARAGANAS NORTH",
    "state": "WEST BENGAL",
    "pincode": "743427",
    "office_type": "BO",
    "delivery": true,
    "division": "Barasat Division",
    "region": "Kolkata Region",
    "circle": "West Bengal Circle",
    "latitude": 22.7318657,
    "longitude": 88.8528376
  },
  {
    "place_name": "Sayestanagar BO",
    "district": "24 PARAGANAS NORTH",
    "state": "WEST BENGAL",
    "pincode": "743427",
    "office_type": "BO",
    "delivery": true,
    "division": "Barasat Division",
    "region": "Kolkata Region",
    "circle": "West Bengal Circle",
    "latitude": 22.7322434,
    "longitude": 88.8910756
  },
  {
    "place_name": "Raghunathpur BO",
    "district": "24 PARAGANAS NORTH",
    "state": "WEST BENGAL",
    "pincode": "743428",
    "office_type": "BO",
    "delivery": true,
    "division": "Barasat Division",
    "region": "Kolkata Region",
    "circle": "West Bengal Circle",
    "latitude": 22.3894599,
    "longitude": 88.4503507
  },
  {
    "place_name": "Boyermari BO",
    "district": "24 PARAGANAS NORTH",
    "state": "WEST BENGAL",
    "pincode": "743442",
    "office_type": "BO",
    "delivery": true,
    "division": "Barasat Division",
    "region": "Kolkata Region",
    "circle": "West Bengal Circle",
    "latitude": 22.4423215,
    "longitude": 88.7638294
  },
  {
    "place_name": "Kanmari BO",
    "district": "24 PARAGANAS NORTH",
    "state": "WEST BENGAL",
    "pincode": "743442",
    "office_type": "BO",
    "delivery": true,
    "division": "Barasat Division",
    "region": "Kolkata Region",
    "circle": "West Bengal Circle",
    "latitude": 22.43806,
    "longitude": 88.8012565
  },
  {
    "place_name": "Nityaberia BO",
    "district": "24 PARAGANAS NORTH",
    "state": "WEST BENGAL",
    "pincode": "743442",
    "office_type": "BO",
    "delivery": true,
    "division": "Barasat Division",
    "region": "Kolkata Region",
    "circle": "West Bengal Circle",
    "latitude": 22.404503,
    "longitude": 88.8910756
  },
  {
    "place_name": "South Sikarigheri BO",
    "district": "24 PARAGANAS NORTH",
    "state": "WEST BENGAL",
    "pincode": "743442",
    "office_type": "BO",
    "delivery": true,
    "division": "Barasat Division",
    "region": "Kolkata Region",
    "circle": "West Bengal Circle",
    "latitude": 22.4570864,
    "longitude": 88.8218021
  },
  {
    "place_name": "Atapur BO",
    "district": "24 PARAGANAS NORTH",
    "state": "WEST BENGAL",
    "pincode": "743446",
    "office_type": "BO",
    "delivery": true,
    "division": "Barasat Division",
    "region": "Kolkata Region",
    "circle": "West Bengal Circle",
    "latitude": 22.3033777,
    "longitude": 88.9198322
  },
  {
    "place_name": "Duchnikhali BO",
    "district": "24 PARAGANAS NORTH",
    "state": "WEST BENGAL",
    "pincode": "743446",
    "office_type": "BO",
    "delivery": true,
    "division": "Barasat Division",
    "region": "Kolkata Region",
    "circle": "West Bengal Circle",
    "latitude": 22.3101876,
    "longitude": 88.893578
  },
  {
    "place_name": "Joygopalpur BO",
    "district": "24 PARAGANAS NORTH",
    "state": "WEST BENGAL",
    "pincode": "743446",
    "office_type": "BO",
    "delivery": true,
    "division": "Barasat Division",
    "region": "Kolkata Region",
    "circle": "West Bengal Circle",
    "latitude": 22.2844107,
    "longitude": 88.9039421
  },
  {
    "place_name": "Banglani BO",
    "district": "24 PARAGANAS NORTH",
    "state": "WEST BENGAL",
    "pincode": "743286",
    "office_type": "BO",
    "delivery": true,
    "division": "Barasat Division",
    "region": "Kolkata Region",
    "circle": "West Bengal Circle",
    "latitude": 22.80054,
    "longitude": 88.8599002
  },
  {
    "place_name": "Kantabagan BO",
    "district": "24 PARAGANAS NORTH",
    "state": "WEST BENGAL",
    "pincode": "743286",
    "office_type": "BO",
    "delivery": true,
    "division": "Barasat Division",
    "region": "Kolkata Region",
    "circle": "West Bengal Circle",
    "latitude": 22.8242691,
    "longitude": 88.8686764
  },
  {
    "place_name": "Sanrapul BO",
    "district": "24 PARAGANAS NORTH",
    "state": "WEST BENGAL",
    "pincode": "743286",
    "office_type": "BO",
    "delivery": true,
    "division": "Barasat Division",
    "region": "Kolkata Region",
    "circle": "West Bengal Circle",
    "latitude": 22.8452514,
    "longitude": 88.8616275
  },
  {
    "place_name": "Tentulia BO",
    "district": "24 PARAGANAS NORTH",
    "state": "WEST BENGAL",
    "pincode": "743286",
    "office_type": "BO",
    "delivery": true,
    "division": "Barasat Division",
    "region": "Kolkata Region",
    "circle": "West Bengal Circle",
    "latitude": 22.7820375,
    "longitude": 88.8528943
  },
  {
    "place_name": "Soladana BO",
    "district": "24 PARAGANAS NORTH",
    "state": "WEST BENGAL",
    "pincode": "743429",
    "office_type": "BO",
    "delivery": true,
    "division": "Barasat Division",
    "region": "Kolkata Region",
    "circle": "West Bengal Circle",
    "latitude": 22.6371375,
    "longitude": 88.924623
  },
  {
    "place_name": "Kaluha BO",
    "district": "BIRBHUM",
    "state": "WEST BENGAL",
    "pincode": "731202",
    "office_type": "BO",
    "delivery": true,
    "division": "Birbhum Division",
    "region": "Kolkata Region",
    "circle": "West Bengal Circle",
    "latitude": 24.207536,
    "longitude": 87.849316
  },
  {
    "place_name": "Debiparulia BO",
    "district": "MURSHIDABAD",
    "state": "WEST BENGAL",
    "pincode": "731244",
    "office_type": "BO",
    "delivery": true,
    "division": "Birbhum Division",
    "region": "Kolkata Region",
    "circle": "West Bengal Circle",
    "latitude": 24.073496,
    "longitude": 87.90927
  },
  {
    "place_name": "Tentulia BO",
    "district": "BIRBHUM",
    "state": "WEST BENGAL",
    "pincode": "731244",
    "office_type": "BO",
    "delivery": true,
    "division": "Birbhum Division",
    "region": "Kolkata Region",
    "circle": "West Bengal Circle",
    "latitude": 24.145126,
    "longitude": 87.888081
  },
  {
    "place_name": "Dunigram BO",
    "district": "BIRBHUM",
    "state": "WEST BENGAL",
    "pincode": "731241",
    "office_type": "BO",
    "delivery": true,
    "division": "Birbhum Division",
    "region": "Kolkata Region",
    "circle": "West Bengal Circle",
    "latitude": 24.209563,
    "longitude": 87.921322
  },
  {
    "place_name": "Bhadista BO",
    "district": "BIRBHUM",
    "state": "WEST BENGAL",
    "pincode": "731238",
    "office_type": "BO",
    "delivery": true,
    "division": "Birbhum Division",
    "region": "Kolkata Region",
    "circle": "West Bengal Circle",
    "latitude": 24.357418,
    "longitude": 87.90455
  },
  {
    "place_name": "Khanpur BO",
    "district": "BIRBHUM",
    "state": "WEST BENGAL",
    "pincode": "731238",
    "office_type": "BO",
    "delivery": true,
    "division": "Birbhum Division",
    "region": "Kolkata Region",
    "circle": "West Bengal Circle",
    "latitude": 24.392326,
    "longitude": 87.820673
  },
  {
    "place_name": "Sultanpur BO",
    "district": "BIRBHUM",
    "state": "WEST BENGAL",
    "pincode": "731238",
    "office_type": "BO",
    "delivery": true,
    "division": "Birbhum Division",
    "region": "Kolkata Region",
    "circle": "West Bengal Circle",
    "latitude": 24.375509,
    "longitude": 87.803997
  },
  {
    "place_name": "Ghoshgram BO",
    "district": "BIRBHUM",
    "state": "WEST BENGAL",
    "pincode": "731245",
    "office_type": "BO",
    "delivery": true,
    "division": "Birbhum Division",
    "region": "Kolkata Region",
    "circle": "West Bengal Circle",
    "latitude": 24.053152,
    "longitude": 87.878636
  },
  {
    "place_name": "Turigram BO",
    "district": "BIRBHUM",
    "state": "WEST BENGAL",
    "pincode": "731245",
    "office_type": "BO",
    "delivery": true,
    "division": "Birbhum Division",
    "region": "Kolkata Region",
    "circle": "West Bengal Circle",
    "latitude": 24.040519,
    "longitude": 87.853134
  },
  {
    "place_name": "Bhadrapur BO",
    "district": "BIRBHUM",
    "state": "WEST BENGAL",
    "pincode": "731237",
    "office_type": "BO",
    "delivery": true,
    "division": "Birbhum Division",
    "region": "Kolkata Region",
    "circle": "West Bengal Circle",
    "latitude": 24.266035,
    "longitude": 87.94022
  },
  {
    "place_name": "Mohula BO",
    "district": "BIRBHUM",
    "state": "WEST BENGAL",
    "pincode": "731216",
    "office_type": "BO",
    "delivery": true,
    "division": "Birbhum Division",
    "region": "Kolkata Region",
    "circle": "West Bengal Circle",
    "latitude": 24.096471,
    "longitude": 87.765263
  },
  {
    "place_name": "Sekpur BO",
    "district": "BIRBHUM",
    "state": "WEST BENGAL",
    "pincode": "731216",
    "office_type": "BO",
    "delivery": true,
    "division": "Birbhum Division",
    "region": "Kolkata Region",
    "circle": "West Bengal Circle",
    "latitude": 24.018341,
    "longitude": 87.706177
  },
  {
    "place_name": "Sonj BO",
    "district": "BIRBHUM",
    "state": "WEST BENGAL",
    "pincode": "731216",
    "office_type": "BO",
    "delivery": true,
    "division": "Birbhum Division",
    "region": "Kolkata Region",
    "circle": "West Bengal Circle",
    "latitude": 24.026153,
    "longitude": 87.732037
  },
  {
    "place_name": "Tarachua BO",
    "district": "BIRBHUM",
    "state": "WEST BENGAL",
    "pincode": "731216",
    "office_type": "BO",
    "delivery": true,
    "division": "Birbhum Division",
    "region": "Kolkata Region",
    "circle": "West Bengal Circle",
    "latitude": 24.155096,
    "longitude": 87.613701
  },
  {
    "place_name": "Kanakpur BO",
    "district": "BIRBHUM",
    "state": "WEST BENGAL",
    "pincode": "731219",
    "office_type": "BO",
    "delivery": true,
    "division": "Birbhum Division",
    "region": "Kolkata Region",
    "circle": "West Bengal Circle",
    "latitude": 24.429672,
    "longitude": 87.802153
  },
  {
    "place_name": "Kathia BO",
    "district": "BIRBHUM",
    "state": "WEST BENGAL",
    "pincode": "731219",
    "office_type": "BO",
    "delivery": true,
    "division": "Birbhum Division",
    "region": "Kolkata Region",
    "circle": "West Bengal Circle",
    "latitude": 24.468292,
    "longitude": 87.908962
  },
  {
    "place_name": "Kaitha BO",
    "district": "BIRBHUM",
    "state": "WEST BENGAL",
    "pincode": "731220",
    "office_type": "BO",
    "delivery": true,
    "division": "Birbhum Division",
    "region": "Kolkata Region",
    "circle": "West Bengal Circle",
    "latitude": 24.468292,
    "longitude": 87.908962
  },
  {
    "place_name": "Harioka BO",
    "district": "BIRBHUM",
    "state": "WEST BENGAL",
    "pincode": "731243",
    "office_type": "BO",
    "delivery": true,
    "division": "Birbhum Division",
    "region": "Kolkata Region",
    "circle": "West Bengal Circle",
    "latitude": 24.149952,
    "longitude": 87.765263
  },
  {
    "place_name": "Bonha BO",
    "district": "BIRBHUM",
    "state": "WEST BENGAL",
    "pincode": "731221",
    "office_type": "BO",
    "delivery": true,
    "division": "Birbhum Division",
    "region": "Kolkata Region",
    "circle": "West Bengal Circle",
    "latitude": 24.392627,
    "longitude": 87.912641
  },
  {
    "place_name": "Gaganpur BO",
    "district": "BIRBHUM",
    "state": "WEST BENGAL",
    "pincode": "731221",
    "office_type": "BO",
    "delivery": true,
    "division": "Birbhum Division",
    "region": "Kolkata Region",
    "circle": "West Bengal Circle",
    "latitude": 24.442888,
    "longitude": 87.951247
  },
  {
    "place_name": "Hilora BO",
    "district": "BIRBHUM",
    "state": "WEST BENGAL",
    "pincode": "731221",
    "office_type": "BO",
    "delivery": true,
    "division": "Birbhum Division",
    "region": "Kolkata Region",
    "circle": "West Bengal Circle",
    "latitude": 24.497278,
    "longitude": 87.966558
  },
  {
    "place_name": "Panchahar BO",
    "district": "BIRBHUM",
    "state": "WEST BENGAL",
    "pincode": "731221",
    "office_type": "BO",
    "delivery": true,
    "division": "Birbhum Division",
    "region": "Kolkata Region",
    "circle": "West Bengal Circle",
    "latitude": 24.467358,
    "longitude": 87.94941
  },
  {
    "place_name": "Barapahari BO",
    "district": "BIRBHUM",
    "state": "WEST BENGAL",
    "pincode": "731223",
    "office_type": "BO",
    "delivery": true,
    "division": "Birbhum Division",
    "region": "Kolkata Region",
    "circle": "West Bengal Circle",
    "latitude": 24.233761,
    "longitude": 87.707409
  },
  {
    "place_name": "Bandhaipur BO",
    "district": "BIRBHUM",
    "state": "WEST BENGAL",
    "pincode": "731222",
    "office_type": "BO",
    "delivery": true,
    "division": "Birbhum Division",
    "region": "Kolkata Region",
    "circle": "West Bengal Circle",
    "latitude": 24.532034,
    "longitude": 87.902831
  },
  {
    "place_name": "Bonorampur BO",
    "district": "BIRBHUM",
    "state": "WEST BENGAL",
    "pincode": "731222",
    "office_type": "BO",
    "delivery": true,
    "division": "Birbhum Division",
    "region": "Kolkata Region",
    "circle": "West Bengal Circle",
    "latitude": 24.545136,
    "longitude": 87.884431
  },
  {
    "place_name": "Srirampur BO",
    "district": "BIRBHUM",
    "state": "WEST BENGAL",
    "pincode": "731222",
    "office_type": "BO",
    "delivery": true,
    "division": "Birbhum Division",
    "region": "Kolkata Region",
    "circle": "West Bengal Circle",
    "latitude": 23.771912,
    "longitude": 87.725881
  },
  {
    "place_name": "Kanserhat BO",
    "district": "BIRBHUM",
    "state": "WEST BENGAL",
    "pincode": "731121",
    "office_type": "BO",
    "delivery": true,
    "division": "Birbhum Division",
    "region": "Kolkata Region",
    "circle": "West Bengal Circle",
    "latitude": 23.817131,
    "longitude": 87.552736
  },
  {
    "place_name": "Panrui BO",
    "district": "BIRBHUM",
    "state": "WEST BENGAL",
    "pincode": "731121",
    "office_type": "BO",
    "delivery": true,
    "division": "Birbhum Division",
    "region": "Kolkata Region",
    "circle": "West Bengal Circle",
    "latitude": 23.785037,
    "longitude": 87.609998
  },
  {
    "place_name": "Talibpur BO",
    "district": "BIRBHUM",
    "state": "WEST BENGAL",
    "pincode": "731121",
    "office_type": "BO",
    "delivery": true,
    "division": "Birbhum Division",
    "region": "Kolkata Region",
    "circle": "West Bengal Circle",
    "latitude": 23.768494,
    "longitude": 87.550093
  },
  {
    "place_name": "Chotosangra BO",
    "district": "BIRBHUM",
    "state": "WEST BENGAL",
    "pincode": "731201",
    "office_type": "BO",
    "delivery": true,
    "division": "Birbhum Division",
    "region": "Kolkata Region",
    "circle": "West Bengal Circle",
    "latitude": 23.662784,
    "longitude": 87.667336
  },
  {
    "place_name": "Konarpur BO",
    "district": "BIRBHUM",
    "state": "WEST BENGAL",
    "pincode": "731201",
    "office_type": "BO",
    "delivery": true,
    "division": "Birbhum Division",
    "region": "Kolkata Region",
    "circle": "West Bengal Circle",
    "latitude": 23.768393,
    "longitude": 87.688929
  },
  {
    "place_name": "Paharpur BO",
    "district": "BIRBHUM",
    "state": "WEST BENGAL",
    "pincode": "731201",
    "office_type": "BO",
    "delivery": true,
    "division": "Birbhum Division",
    "region": "Kolkata Region",
    "circle": "West Bengal Circle",
    "latitude": 23.802159,
    "longitude": 87.660579
  },
  {
    "place_name": "Uttarkhayerbuni BO",
    "district": "BIRBHUM",
    "state": "WEST BENGAL",
    "pincode": "731201",
    "office_type": "BO",
    "delivery": true,
    "division": "Birbhum Division",
    "region": "Kolkata Region",
    "circle": "West Bengal Circle",
    "latitude": 23.8401167,
    "longitude": 87.618638
  },
  {
    "place_name": "Pafuri BO",
    "district": "BIRBHUM",
    "state": "WEST BENGAL",
    "pincode": "731240",
    "office_type": "BO",
    "delivery": true,
    "division": "Birbhum Division",
    "region": "Kolkata Region",
    "circle": "West Bengal Circle",
    "latitude": 23.652031,
    "longitude": 87.816286
  },
  {
    "place_name": "Kukhudihi BO",
    "district": "BIRBHUM",
    "state": "WEST BENGAL",
    "pincode": "731103",
    "office_type": "BO",
    "delivery": true,
    "division": "Birbhum Division",
    "region": "Kolkata Region",
    "circle": "West Bengal Circle",
    "latitude": 23.924483,
    "longitude": 87.56537
  },
  {
    "place_name": "Tapaspur BO",
    "district": "BIRBHUM",
    "state": "WEST BENGAL",
    "pincode": "731104",
    "office_type": "BO",
    "delivery": true,
    "division": "Birbhum Division",
    "region": "Kolkata Region",
    "circle": "West Bengal Circle",
    "latitude": 23.834556,
    "longitude": 87.462028
  },
  {
    "place_name": "Adityapur BO",
    "district": "BIRBHUM",
    "state": "WEST BENGAL",
    "pincode": "731204",
    "office_type": "BO",
    "delivery": true,
    "division": "Birbhum Division",
    "region": "Kolkata Region",
    "circle": "West Bengal Circle",
    "latitude": 23.709217,
    "longitude": 87.708641
  },
  {
    "place_name": "Albandha BO",
    "district": "BIRBHUM",
    "state": "WEST BENGAL",
    "pincode": "731204",
    "office_type": "BO",
    "delivery": true,
    "division": "Birbhum Division",
    "region": "Kolkata Region",
    "circle": "West Bengal Circle",
    "latitude": 23.747763,
    "longitude": 87.70125
  },
  {
    "place_name": "Laldaha BO",
    "district": "BIRBHUM",
    "state": "WEST BENGAL",
    "pincode": "731204",
    "office_type": "BO",
    "delivery": true,
    "division": "Birbhum Division",
    "region": "Kolkata Region",
    "circle": "West Bengal Circle",
    "latitude": 23.730249,
    "longitude": 87.723418
  },
  {
    "place_name": "Sitapur BO",
    "district": "BIRBHUM",
    "state": "WEST BENGAL",
    "pincode": "731204",
    "office_type": "BO",
    "delivery": true,
    "division": "Birbhum Division",
    "region": "Kolkata Region",
    "circle": "West Bengal Circle",
    "latitude": 23.725493,
    "longitude": 87.733995
  },
  {
    "place_name": "Supur BO",
    "district": "BIRBHUM",
    "state": "WEST BENGAL",
    "pincode": "731204",
    "office_type": "BO",
    "delivery": true,
    "division": "Birbhum Division",
    "region": "Kolkata Region",
    "circle": "West Bengal Circle",
    "latitude": 23.669759,
    "longitude": 87.692877
  },
  {
    "place_name": "Charkolgram BO",
    "district": "BIRBHUM",
    "state": "WEST BENGAL",
    "pincode": "731301",
    "office_type": "BO",
    "delivery": true,
    "division": "Birbhum Division",
    "region": "Kolkata Region",
    "circle": "West Bengal Circle",
    "latitude": 23.659056,
    "longitude": 87.84024
  },
  {
    "place_name": "Mohanpur BO",
    "district": "BIRBHUM",
    "state": "WEST BENGAL",
    "pincode": "731301",
    "office_type": "BO",
    "delivery": true,
    "division": "Birbhum Division",
    "region": "Kolkata Region",
    "circle": "West Bengal Circle",
    "latitude": 23.682159,
    "longitude": 87.791089
  },
  {
    "place_name": "Balijuri BO",
    "district": "BIRBHUM",
    "state": "WEST BENGAL",
    "pincode": "731123",
    "office_type": "BO",
    "delivery": true,
    "division": "Birbhum Division",
    "region": "Kolkata Region",
    "circle": "West Bengal Circle",
    "latitude": 23.822131,
    "longitude": 87.332668
  },
  {
    "place_name": "Lakshmi Narayan Pur BO",
    "district": "BIRBHUM",
    "state": "WEST BENGAL",
    "pincode": "731123",
    "office_type": "BO",
    "delivery": true,
    "division": "Birbhum Division",
    "region": "Kolkata Region",
    "circle": "West Bengal Circle",
    "latitude": 23.86189,
    "longitude": 87.332979
  },
  {
    "place_name": "Peruagopalpur BO",
    "district": "BIRBHUM",
    "state": "WEST BENGAL",
    "pincode": "731123",
    "office_type": "BO",
    "delivery": true,
    "division": "Birbhum Division",
    "region": "Kolkata Region",
    "circle": "West Bengal Circle",
    "latitude": 23.806797,
    "longitude": 87.305341
  },
  {
    "place_name": "Bhurkuna BO",
    "district": "BIRBHUM",
    "state": "WEST BENGAL",
    "pincode": "731102",
    "office_type": "BO",
    "delivery": true,
    "division": "Birbhum Division",
    "region": "Kolkata Region",
    "circle": "West Bengal Circle",
    "latitude": 23.830887,
    "longitude": 87.501245
  },
  {
    "place_name": "Janubazar BO",
    "district": "BIRBHUM",
    "state": "WEST BENGAL",
    "pincode": "731124",
    "office_type": "BO",
    "delivery": true,
    "division": "Birbhum Division",
    "region": "Kolkata Region",
    "circle": "West Bengal Circle",
    "latitude": 23.642739,
    "longitude": 87.44925
  },
  {
    "place_name": "Joydevkenduli BO",
    "district": "BIRBHUM",
    "state": "WEST BENGAL",
    "pincode": "731124",
    "office_type": "BO",
    "delivery": true,
    "division": "Birbhum Division",
    "region": "Kolkata Region",
    "circle": "West Bengal Circle",
    "latitude": 23.643167,
    "longitude": 87.430047
  },
  {
    "place_name": "Kandighi BO",
    "district": "BIRBHUM",
    "state": "WEST BENGAL",
    "pincode": "731124",
    "office_type": "BO",
    "delivery": true,
    "division": "Birbhum Division",
    "region": "Kolkata Region",
    "circle": "West Bengal Circle",
    "latitude": 23.740735,
    "longitude": 87.441818
  },
  {
    "place_name": "Niramoy Sanetorium Giridangaed BO",
    "district": "BIRBHUM",
    "state": "WEST BENGAL",
    "pincode": "731124",
    "office_type": "BO",
    "delivery": true,
    "division": "Birbhum Division",
    "region": "Kolkata Region",
    "circle": "West Bengal Circle",
    "latitude": 23.790823,
    "longitude": 87.409673
  },
  {
    "place_name": "Koyra BO",
    "district": "BIRBHUM",
    "state": "WEST BENGAL",
    "pincode": "731214",
    "office_type": "BO",
    "delivery": true,
    "division": "Birbhum Division",
    "region": "Kolkata Region",
    "circle": "West Bengal Circle",
    "latitude": 23.688289,
    "longitude": 87.547753
  },
  {
    "place_name": "Latbhabanipur BO",
    "district": "BIRBHUM",
    "state": "WEST BENGAL",
    "pincode": "731214",
    "office_type": "BO",
    "delivery": true,
    "division": "Birbhum Division",
    "region": "Kolkata Region",
    "circle": "West Bengal Circle",
    "latitude": 23.668236,
    "longitude": 87.462874
  },
  {
    "place_name": "Madhaipur BO",
    "district": "BIRBHUM",
    "state": "WEST BENGAL",
    "pincode": "731126",
    "office_type": "BO",
    "delivery": true,
    "division": "Birbhum Division",
    "region": "Kolkata Region",
    "circle": "West Bengal Circle",
    "latitude": 23.905152,
    "longitude": 87.408356
  },
  {
    "place_name": "Patadanga BO",
    "district": "BIRBHUM",
    "state": "WEST BENGAL",
    "pincode": "731126",
    "office_type": "BO",
    "delivery": true,
    "division": "Birbhum Division",
    "region": "Kolkata Region",
    "circle": "West Bengal Circle",
    "latitude": 23.918878,
    "longitude": 87.429427
  },
  {
    "place_name": "Rajganj BO",
    "district": "BIRBHUM",
    "state": "WEST BENGAL",
    "pincode": "731126",
    "office_type": "BO",
    "delivery": true,
    "division": "Birbhum Division",
    "region": "Kolkata Region",
    "circle": "West Bengal Circle",
    "latitude": 23.917713,
    "longitude": 87.442346
  },
  {
    "place_name": "Geruapahari BO",
    "district": "BIRBHUM",
    "state": "WEST BENGAL",
    "pincode": "731125",
    "office_type": "BO",
    "delivery": true,
    "division": "Birbhum Division",
    "region": "Kolkata Region",
    "circle": "West Bengal Circle",
    "latitude": 23.852835,
    "longitude": 87.148256
  },
  {
    "place_name": "Kendragoria BO",
    "district": "BIRBHUM",
    "state": "WEST BENGAL",
    "pincode": "731125",
    "office_type": "BO",
    "delivery": true,
    "division": "Birbhum Division",
    "region": "Kolkata Region",
    "circle": "West Bengal Circle",
    "latitude": 23.767415,
    "longitude": 87.263076
  },
  {
    "place_name": "Nabasan BO",
    "district": "BIRBHUM",
    "state": "WEST BENGAL",
    "pincode": "731125",
    "office_type": "BO",
    "delivery": true,
    "division": "Birbhum Division",
    "region": "Kolkata Region",
    "circle": "West Bengal Circle",
    "latitude": 23.764617,
    "longitude": 87.189645
  },
  {
    "place_name": "Belai BO",
    "district": "BIRBHUM",
    "state": "WEST BENGAL",
    "pincode": "731215",
    "office_type": "BO",
    "delivery": true,
    "division": "Birbhum Division",
    "region": "Kolkata Region",
    "circle": "West Bengal Circle",
    "latitude": 23.637625,
    "longitude": 87.920494
  },
  {
    "place_name": "Palita BO",
    "district": "PURBA BARDHAMAN",
    "state": "WEST BENGAL",
    "pincode": "731215",
    "office_type": "BO",
    "delivery": true,
    "division": "Birbhum Division",
    "region": "Kolkata Region",
    "circle": "West Bengal Circle",
    "latitude": 23.649242,
    "longitude": 87.960491
  },
  {
    "place_name": "Brahmandihi BO",
    "district": "BIRBHUM",
    "state": "WEST BENGAL",
    "pincode": "731302",
    "office_type": "BO",
    "delivery": true,
    "division": "Birbhum Division",
    "region": "Kolkata Region",
    "circle": "West Bengal Circle",
    "latitude": 23.766334,
    "longitude": 87.910802
  },
  {
    "place_name": "Fewgram BO",
    "district": "BIRBHUM",
    "state": "WEST BENGAL",
    "pincode": "731302",
    "office_type": "BO",
    "delivery": true,
    "division": "Birbhum Division",
    "region": "Kolkata Region",
    "circle": "West Bengal Circle",
    "latitude": 23.757227,
    "longitude": 87.835675
  },
  {
    "place_name": "Bipratikuri BO",
    "district": "BIRBHUM",
    "state": "WEST BENGAL",
    "pincode": "731303",
    "office_type": "BO",
    "delivery": true,
    "division": "Birbhum Division",
    "region": "Kolkata Region",
    "circle": "West Bengal Circle",
    "latitude": 23.759844,
    "longitude": 87.78837
  },
  {
    "place_name": "Gopalpur BO",
    "district": "BIRBHUM",
    "state": "WEST BENGAL",
    "pincode": "731303",
    "office_type": "BO",
    "delivery": true,
    "division": "Birbhum Division",
    "region": "Kolkata Region",
    "circle": "West Bengal Circle",
    "latitude": 23.819898,
    "longitude": 87.781105
  },
  {
    "place_name": "Kamadpur BO",
    "district": "BIRBHUM",
    "state": "WEST BENGAL",
    "pincode": "731303",
    "office_type": "BO",
    "delivery": true,
    "division": "Birbhum Division",
    "region": "Kolkata Region",
    "circle": "West Bengal Circle",
    "latitude": 23.857482,
    "longitude": 87.783712
  },
  {
    "place_name": "Maheshpur BO",
    "district": "BIRBHUM",
    "state": "WEST BENGAL",
    "pincode": "731303",
    "office_type": "BO",
    "delivery": true,
    "division": "Birbhum Division",
    "region": "Kolkata Region",
    "circle": "West Bengal Circle",
    "latitude": 23.779372,
    "longitude": 87.831643
  },
  {
    "place_name": "Daspalsa BO",
    "district": "BIRBHUM",
    "state": "WEST BENGAL",
    "pincode": "731218",
    "office_type": "BO",
    "delivery": true,
    "division": "Birbhum Division",
    "region": "Kolkata Region",
    "circle": "West Bengal Circle",
    "latitude": 23.963376,
    "longitude": 87.809527
  },
  {
    "place_name": "Kaleswar BO",
    "district": "BIRBHUM",
    "state": "WEST BENGAL",
    "pincode": "731218",
    "office_type": "BO",
    "delivery": true,
    "division": "Birbhum Division",
    "region": "Kolkata Region",
    "circle": "West Bengal Circle",
    "latitude": 23.957215,
    "longitude": 87.846995
  },
  {
    "place_name": "Parulia BO",
    "district": "BIRBHUM",
    "state": "WEST BENGAL",
    "pincode": "731218",
    "office_type": "BO",
    "delivery": true,
    "division": "Birbhum Division",
    "region": "Kolkata Region",
    "circle": "West Bengal Circle",
    "latitude": 23.999005,
    "longitude": 87.704945
  },
  {
    "place_name": "Baidyanathpur BO",
    "district": "BIRBHUM",
    "state": "WEST BENGAL",
    "pincode": "731127",
    "office_type": "BO",
    "delivery": true,
    "division": "Birbhum Division",
    "region": "Kolkata Region",
    "circle": "West Bengal Circle",
    "latitude": 24.007015,
    "longitude": 87.45792
  },
  {
    "place_name": "Bishnupurkulkuri BO",
    "district": "BIRBHUM",
    "state": "WEST BENGAL",
    "pincode": "731127",
    "office_type": "BO",
    "delivery": true,
    "division": "Birbhum Division",
    "region": "Kolkata Region",
    "circle": "West Bengal Circle",
    "latitude": 24.014244,
    "longitude": 87.537113
  },
  {
    "place_name": "Kapista BO",
    "district": "BIRBHUM",
    "state": "WEST BENGAL",
    "pincode": "731127",
    "office_type": "BO",
    "delivery": true,
    "division": "Birbhum Division",
    "region": "Kolkata Region",
    "circle": "West Bengal Circle",
    "latitude": 24.061689,
    "longitude": 87.52087
  },
  {
    "place_name": "Nimdaspur BO",
    "district": "BIRBHUM",
    "state": "WEST BENGAL",
    "pincode": "731127",
    "office_type": "BO",
    "delivery": true,
    "division": "Birbhum Division",
    "region": "Kolkata Region",
    "circle": "West Bengal Circle",
    "latitude": 23.943429,
    "longitude": 87.476493
  },
  {
    "place_name": "Deucha BO",
    "district": "BIRBHUM",
    "state": "WEST BENGAL",
    "pincode": "731132",
    "office_type": "BO",
    "delivery": true,
    "division": "Birbhum Division",
    "region": "Kolkata Region",
    "circle": "West Bengal Circle",
    "latitude": 24.044664,
    "longitude": 87.581599
  },
  {
    "place_name": "Harinsingha BO",
    "district": "BIRBHUM",
    "state": "WEST BENGAL",
    "pincode": "731132",
    "office_type": "BO",
    "delivery": true,
    "division": "Birbhum Division",
    "region": "Kolkata Region",
    "circle": "West Bengal Circle",
    "latitude": 23.994571,
    "longitude": 87.608764
  },
  {
    "place_name": "Damdama BO",
    "district": "BIRBHUM",
    "state": "WEST BENGAL",
    "pincode": "731129",
    "office_type": "BO",
    "delivery": true,
    "division": "Birbhum Division",
    "region": "Kolkata Region",
    "circle": "West Bengal Circle",
    "latitude": 23.851906,
    "longitude": 87.608764
  },
  {
    "place_name": "Ikra BO",
    "district": "BIRBHUM",
    "state": "WEST BENGAL",
    "pincode": "731129",
    "office_type": "BO",
    "delivery": true,
    "division": "Birbhum Division",
    "region": "Kolkata Region",
    "circle": "West Bengal Circle",
    "latitude": 23.815182,
    "longitude": 87.637146
  },
  {
    "place_name": "Aligarh BO",
    "district": "BIRBHUM",
    "state": "WEST BENGAL",
    "pincode": "731130",
    "office_type": "BO",
    "delivery": true,
    "division": "Birbhum Division",
    "region": "Kolkata Region",
    "circle": "West Bengal Circle",
    "latitude": 23.982441,
    "longitude": 87.32614
  },
  {
    "place_name": "Muktipur BO",
    "district": "BIRBHUM",
    "state": "WEST BENGAL",
    "pincode": "731130",
    "office_type": "BO",
    "delivery": true,
    "division": "Birbhum Division",
    "region": "Kolkata Region",
    "circle": "West Bengal Circle",
    "latitude": 23.892084,
    "longitude": 87.338877
  },
  {
    "place_name": "Gadadharpur RS BO",
    "district": "BIRBHUM",
    "state": "WEST BENGAL",
    "pincode": "731234",
    "office_type": "BO",
    "delivery": true,
    "division": "Birbhum Division",
    "region": "Kolkata Region",
    "circle": "West Bengal Circle",
    "latitude": 24.014414,
    "longitude": 87.69201
  },
  {
    "place_name": "Hatora BO",
    "district": "BIRBHUM",
    "state": "WEST BENGAL",
    "pincode": "731234",
    "office_type": "BO",
    "delivery": true,
    "division": "Birbhum Division",
    "region": "Kolkata Region",
    "circle": "West Bengal Circle",
    "latitude": 23.840168,
    "longitude": 87.618638
  },
  {
    "place_name": "Kunuri BO",
    "district": "BIRBHUM",
    "state": "WEST BENGAL",
    "pincode": "731234",
    "office_type": "BO",
    "delivery": true,
    "division": "Birbhum Division",
    "region": "Kolkata Region",
    "circle": "West Bengal Circle",
    "latitude": 23.92031,
    "longitude": 87.611233
  },
  {
    "place_name": "Mathpalsa BO",
    "district": "BIRBHUM",
    "state": "WEST BENGAL",
    "pincode": "731234",
    "office_type": "BO",
    "delivery": true,
    "division": "Birbhum Division",
    "region": "Kolkata Region",
    "circle": "West Bengal Circle",
    "latitude": 23.92829,
    "longitude": 87.647014
  },
  {
    "place_name": "Pathai BO",
    "district": "BIRBHUM",
    "state": "WEST BENGAL",
    "pincode": "731234",
    "office_type": "BO",
    "delivery": true,
    "division": "Birbhum Division",
    "region": "Kolkata Region",
    "circle": "West Bengal Circle",
    "latitude": 24.00315,
    "longitude": 87.684
  },
  {
    "place_name": "Ramnagar BO",
    "district": "BIRBHUM",
    "state": "WEST BENGAL",
    "pincode": "731234",
    "office_type": "BO",
    "delivery": true,
    "division": "Birbhum Division",
    "region": "Kolkata Region",
    "circle": "West Bengal Circle",
    "latitude": 23.944329,
    "longitude": 87.759626
  },
  {
    "place_name": "Belatisultanpur BO",
    "district": "BIRBHUM",
    "state": "WEST BENGAL",
    "pincode": "731236",
    "office_type": "BO",
    "delivery": true,
    "division": "Birbhum Division",
    "region": "Kolkata Region",
    "circle": "West Bengal Circle",
    "latitude": 23.705884,
    "longitude": 87.586539
  },
  {
    "place_name": "Bergram BO",
    "district": "BIRBHUM",
    "state": "WEST BENGAL",
    "pincode": "731236",
    "office_type": "BO",
    "delivery": true,
    "division": "Birbhum Division",
    "region": "Kolkata Region",
    "circle": "West Bengal Circle",
    "latitude": 23.731784,
    "longitude": 87.627276
  },
  {
    "place_name": "Digha BO",
    "district": "BIRBHUM",
    "state": "WEST BENGAL",
    "pincode": "731236",
    "office_type": "BO",
    "delivery": true,
    "division": "Birbhum Division",
    "region": "Kolkata Region",
    "circle": "West Bengal Circle",
    "latitude": 23.758619,
    "longitude": 87.632211
  },
  {
    "place_name": "Khanjanpur BO",
    "district": "BIRBHUM",
    "state": "WEST BENGAL",
    "pincode": "731236",
    "office_type": "BO",
    "delivery": true,
    "division": "Birbhum Division",
    "region": "Kolkata Region",
    "circle": "West Bengal Circle",
    "latitude": 23.708483,
    "longitude": 87.659346
  },
  {
    "place_name": "BHATRA BO",
    "district": "BIRBHUM",
    "state": "WEST BENGAL",
    "pincode": "731304",
    "office_type": "BO",
    "delivery": true,
    "division": "Birbhum Division",
    "region": "Kolkata Region",
    "circle": "West Bengal Circle",
    "latitude": 23.833569,
    "longitude": 87.842265
  },
  {
    "place_name": "Ghuni BO",
    "district": "24 PARAGANAS NORTH",
    "state": "WEST BENGAL",
    "pincode": "700157",
    "office_type": "BO",
    "delivery": false,
    "division": "Kolkata East Division",
    "region": "Kolkata Region",
    "circle": "West Bengal Circle",
    "latitude": 22.351597,
    "longitude": 88.273062
  },
  {
    "place_name": "Chowbaga BO",
    "district": "KOLKATA",
    "state": "WEST BENGAL",
    "pincode": "700105",
    "office_type": "BO",
    "delivery": false,
    "division": "Kolkata East Division",
    "region": "Kolkata Region",
    "circle": "West Bengal Circle",
    "latitude": 22.3143602,
    "longitude": 88.258562
  },
  {
    "place_name": "Chandpur BO",
    "district": "MURSHIDABAD",
    "state": "WEST BENGAL",
    "pincode": "742121",
    "office_type": "BO",
    "delivery": true,
    "division": "Murshidabad Division",
    "region": "Kolkata Region",
    "circle": "West Bengal Circle",
    "latitude": 24.6393,
    "longitude": 87.912
  },
  {
    "place_name": "Jitpur BO",
    "district": "MURSHIDABAD",
    "state": "WEST BENGAL",
    "pincode": "742121",
    "office_type": "BO",
    "delivery": true,
    "division": "Murshidabad Division",
    "region": "Kolkata Region",
    "circle": "West Bengal Circle",
    "latitude": 24.9692,
    "longitude": 88.0489
  },
  {
    "place_name": "Andulberia BO",
    "district": "MURSHIDABAD",
    "state": "WEST BENGAL",
    "pincode": "742189",
    "office_type": "BO",
    "delivery": true,
    "division": "Murshidabad Division",
    "region": "Kolkata Region",
    "circle": "West Bengal Circle",
    "latitude": 24.3535,
    "longitude": 87.8983
  },
  {
    "place_name": "Dadpur BO",
    "district": "MURSHIDABAD",
    "state": "WEST BENGAL",
    "pincode": "742189",
    "office_type": "BO",
    "delivery": true,
    "division": "Murshidabad Division",
    "region": "Kolkata Region",
    "circle": "West Bengal Circle",
    "latitude": 24.4101,
    "longitude": 87.8625
  },
  {
    "place_name": "Nutanpararaipur BO",
    "district": "MURSHIDABAD",
    "state": "WEST BENGAL",
    "pincode": "742165",
    "office_type": "BO",
    "delivery": true,
    "division": "Murshidabad Division",
    "region": "Kolkata Region",
    "circle": "West Bengal Circle",
    "latitude": 24.5272,
    "longitude": 87.9291
  },
  {
    "place_name": "Juranpur BO",
    "district": "MURSHIDABAD",
    "state": "WEST BENGAL",
    "pincode": "742406",
    "office_type": "BO",
    "delivery": true,
    "division": "Murshidabad Division",
    "region": "Kolkata Region",
    "circle": "West Bengal Circle",
    "latitude": 23.3102,
    "longitude": 87.2788
  },
  {
    "place_name": "Madhurkul BO",
    "district": "MURSHIDABAD",
    "state": "WEST BENGAL",
    "pincode": "742406",
    "office_type": "BO",
    "delivery": true,
    "division": "Murshidabad Division",
    "region": "Kolkata Region",
    "circle": "West Bengal Circle",
    "latitude": 23.3102,
    "longitude": 87.2788
  },
  {
    "place_name": "Bishannagar BO",
    "district": "MURSHIDABAD",
    "state": "WEST BENGAL",
    "pincode": "742133",
    "office_type": "BO",
    "delivery": true,
    "division": "Murshidabad Division",
    "region": "Kolkata Region",
    "circle": "West Bengal Circle",
    "latitude": 24.0232,
    "longitude": 87.9257
  },
  {
    "place_name": "Dalua BO",
    "district": "MURSHIDABAD",
    "state": "WEST BENGAL",
    "pincode": "742133",
    "office_type": "BO",
    "delivery": true,
    "division": "Murshidabad Division",
    "region": "Kolkata Region",
    "circle": "West Bengal Circle",
    "latitude": 24.0232,
    "longitude": 87.9257
  },
  {
    "place_name": "Ghoramara BO",
    "district": "MURSHIDABAD",
    "state": "WEST BENGAL",
    "pincode": "742133",
    "office_type": "BO",
    "delivery": true,
    "division": "Murshidabad Division",
    "region": "Kolkata Region",
    "circle": "West Bengal Circle",
    "latitude": 24.0232,
    "longitude": 87.9257
  },
  {
    "place_name": "Jhunka BO",
    "district": "MURSHIDABAD",
    "state": "WEST BENGAL",
    "pincode": "742134",
    "office_type": "BO",
    "delivery": true,
    "division": "Murshidabad Division",
    "region": "Kolkata Region",
    "circle": "West Bengal Circle",
    "latitude": 24.2925,
    "longitude": 88.0692
  },
  {
    "place_name": "Rameswarpur BO",
    "district": "MURSHIDABAD",
    "state": "WEST BENGAL",
    "pincode": "742134",
    "office_type": "BO",
    "delivery": true,
    "division": "Murshidabad Division",
    "region": "Kolkata Region",
    "circle": "West Bengal Circle",
    "latitude": 24.2706,
    "longitude": 87.9183
  },
  {
    "place_name": "Sujapur BO",
    "district": "MURSHIDABAD",
    "state": "WEST BENGAL",
    "pincode": "742134",
    "office_type": "BO",
    "delivery": true,
    "division": "Murshidabad Division",
    "region": "Kolkata Region",
    "circle": "West Bengal Circle",
    "latitude": 24.5946,
    "longitude": 87.985
  },
  {
    "place_name": "Bishnupur Kalibari BO",
    "district": "MURSHIDABAD",
    "state": "WEST BENGAL",
    "pincode": "742102",
    "office_type": "BO",
    "delivery": false,
    "division": "Murshidabad Division",
    "region": "Kolkata Region",
    "circle": "West Bengal Circle",
    "latitude": 24.1047,
    "longitude": 88.2516
  },
  {
    "place_name": "Gazdharpara BO",
    "district": "MURSHIDABAD",
    "state": "WEST BENGAL",
    "pincode": "742102",
    "office_type": "BO",
    "delivery": true,
    "division": "Murshidabad Division",
    "region": "Kolkata Region",
    "circle": "West Bengal Circle",
    "latitude": 24.1047,
    "longitude": 88.2516
  },
  {
    "place_name": "Hatinagar BO",
    "district": "MURSHIDABAD",
    "state": "WEST BENGAL",
    "pincode": "742102",
    "office_type": "BO",
    "delivery": true,
    "division": "Murshidabad Division",
    "region": "Kolkata Region",
    "circle": "West Bengal Circle",
    "latitude": 24.1047,
    "longitude": 88.2516
  },
  {
    "place_name": "Nowdapanur BO",
    "district": "MURSHIDABAD",
    "state": "WEST BENGAL",
    "pincode": "742102",
    "office_type": "BO",
    "delivery": true,
    "division": "Murshidabad Division",
    "region": "Kolkata Region",
    "circle": "West Bengal Circle",
    "latitude": 24.1047,
    "longitude": 88.2516
  },
  {
    "place_name": "Etore BO",
    "district": "MURSHIDABAD",
    "state": "WEST BENGAL",
    "pincode": "742104",
    "office_type": "BO",
    "delivery": true,
    "division": "Murshidabad Division",
    "region": "Kolkata Region",
    "circle": "West Bengal Circle",
    "latitude": 24.1047,
    "longitude": 88.2516
  },
  {
    "place_name": "Kiriteswari BO",
    "district": "MURSHIDABAD",
    "state": "WEST BENGAL",
    "pincode": "742104",
    "office_type": "BO",
    "delivery": true,
    "division": "Murshidabad Division",
    "region": "Kolkata Region",
    "circle": "West Bengal Circle",
    "latitude": 24.1047,
    "longitude": 88.2516
  },
  {
    "place_name": "BDurlavpur BO",
    "district": "MURSHIDABAD",
    "state": "WEST BENGAL",
    "pincode": "742302",
    "office_type": "BO",
    "delivery": true,
    "division": "Murshidabad Division",
    "region": "Kolkata Region",
    "circle": "West Bengal Circle",
    "latitude": 24.5109,
    "longitude": 87.9004
  },
  {
    "place_name": "Chatai BO",
    "district": "MURSHIDABAD",
    "state": "WEST BENGAL",
    "pincode": "742302",
    "office_type": "BO",
    "delivery": true,
    "division": "Murshidabad Division",
    "region": "Kolkata Region",
    "circle": "West Bengal Circle",
    "latitude": 24.5109,
    "longitude": 87.9004
  },
  {
    "place_name": "Chatra BO",
    "district": "MURSHIDABAD",
    "state": "WEST BENGAL",
    "pincode": "742302",
    "office_type": "BO",
    "delivery": true,
    "division": "Murshidabad Division",
    "region": "Kolkata Region",
    "circle": "West Bengal Circle",
    "latitude": 24.375,
    "longitude": 87.852
  },
  {
    "place_name": "Chhaighari BO",
    "district": "MURSHIDABAD",
    "state": "WEST BENGAL",
    "pincode": "742302",
    "office_type": "BO",
    "delivery": true,
    "division": "Murshidabad Division",
    "region": "Kolkata Region",
    "circle": "West Bengal Circle",
    "latitude": 24.5109,
    "longitude": 87.9004
  },
  {
    "place_name": "Pomaipur BO",
    "district": "MURSHIDABAD",
    "state": "WEST BENGAL",
    "pincode": "742302",
    "office_type": "BO",
    "delivery": true,
    "division": "Murshidabad Division",
    "region": "Kolkata Region",
    "circle": "West Bengal Circle",
    "latitude": 24.5109,
    "longitude": 87.9004
  },
  {
    "place_name": "Tentulia BO",
    "district": "MURSHIDABAD",
    "state": "WEST BENGAL",
    "pincode": "742302",
    "office_type": "BO",
    "delivery": true,
    "division": "Murshidabad Division",
    "region": "Kolkata Region",
    "circle": "West Bengal Circle",
    "latitude": 24.1461,
    "longitude": 87.8894
  },
  {
    "place_name": "Khairamari BO",
    "district": "MURSHIDABAD",
    "state": "WEST BENGAL",
    "pincode": "742303",
    "office_type": "BO",
    "delivery": true,
    "division": "Murshidabad Division",
    "region": "Kolkata Region",
    "circle": "West Bengal Circle",
    "latitude": 23.9378,
    "longitude": 87.6178
  },
  {
    "place_name": "Sahazadpur BO",
    "district": "MURSHIDABAD",
    "state": "WEST BENGAL",
    "pincode": "742166",
    "office_type": "BO",
    "delivery": true,
    "division": "Murshidabad Division",
    "region": "Kolkata Region",
    "circle": "West Bengal Circle",
    "latitude": 23.6798,
    "longitude": 88.1155
  },
  {
    "place_name": "Tartipur BO",
    "district": "MURSHIDABAD",
    "state": "WEST BENGAL",
    "pincode": "742166",
    "office_type": "BO",
    "delivery": true,
    "division": "Murshidabad Division",
    "region": "Kolkata Region",
    "circle": "West Bengal Circle",
    "latitude": 23.6798,
    "longitude": 88.1155
  },
  {
    "place_name": "Nazirpur BO",
    "district": "MURSHIDABAD",
    "state": "WEST BENGAL",
    "pincode": "742304",
    "office_type": "BO",
    "delivery": false,
    "division": "Murshidabad Division",
    "region": "Kolkata Region",
    "circle": "West Bengal Circle",
    "latitude": 25.4031,
    "longitude": 87.8175
  },
  {
    "place_name": "Paikmari BO",
    "district": "MURSHIDABAD",
    "state": "WEST BENGAL",
    "pincode": "742304",
    "office_type": "BO",
    "delivery": true,
    "division": "Murshidabad Division",
    "region": "Kolkata Region",
    "circle": "West Bengal Circle",
    "latitude": 24.2045,
    "longitude": 88.1546
  },
  {
    "place_name": "Joykrishnapur BO",
    "district": "MURSHIDABAD",
    "state": "WEST BENGAL",
    "pincode": "742305",
    "office_type": "BO",
    "delivery": true,
    "division": "Murshidabad Division",
    "region": "Kolkata Region",
    "circle": "West Bengal Circle",
    "latitude": 23.466,
    "longitude": 88.2157
  },
  {
    "place_name": "Muradpur Arji BO",
    "district": "MURSHIDABAD",
    "state": "WEST BENGAL",
    "pincode": "742305",
    "office_type": "BO",
    "delivery": true,
    "division": "Murshidabad Division",
    "region": "Kolkata Region",
    "circle": "West Bengal Circle",
    "latitude": 23.5965,
    "longitude": 88.2235
  },
  {
    "place_name": "Udaynagar Colony BO",
    "district": "MURSHIDABAD",
    "state": "WEST BENGAL",
    "pincode": "742305",
    "office_type": "BO",
    "delivery": true,
    "division": "Murshidabad Division",
    "region": "Kolkata Region",
    "circle": "West Bengal Circle",
    "latitude": 23.5965,
    "longitude": 88.2235
  },
  {
    "place_name": "Gopinathpur BO",
    "district": "MURSHIDABAD",
    "state": "WEST BENGAL",
    "pincode": "742149",
    "office_type": "BO",
    "delivery": true,
    "division": "Murshidabad Division",
    "region": "Kolkata Region",
    "circle": "West Bengal Circle",
    "latitude": 24.1082,
    "longitude": 87.9171
  },
  {
    "place_name": "Jafrabad BO",
    "district": "MURSHIDABAD",
    "state": "WEST BENGAL",
    "pincode": "742149",
    "office_type": "BO",
    "delivery": true,
    "division": "Murshidabad Division",
    "region": "Kolkata Region",
    "circle": "West Bengal Circle",
    "latitude": 24.1528,
    "longitude": 88.1461
  },
  {
    "place_name": "BSahazadpur BO",
    "district": "MURSHIDABAD",
    "state": "WEST BENGAL",
    "pincode": "742187",
    "office_type": "BO",
    "delivery": true,
    "division": "Murshidabad Division",
    "region": "Kolkata Region",
    "circle": "West Bengal Circle",
    "latitude": 24.7341,
    "longitude": 87.9239
  },
  {
    "place_name": "Goaljan BO",
    "district": "MURSHIDABAD",
    "state": "WEST BENGAL",
    "pincode": "742187",
    "office_type": "BO",
    "delivery": true,
    "division": "Murshidabad Division",
    "region": "Kolkata Region",
    "circle": "West Bengal Circle",
    "latitude": 24.7341,
    "longitude": 87.9239
  },
  {
    "place_name": "Borderpara BO",
    "district": "MURSHIDABAD",
    "state": "WEST BENGAL",
    "pincode": "742308",
    "office_type": "BO",
    "delivery": true,
    "division": "Murshidabad Division",
    "region": "Kolkata Region",
    "circle": "West Bengal Circle",
    "latitude": 25.0226,
    "longitude": 87.9393
  },
  {
    "place_name": "Beharia BO",
    "district": "MURSHIDABAD",
    "state": "WEST BENGAL",
    "pincode": "742175",
    "office_type": "BO",
    "delivery": true,
    "division": "Murshidabad Division",
    "region": "Kolkata Region",
    "circle": "West Bengal Circle",
    "latitude": 26.0241,
    "longitude": 87.9515
  },
  {
    "place_name": "Bundainagar BO",
    "district": "MURSHIDABAD",
    "state": "WEST BENGAL",
    "pincode": "742175",
    "office_type": "BO",
    "delivery": true,
    "division": "Murshidabad Division",
    "region": "Kolkata Region",
    "circle": "West Bengal Circle",
    "latitude": 25.0597,
    "longitude": 87.9187
  },
  {
    "place_name": "Kazipara BO",
    "district": "MURSHIDABAD",
    "state": "WEST BENGAL",
    "pincode": "742306",
    "office_type": "BO",
    "delivery": true,
    "division": "Murshidabad Division",
    "region": "Kolkata Region",
    "circle": "West Bengal Circle",
    "latitude": 23.7144,
    "longitude": 88.5022
  },
  {
    "place_name": "Gobindapur BO",
    "district": "MURSHIDABAD",
    "state": "WEST BENGAL",
    "pincode": "742405",
    "office_type": "BO",
    "delivery": true,
    "division": "Murshidabad Division",
    "region": "Kolkata Region",
    "circle": "West Bengal Circle",
    "latitude": 24.6581,
    "longitude": 87.9593
  },
  {
    "place_name": "Kamnagar BO",
    "district": "MURSHIDABAD",
    "state": "WEST BENGAL",
    "pincode": "742405",
    "office_type": "BO",
    "delivery": true,
    "division": "Murshidabad Division",
    "region": "Kolkata Region",
    "circle": "West Bengal Circle",
    "latitude": 24.3965,
    "longitude": 87.961
  },
  {
    "place_name": "Kanthalia BO",
    "district": "MURSHIDABAD",
    "state": "WEST BENGAL",
    "pincode": "742405",
    "office_type": "BO",
    "delivery": true,
    "division": "Murshidabad Division",
    "region": "Kolkata Region",
    "circle": "West Bengal Circle",
    "latitude": 24.3965,
    "longitude": 87.961
  },
  {
    "place_name": "Karna Subarna BO",
    "district": "MURSHIDABAD",
    "state": "WEST BENGAL",
    "pincode": "742405",
    "office_type": "BO",
    "delivery": true,
    "division": "Murshidabad Division",
    "region": "Kolkata Region",
    "circle": "West Bengal Circle",
    "latitude": 24.3965,
    "longitude": 87.961
  },
  {
    "place_name": "Sabitrinagar BO",
    "district": "MURSHIDABAD",
    "state": "WEST BENGAL",
    "pincode": "742405",
    "office_type": "BO",
    "delivery": true,
    "division": "Murshidabad Division",
    "region": "Kolkata Region",
    "circle": "West Bengal Circle",
    "latitude": 24.3965,
    "longitude": 87.961
  },
  {
    "place_name": "Srikrishnapur BO",
    "district": "MURSHIDABAD",
    "state": "WEST BENGAL",
    "pincode": "742405",
    "office_type": "BO",
    "delivery": true,
    "division": "Murshidabad Division",
    "region": "Kolkata Region",
    "circle": "West Bengal Circle",
    "latitude": 24.135,
    "longitude": 87.9628
  },
  {
    "place_name": "Kharjuna BO",
    "district": "MURSHIDABAD",
    "state": "WEST BENGAL",
    "pincode": "742168",
    "office_type": "BO",
    "delivery": true,
    "division": "Murshidabad Division",
    "region": "Kolkata Region",
    "circle": "West Bengal Circle",
    "latitude": 23.9875,
    "longitude": 87.922
  },
  {
    "place_name": "Kundal BO",
    "district": "MURSHIDABAD",
    "state": "WEST BENGAL",
    "pincode": "742168",
    "office_type": "BO",
    "delivery": true,
    "division": "Murshidabad Division",
    "region": "Kolkata Region",
    "circle": "West Bengal Circle",
    "latitude": 23.9875,
    "longitude": 87.922
  },
  {
    "place_name": "Kunia BO",
    "district": "MURSHIDABAD",
    "state": "WEST BENGAL",
    "pincode": "742168",
    "office_type": "BO",
    "delivery": true,
    "division": "Murshidabad Division",
    "region": "Kolkata Region",
    "circle": "West Bengal Circle",
    "latitude": 24.0237,
    "longitude": 87.9259
  },
  {
    "place_name": "Nabadurga BO",
    "district": "MURSHIDABAD",
    "state": "WEST BENGAL",
    "pincode": "742168",
    "office_type": "BO",
    "delivery": true,
    "division": "Murshidabad Division",
    "region": "Kolkata Region",
    "circle": "West Bengal Circle",
    "latitude": 23.9875,
    "longitude": 87.922
  },
  {
    "place_name": "Amlai BO",
    "district": "MURSHIDABAD",
    "state": "WEST BENGAL",
    "pincode": "742301",
    "office_type": "BO",
    "delivery": true,
    "division": "Murshidabad Division",
    "region": "Kolkata Region",
    "circle": "West Bengal Circle",
    "latitude": 24.6125,
    "longitude": 87.8092
  },
  {
    "place_name": "Binodia BO",
    "district": "MURSHIDABAD",
    "state": "WEST BENGAL",
    "pincode": "742301",
    "office_type": "BO",
    "delivery": true,
    "division": "Murshidabad Division",
    "region": "Kolkata Region",
    "circle": "West Bengal Circle",
    "latitude": 24.6125,
    "longitude": 87.8092
  },
  {
    "place_name": "Sehalai BO",
    "district": "MURSHIDABAD",
    "state": "WEST BENGAL",
    "pincode": "742301",
    "office_type": "BO",
    "delivery": true,
    "division": "Murshidabad Division",
    "region": "Kolkata Region",
    "circle": "West Bengal Circle",
    "latitude": 24.6125,
    "longitude": 87.8092
  },
  {
    "place_name": "Amritakunda BO",
    "district": "MURSHIDABAD",
    "state": "WEST BENGAL",
    "pincode": "742136",
    "office_type": "BO",
    "delivery": true,
    "division": "Murshidabad Division",
    "region": "Kolkata Region",
    "circle": "West Bengal Circle",
    "latitude": 24.0589,
    "longitude": 88.12
  },
  {
    "place_name": "Bagore BO",
    "district": "MURSHIDABAD",
    "state": "WEST BENGAL",
    "pincode": "742136",
    "office_type": "BO",
    "delivery": true,
    "division": "Murshidabad Division",
    "region": "Kolkata Region",
    "circle": "West Bengal Circle",
    "latitude": 24.0589,
    "longitude": 88.12
  },
  {
    "place_name": "Ganthla BO",
    "district": "MURSHIDABAD",
    "state": "WEST BENGAL",
    "pincode": "742136",
    "office_type": "BO",
    "delivery": true,
    "division": "Murshidabad Division",
    "region": "Kolkata Region",
    "circle": "West Bengal Circle",
    "latitude": 24.0589,
    "longitude": 88.12
  },
  {
    "place_name": "Khosbaspur BO",
    "district": "MURSHIDABAD",
    "state": "WEST BENGAL",
    "pincode": "742136",
    "office_type": "BO",
    "delivery": true,
    "division": "Murshidabad Division",
    "region": "Kolkata Region",
    "circle": "West Bengal Circle",
    "latitude": 24.0589,
    "longitude": 88.12
  },
  {
    "place_name": "Benipur BO",
    "district": "MURSHIDABAD",
    "state": "WEST BENGAL",
    "pincode": "742140",
    "office_type": "BO",
    "delivery": true,
    "division": "Murshidabad Division",
    "region": "Kolkata Region",
    "circle": "West Bengal Circle",
    "latitude": 23.9287,
    "longitude": 87.6178
  },
  {
    "place_name": "Jajan BO",
    "district": "MURSHIDABAD",
    "state": "WEST BENGAL",
    "pincode": "742140",
    "office_type": "BO",
    "delivery": true,
    "division": "Murshidabad Division",
    "region": "Kolkata Region",
    "circle": "West Bengal Circle",
    "latitude": 23.9287,
    "longitude": 87.6178
  },
  {
    "place_name": "Purandarpur BO",
    "district": "MURSHIDABAD",
    "state": "WEST BENGAL",
    "pincode": "742140",
    "office_type": "BO",
    "delivery": true,
    "division": "Murshidabad Division",
    "region": "Kolkata Region",
    "circle": "West Bengal Circle",
    "latitude": 23.8553,
    "longitude": 87.5827
  },
  {
    "place_name": "Gurulia BO",
    "district": "MURSHIDABAD",
    "state": "WEST BENGAL",
    "pincode": "742147",
    "office_type": "BO",
    "delivery": true,
    "division": "Murshidabad Division",
    "region": "Kolkata Region",
    "circle": "West Bengal Circle",
    "latitude": 24.1605,
    "longitude": 87.9435
  },
  {
    "place_name": "Kashidanga Mohammadpur BO",
    "district": "MURSHIDABAD",
    "state": "WEST BENGAL",
    "pincode": "742159",
    "office_type": "BO",
    "delivery": true,
    "division": "Murshidabad Division",
    "region": "Kolkata Region",
    "circle": "West Bengal Circle",
    "latitude": 24.1707,
    "longitude": 87.9755
  },
  {
    "place_name": "Godda Sighari BO",
    "district": "MURSHIDABAD",
    "state": "WEST BENGAL",
    "pincode": "742161",
    "office_type": "BO",
    "delivery": true,
    "division": "Murshidabad Division",
    "region": "Kolkata Region",
    "circle": "West Bengal Circle",
    "latitude": 24.1251,
    "longitude": 87.9561
  },
  {
    "place_name": "Jawhari BO",
    "district": "MURSHIDABAD",
    "state": "WEST BENGAL",
    "pincode": "742161",
    "office_type": "BO",
    "delivery": true,
    "division": "Murshidabad Division",
    "region": "Kolkata Region",
    "circle": "West Bengal Circle",
    "latitude": 24.1251,
    "longitude": 87.9561
  },
  {
    "place_name": "Marut BO",
    "district": "MURSHIDABAD",
    "state": "WEST BENGAL",
    "pincode": "742161",
    "office_type": "BO",
    "delivery": true,
    "division": "Murshidabad Division",
    "region": "Kolkata Region",
    "circle": "West Bengal Circle",
    "latitude": 24.1251,
    "longitude": 87.9561
  },
  {
    "place_name": "Rajhat BO",
    "district": "MURSHIDABAD",
    "state": "WEST BENGAL",
    "pincode": "742161",
    "office_type": "BO",
    "delivery": true,
    "division": "Murshidabad Division",
    "region": "Kolkata Region",
    "circle": "West Bengal Circle",
    "latitude": 24.1251,
    "longitude": 87.9561
  },
  {
    "place_name": "Shibrambati BO",
    "district": "MURSHIDABAD",
    "state": "WEST BENGAL",
    "pincode": "742161",
    "office_type": "BO",
    "delivery": true,
    "division": "Murshidabad Division",
    "region": "Kolkata Region",
    "circle": "West Bengal Circle",
    "latitude": 24.1251,
    "longitude": 87.9561
  },
  {
    "place_name": "Lohadaha BO",
    "district": "MURSHIDABAD",
    "state": "WEST BENGAL",
    "pincode": "742163",
    "office_type": "BO",
    "delivery": true,
    "division": "Murshidabad Division",
    "region": "Kolkata Region",
    "circle": "West Bengal Circle",
    "latitude": 23.5221,
    "longitude": 88.3129
  },
  {
    "place_name": "Sompara BO",
    "district": "MURSHIDABAD",
    "state": "WEST BENGAL",
    "pincode": "742163",
    "office_type": "BO",
    "delivery": true,
    "division": "Murshidabad Division",
    "region": "Kolkata Region",
    "circle": "West Bengal Circle",
    "latitude": 23.5221,
    "longitude": 88.3129
  },
  {
    "place_name": "Dutta Barutia BO",
    "district": "MURSHIDABAD",
    "state": "WEST BENGAL",
    "pincode": "742401",
    "office_type": "BO",
    "delivery": true,
    "division": "Murshidabad Division",
    "region": "Kolkata Region",
    "circle": "West Bengal Circle",
    "latitude": 23.7708,
    "longitude": 88.1021
  },
  {
    "place_name": "Gulhatia BO",
    "district": "MURSHIDABAD",
    "state": "WEST BENGAL",
    "pincode": "742401",
    "office_type": "BO",
    "delivery": true,
    "division": "Murshidabad Division",
    "region": "Kolkata Region",
    "circle": "West Bengal Circle",
    "latitude": 23.7708,
    "longitude": 88.1021
  },
  {
    "place_name": "Miyan BO",
    "district": "MURSHIDABAD",
    "state": "WEST BENGAL",
    "pincode": "742404",
    "office_type": "BO",
    "delivery": true,
    "division": "Murshidabad Division",
    "region": "Kolkata Region",
    "circle": "West Bengal Circle",
    "latitude": 23.9685,
    "longitude": 87.8257
  },
  {
    "place_name": "Sarmastipur BO",
    "district": "MURSHIDABAD",
    "state": "WEST BENGAL",
    "pincode": "742404",
    "office_type": "BO",
    "delivery": true,
    "division": "Murshidabad Division",
    "region": "Kolkata Region",
    "circle": "West Bengal Circle",
    "latitude": 23.9685,
    "longitude": 87.8257
  },
  {
    "place_name": "Hasanpur BO",
    "district": "MURSHIDABAD",
    "state": "WEST BENGAL",
    "pincode": "742201",
    "office_type": "BO",
    "delivery": true,
    "division": "Murshidabad Division",
    "region": "Kolkata Region",
    "circle": "West Bengal Circle",
    "latitude": 24.0811,
    "longitude": 87.9102
  },
  {
    "place_name": "Ghorshala BO",
    "district": "MURSHIDABAD",
    "state": "WEST BENGAL",
    "pincode": "742122",
    "office_type": "BO",
    "delivery": true,
    "division": "Murshidabad Division",
    "region": "Kolkata Region",
    "circle": "West Bengal Circle",
    "latitude": 24.2273,
    "longitude": 88.2581
  },
  {
    "place_name": "Gobardhandanga BO",
    "district": "MURSHIDABAD",
    "state": "WEST BENGAL",
    "pincode": "742122",
    "office_type": "BO",
    "delivery": true,
    "division": "Murshidabad Division",
    "region": "Kolkata Region",
    "circle": "West Bengal Circle",
    "latitude": 24.2273,
    "longitude": 88.2581
  },
  {
    "place_name": "Jarur BO",
    "district": "MURSHIDABAD",
    "state": "WEST BENGAL",
    "pincode": "742235",
    "office_type": "BO",
    "delivery": true,
    "division": "Murshidabad Division",
    "region": "Kolkata Region",
    "circle": "West Bengal Circle",
    "latitude": 24.2744,
    "longitude": 87.8508
  },
  {
    "place_name": "Tanti Birol BO",
    "district": "MURSHIDABAD",
    "state": "WEST BENGAL",
    "pincode": "742235",
    "office_type": "BO",
    "delivery": true,
    "division": "Murshidabad Division",
    "region": "Kolkata Region",
    "circle": "West Bengal Circle",
    "latitude": 24.2744,
    "longitude": 87.8508
  },
  {
    "place_name": "Akheriganj BO",
    "district": "MURSHIDABAD",
    "state": "WEST BENGAL",
    "pincode": "742135",
    "office_type": "BO",
    "delivery": true,
    "division": "Murshidabad Division",
    "region": "Kolkata Region",
    "circle": "West Bengal Circle",
    "latitude": 24.3321,
    "longitude": 88.058
  },
  {
    "place_name": "Diar Shyampur BO",
    "district": "MURSHIDABAD",
    "state": "WEST BENGAL",
    "pincode": "742135",
    "office_type": "BO",
    "delivery": true,
    "division": "Murshidabad Division",
    "region": "Kolkata Region",
    "circle": "West Bengal Circle",
    "latitude": 24.3321,
    "longitude": 88.058
  },
  {
    "place_name": "Kalukhali BO",
    "district": "MURSHIDABAD",
    "state": "WEST BENGAL",
    "pincode": "742135",
    "office_type": "BO",
    "delivery": true,
    "division": "Murshidabad Division",
    "region": "Kolkata Region",
    "circle": "West Bengal Circle",
    "latitude": 24.3321,
    "longitude": 88.058
  },
  {
    "place_name": "Nayakharida Babupur BO",
    "district": "MURSHIDABAD",
    "state": "WEST BENGAL",
    "pincode": "742135",
    "office_type": "BO",
    "delivery": true,
    "division": "Murshidabad Division",
    "region": "Kolkata Region",
    "circle": "West Bengal Circle",
    "latitude": 24.3321,
    "longitude": 88.058
  },
  {
    "place_name": "Shyampur Nutanpara BO",
    "district": "MURSHIDABAD",
    "state": "WEST BENGAL",
    "pincode": "742135",
    "office_type": "BO",
    "delivery": true,
    "division": "Murshidabad Division",
    "region": "Kolkata Region",
    "circle": "West Bengal Circle",
    "latitude": 24.3321,
    "longitude": 88.058
  },
  {
    "place_name": "Bahagalpur BO",
    "district": "MURSHIDABAD",
    "state": "WEST BENGAL",
    "pincode": "742202",
    "office_type": "BO",
    "delivery": true,
    "division": "Murshidabad Division",
    "region": "Kolkata Region",
    "circle": "West Bengal Circle",
    "latitude": 24.6042,
    "longitude": 87.9521
  },
  {
    "place_name": "Deonapur BO",
    "district": "MALDAH",
    "state": "WEST BENGAL",
    "pincode": "742202",
    "office_type": "BO",
    "delivery": true,
    "division": "Murshidabad Division",
    "region": "Kolkata Region",
    "circle": "West Bengal Circle",
    "latitude": 24.5917,
    "longitude": 87.942
  },
  {
    "place_name": "Kankuria BO",
    "district": "MURSHIDABAD",
    "state": "WEST BENGAL",
    "pincode": "742202",
    "office_type": "BO",
    "delivery": true,
    "division": "Murshidabad Division",
    "region": "Kolkata Region",
    "circle": "West Bengal Circle",
    "latitude": 24.6439,
    "longitude": 87.9748
  },
  {
    "place_name": "Ratanpur BO",
    "district": "MURSHIDABAD",
    "state": "WEST BENGAL",
    "pincode": "742202",
    "office_type": "BO",
    "delivery": true,
    "division": "Murshidabad Division",
    "region": "Kolkata Region",
    "circle": "West Bengal Circle",
    "latitude": 24.1314,
    "longitude": 87.9555
  },
  {
    "place_name": "Bagdabra BO",
    "district": "MURSHIDABAD",
    "state": "WEST BENGAL",
    "pincode": "742212",
    "office_type": "BO",
    "delivery": true,
    "division": "Murshidabad Division",
    "region": "Kolkata Region",
    "circle": "West Bengal Circle",
    "latitude": 24.7469,
    "longitude": 87.8402
  },
  {
    "place_name": "Srimantapur BO",
    "district": "MURSHIDABAD",
    "state": "WEST BENGAL",
    "pincode": "742212",
    "office_type": "BO",
    "delivery": true,
    "division": "Murshidabad Division",
    "region": "Kolkata Region",
    "circle": "West Bengal Circle",
    "latitude": 24.7843,
    "longitude": 87.8722
  },
  {
    "place_name": "Diar Raninagar BO",
    "district": "MURSHIDABAD",
    "state": "WEST BENGAL",
    "pincode": "742227",
    "office_type": "BO",
    "delivery": true,
    "division": "Murshidabad Division",
    "region": "Kolkata Region",
    "circle": "West Bengal Circle",
    "latitude": 24.2505,
    "longitude": 87.9755
  },
  {
    "place_name": "Nutanganj BO",
    "district": "MURSHIDABAD",
    "state": "WEST BENGAL",
    "pincode": "742227",
    "office_type": "BO",
    "delivery": true,
    "division": "Murshidabad Division",
    "region": "Kolkata Region",
    "circle": "West Bengal Circle",
    "latitude": 24.2505,
    "longitude": 87.9755
  },
  {
    "place_name": "Rajnagar BO",
    "district": "MURSHIDABAD",
    "state": "WEST BENGAL",
    "pincode": "742227",
    "office_type": "BO",
    "delivery": true,
    "division": "Murshidabad Division",
    "region": "Kolkata Region",
    "circle": "West Bengal Circle",
    "latitude": 24.0954,
    "longitude": 87.886
  },
  {
    "place_name": "Ahiran BO",
    "district": "MURSHIDABAD",
    "state": "WEST BENGAL",
    "pincode": "742223",
    "office_type": "BO",
    "delivery": true,
    "division": "Murshidabad Division",
    "region": "Kolkata Region",
    "circle": "West Bengal Circle",
    "latitude": 24.52,
    "longitude": 88.03
  },
  {
    "place_name": "Ajgarpara BO",
    "district": "MURSHIDABAD",
    "state": "WEST BENGAL",
    "pincode": "742223",
    "office_type": "BO",
    "delivery": true,
    "division": "Murshidabad Division",
    "region": "Kolkata Region",
    "circle": "West Bengal Circle",
    "latitude": 24.075,
    "longitude": 88.0367
  },
  {
    "place_name": "Nurpur BO",
    "district": "MURSHIDABAD",
    "state": "WEST BENGAL",
    "pincode": "742223",
    "office_type": "BO",
    "delivery": true,
    "division": "Murshidabad Division",
    "region": "Kolkata Region",
    "circle": "West Bengal Circle",
    "latitude": 22.9011,
    "longitude": 88.5795
  },
  {
    "place_name": "Raghunathpur BO",
    "district": "MURSHIDABAD",
    "state": "WEST BENGAL",
    "pincode": "742223",
    "office_type": "BO",
    "delivery": true,
    "division": "Murshidabad Division",
    "region": "Kolkata Region",
    "circle": "West Bengal Circle",
    "latitude": 24.4667,
    "longitude": 87.8402
  },
  {
    "place_name": "Dayarampur BO",
    "district": "MURSHIDABAD",
    "state": "WEST BENGAL",
    "pincode": "742213",
    "office_type": "BO",
    "delivery": true,
    "division": "Murshidabad Division",
    "region": "Kolkata Region",
    "circle": "West Bengal Circle",
    "latitude": 24.5643,
    "longitude": 88.0252
  },
  {
    "place_name": "Giria BO",
    "district": "MURSHIDABAD",
    "state": "WEST BENGAL",
    "pincode": "742213",
    "office_type": "BO",
    "delivery": true,
    "division": "Murshidabad Division",
    "region": "Kolkata Region",
    "circle": "West Bengal Circle",
    "latitude": 24.52,
    "longitude": 88.08
  },
  {
    "place_name": "Ramdebpur BO",
    "district": "MURSHIDABAD",
    "state": "WEST BENGAL",
    "pincode": "742213",
    "office_type": "BO",
    "delivery": true,
    "division": "Murshidabad Division",
    "region": "Kolkata Region",
    "circle": "West Bengal Circle",
    "latitude": 24.5643,
    "longitude": 88.0252
  },
  {
    "place_name": "AMDAHARA BO",
    "district": "MURSHIDABAD",
    "state": "WEST BENGAL",
    "pincode": "742123",
    "office_type": "BO",
    "delivery": true,
    "division": "Murshidabad Division",
    "region": "Kolkata Region",
    "circle": "West Bengal Circle",
    "latitude": 24.24,
    "longitude": 88.26
  },
  {
    "place_name": "Ashariadaha BO",
    "district": "MURSHIDABAD",
    "state": "WEST BENGAL",
    "pincode": "742148",
    "office_type": "BO",
    "delivery": true,
    "division": "Murshidabad Division",
    "region": "Kolkata Region",
    "circle": "West Bengal Circle",
    "latitude": 24.3584,
    "longitude": 88.0833
  },
  {
    "place_name": "Bajupur Madhupur BO",
    "district": "MURSHIDABAD",
    "state": "WEST BENGAL",
    "pincode": "742148",
    "office_type": "BO",
    "delivery": true,
    "division": "Murshidabad Division",
    "region": "Kolkata Region",
    "circle": "West Bengal Circle",
    "latitude": 24.3584,
    "longitude": 88.0833
  },
  {
    "place_name": "Bansgara BO",
    "district": "MURSHIDABAD",
    "state": "WEST BENGAL",
    "pincode": "742148",
    "office_type": "BO",
    "delivery": true,
    "division": "Murshidabad Division",
    "region": "Kolkata Region",
    "circle": "West Bengal Circle",
    "latitude": 24.3584,
    "longitude": 88.0833
  },
  {
    "place_name": "Upar Fatepur BO",
    "district": "MURSHIDABAD",
    "state": "WEST BENGAL",
    "pincode": "742148",
    "office_type": "BO",
    "delivery": true,
    "division": "Murshidabad Division",
    "region": "Kolkata Region",
    "circle": "West Bengal Circle",
    "latitude": 24.3584,
    "longitude": 88.0833
  },
  {
    "place_name": "Balia BO",
    "district": "MURSHIDABAD",
    "state": "WEST BENGAL",
    "pincode": "742237",
    "office_type": "BO",
    "delivery": true,
    "division": "Murshidabad Division",
    "region": "Kolkata Region",
    "circle": "West Bengal Circle",
    "latitude": 24.2305,
    "longitude": 87.7025
  },
  {
    "place_name": "Kabilpur BO",
    "district": "MURSHIDABAD",
    "state": "WEST BENGAL",
    "pincode": "742237",
    "office_type": "BO",
    "delivery": true,
    "division": "Murshidabad Division",
    "region": "Kolkata Region",
    "circle": "West Bengal Circle",
    "latitude": 24.2122,
    "longitude": 87.7978
  },
  {
    "place_name": "Targram BO",
    "district": "MURSHIDABAD",
    "state": "WEST BENGAL",
    "pincode": "742184",
    "office_type": "BO",
    "delivery": true,
    "division": "Murshidabad Division",
    "region": "Kolkata Region",
    "circle": "West Bengal Circle",
    "latitude": 24.2371,
    "longitude": 88.0059
  },
  {
    "place_name": "Alamsahi BO",
    "district": "MURSHIDABAD",
    "state": "WEST BENGAL",
    "pincode": "742224",
    "office_type": "BO",
    "delivery": true,
    "division": "Murshidabad Division",
    "region": "Kolkata Region",
    "circle": "West Bengal Circle",
    "latitude": 24.6273,
    "longitude": 87.971
  },
  {
    "place_name": "Kashimnagar BO",
    "district": "MURSHIDABAD",
    "state": "WEST BENGAL",
    "pincode": "742224",
    "office_type": "BO",
    "delivery": true,
    "division": "Murshidabad Division",
    "region": "Kolkata Region",
    "circle": "West Bengal Circle",
    "latitude": 24.6278,
    "longitude": 87.9871
  },
  {
    "place_name": "Nimtita Joykrishnapur BO",
    "district": "MURSHIDABAD",
    "state": "WEST BENGAL",
    "pincode": "742224",
    "office_type": "BO",
    "delivery": true,
    "division": "Murshidabad Division",
    "region": "Kolkata Region",
    "circle": "West Bengal Circle",
    "latitude": 24.6278,
    "longitude": 87.9871
  },
  {
    "place_name": "Laskarpur BO",
    "district": "MURSHIDABAD",
    "state": "WEST BENGAL",
    "pincode": "742151",
    "office_type": "BO",
    "delivery": true,
    "division": "Murshidabad Division",
    "region": "Kolkata Region",
    "circle": "West Bengal Circle",
    "latitude": 24.2761,
    "longitude": 87.8504
  },
  {
    "place_name": "Sadar Nashipur BO",
    "district": "MURSHIDABAD",
    "state": "WEST BENGAL",
    "pincode": "742151",
    "office_type": "BO",
    "delivery": true,
    "division": "Murshidabad Division",
    "region": "Kolkata Region",
    "circle": "West Bengal Circle",
    "latitude": 23.1589,
    "longitude": 88.0465
  },
  {
    "place_name": "Aheripara BO",
    "district": "MURSHIDABAD",
    "state": "WEST BENGAL",
    "pincode": "742226",
    "office_type": "BO",
    "delivery": true,
    "division": "Murshidabad Division",
    "region": "Kolkata Region",
    "circle": "West Bengal Circle",
    "latitude": 24.3144,
    "longitude": 87.9452
  },